     2.10           OBSERVATION DATA    GPS(GPS)            RINEX VERSION / TYPE
cnvtToRINEX 3.07.0  convertToRINEX OPR  19-May-20 12:31 UTC PGM / RUN BY / DATE 
----------------------------------------------------------- COMMENT             
AG17                                                        MARKER NAME         
AG17                                                        MARKER NUMBER       
GNSS Observer       Trimble                                 OBSERVER / AGENCY   
0220365401          TRIMBLE 5700        2.32                REC # / TYPE / VERS 
                    UNKNOWN EXT                             ANT # / TYPE        
 -3050989.6821  4927817.4685  2653598.6256                  APPROX POSITION XYZ 
        0.0000        0.0000        0.0000                  ANTENNA: DELTA H/E/N
     1     1     0                                          WAVELENGTH FACT L1/2
     4    C1    L1    L2    P2                              # / TYPES OF OBSERV 
  2020     5    16     0     3   25.0000000     GPS         TIME OF FIRST OBS   
  2020     5    16     1    33   54.0000000     GPS         TIME OF LAST OBS    
     0                                                      RCV CLOCK OFFS APPL 
    18                                                      LEAP SECONDS        
    13                                                      # OF SATELLITES     
   G03   550   549   537   537                              PRN / # OF OBS      
   G04  5411  5411  5411  5411                              PRN / # OF OBS      
   G08  5405  5405  5405  5405                              PRN / # OF OBS      
   G09  2915  2915  2915  2915                              PRN / # OF OBS      
   G11  1805  1805  1805  1805                              PRN / # OF OBS      
   G14  3562  3562  3562  3562                              PRN / # OF OBS      
   G16  5430  5430  5430  5430                              PRN / # OF OBS      
   G18    93    93    93    93                              PRN / # OF OBS      
   G21  4437  4437  4437  4437                              PRN / # OF OBS      
   G26  5430  5430  5430  5430                              PRN / # OF OBS      
   G27  5430  5430  5430  5430                              PRN / # OF OBS      
   G31  5430  5430  5430  5430                              PRN / # OF OBS      
   G32   417   417   417   417                              PRN / # OF OBS      
CARRIER PHASE MEASUREMENTS: PHASE SHIFTS REMOVED            COMMENT             
                                                            END OF HEADER       
 20  5 16  0  3 25.0000000  0  5G14G16G26G27G31                     -0.000058556
  21824891.64116     77811.28116     40104.56357  21824888.82457
  20619898.43016    -36307.75416    -19975.62558  20619894.53958
  21046860.25016     20865.22316     11348.61759  21046860.18859
  21469077.10216   -160215.69916    -83257.36359  21469075.79759
  21712856.12516     10132.00416     -1970.25459  21712853.25059
 20  5 16  0  3 26.0000000  0  5G14G16G26G27G31                     -0.000059158
  21825248.484 6     79686.629 6     41565.87147  21825245.37947
  20619720.031 6    -37245.133 6    -20706.05148  20619716.00448
  21046956.031 6     21367.711 6     11740.16449  21046955.64149
  21468340.172 6   -164086.461 6    -86273.53949  21468339.23049
  21712837.469 6     10033.305 6     -2047.16449  21712834.30149
 20  5 16  0  3 27.0000000  0  5G14G16G26G27G31                     -0.000059759
  21825605.703 6     81561.918 6     43027.13347  21825602.51647
  20619541.758 6    -38182.633 6    -21436.57448  20619537.89548
  21047051.258 6     21869.902 6     12131.48449  21047050.96549
  21467603.789 6   -167957.273 6    -89289.75849  21467602.50049
  21712818.344 6      9934.316 6     -2124.30149  21712815.12149
 20  5 16  0  3 28.0000000  0  5G14G16G26G27G31                     -0.000060362
  21825962.719 6     83437.113 6     44488.32047  21825959.16447
  20619363.516 6    -39120.262 6    -22167.19548  20619359.23448
  21047146.641 6     22371.719 6     12522.50449  21047146.55149
  21466867.461 6   -171828.125 6    -92306.00849  21466865.80549
  21712799.813 6      9835.051 6     -2201.65649  21712796.80949
 20  5 16  0  3 29.0000000  0  5G14G16G26G27G31                     -0.000060963
  21826319.484 6     85312.230 6     45949.45347  21826316.21147
  20619184.883 6    -40057.949 6    -22897.85948  20619181.14848
  21047242.250 6     22873.266 6     12913.32049  21047241.70349
  21466130.398 6   -175699.027 6    -95322.29749  21466129.35549
  21712780.906 6      9735.563 6     -2279.18049  21712777.27349
 20  5 16  0  3 30.0000000  0  5G14G16G26G27G31                     -0.000061565
  21826675.758 6     87187.410 6     47410.63347  21826673.03947
  20619005.977 6    -40995.605 6    -23628.50448  20619002.68848
  21047337.586 6     23374.586 6     13303.95749  21047336.91049
  21465394.070 6   -179569.836 6    -98338.50849  21465392.67649
  21712762.305 6      9635.895 6     -2356.84049  21712758.51649
 20  5 16  0  3 31.0000000  0  5G14G16G26G27G31                     -0.000062168
  21827033.016 6     89062.645 6     48871.85947  21827029.68847
  20618827.492 6    -41933.227 6    -24359.11748  20618824.12548
  21047432.789 6     23875.738 6     13694.46949  21047432.37149
  21464657.539 6   -183440.547 6   -101354.64849  21464656.32849
  21712743.289 6      9536.105 6     -2434.60249  21712739.46949
 20  5 16  0  3 32.0000000  0  5G14G16G26G27G31                     -0.000062771
  21827389.781 6     90937.816 6     50333.03147  21827386.32047
  20618649.688 6    -42870.945 6    -25089.80548  20618645.75848
  21047528.320 6     24376.559 6     14084.71949  21047527.91049
  21463920.945 6   -187311.281 6   -104370.80949  21463919.66449
  21712723.609 6      9436.039 6     -2512.57849  21712720.30949
 20  5 16  0  3 33.0000000  0  5G14G16G26G27G31                     -0.000063374
  21827746.773 6     92812.988 6     51794.21147  21827743.06647
  20618470.953 6    -43808.660 6    -25820.49248  20618467.38748
  21047623.586 6     24877.168 6     14474.80949  21047623.05149
  21463184.445 6   -191181.953 6   -107386.91849  21463183.43849
  21712704.977 6      9335.840 6     -2590.65649  21712701.77749
 20  5 16  0  3 34.0000000  0  5G14G16G26G27G31                     -0.000063978
  21828103.227 6     94688.270 6     53255.46947  21828100.22747
  20618292.195 6    -44746.313 6    -26551.12548  20618288.52348
  21047718.391 6     25377.637 6     14864.78149  21047718.39849
  21462447.859 6   -195052.516 6   -110402.93849  21462447.01249
  21712685.633 6      9235.551 6     -2668.81349  21712682.50849
 20  5 16  0  3 35.0000000  0  5G14G16G26G27G31                     -0.000064581
  21828459.891 6     96563.496 6     54716.67647  21828456.85547
  20618113.875 6    -45684.043 6    -27281.82848  20618110.39848
  21047814.008 6     25877.785 6     15254.50449  21047813.81349
  21461711.453 6   -198923.086 6   -113418.96949  21461710.12549
  21712666.531 6      9134.984 6     -2747.17249  21712663.29749
 20  5 16  0  3 36.0000000  0  5G14G16G26G27G31                     -0.000065186
  21828816.992 6     98438.734 6     56177.89547  21828813.80147
  20617935.805 6    -46621.789 6    -28012.53948  20617932.26648
  21047909.211 6     26377.695 6     15644.04749  21047908.59049
  21460974.867 6   -202793.613 6   -116434.96549  21460973.78549
  21712647.516 6      9034.246 6     -2825.66449  21712644.05149
 20  5 16  0  3 37.0000000  0  6G03G14G16G26G27G31                  -0.000065790
  24316717.73414     21343.15614      9936.91057  24316717.84457
  21829173.555 6    100314.020 6     57639.15647  21829170.69947
  20617756.891 6    -47559.535 6    -28743.25048  20617753.44548
  21048004.266 6     26877.422 6     16033.43849  21048004.10949
  21460237.930 6   -206664.043 6   -119450.88349  21460237.40649
  21712628.031 6      8933.355 6     -2904.27749  21712624.64149
 20  5 16  0  3 38.0000000  0  6G03G14G16G26G27G31                  -0.000066441
  24316825.227 2     21905.082 2     10374.78547  24316824.55947
  21829530.914 6    102189.430 6     59100.51247  21829527.74247
  20617578.484 6    -48497.066 6    -29473.80148  20617575.17248
  21048099.398 6     27377.031 6     16422.75049  21048099.36349
  21459501.883 6   -210534.324 6   -122466.69149  21459500.76649
  21712608.938 6      8832.457 6     -2982.90249  21712605.41449
 20  5 16  0  3 39.0000000  0  6G03G14G16G26G27G31                  -0.000067045
  24316932.523 1     22466.992 1     10812.57446  24316931.49646
  21829887.484 6    104064.906 6     60561.92647  21829884.63347
  20617400.422 6    -49434.656 6    -30204.38748  20617396.72748
  21048194.422 6     27876.480 6     16811.92249  21048194.02749
  21458765.063 6   -214404.477 6   -125482.39149  21458764.32849
  21712589.594 7      8731.395 7     -3061.66449  21712586.32049
 20  5 16  0  3 40.0000000  0  6G03G14G16G26G27G31                  -0.000067650
  24317039.375 2     23028.891 2                
  21830244.563 6    105940.465 6     62023.42247  21830241.60547
  20617222.109 6    -50372.172 6    -30934.92248  20617218.25448
  21048289.234 6     28375.711 6     17200.93849  21048288.89549
  21458029.039 6   -218274.535 6   -128498.01649  21458027.60249
  21712570.750 6      8630.215 6     -3140.50049  21712567.62149
 20  5 16  0  3 41.0000000  0  6G03G14G16G26G27G31                  -0.000068254
  24317146.516 2     23590.707 2                
  21830601.172 6    107816.184 6     63485.03947  21830598.61747
  20617043.320 6    -51309.613 6    -31665.39548  20617039.34048
  21048384.414 6     28874.848 6     17589.87149  21048384.10549
  21457292.195 6   -222144.402 6   -131513.48849  21457291.30549
  21712551.320 7      8529.008 7     -3219.36749  21712547.59449
 20  5 16  0  3 42.0000000  0  6G03G14G16G26G27G31                  -0.000068859
  24317253.336 1     24152.422 1                
  21830958.078 6    109691.977 6     64946.69947  21830955.54747
  20616865.570 6    -52246.965 6    -32395.79748  20616861.60248
  21048479.219 6     29373.813 6     17978.68049  21048479.11349
  21456556.344 6   -226014.180 6   -134528.89849  21456554.81349
  21712531.641 7      8427.660 7     -3298.34449  21712528.41849
 20  5 16  0  3 43.0000000  0  6G03G14G16G26G27G31                  -0.000069464
  24317359.688 1     24714.164 1                
  21831314.945 6    111567.867 6     66408.42247  21831312.49247
  20616687.031 6    -53184.258 6    -33126.15248  20616682.85548
  21048574.109 6     29872.672 6     18367.39149  21048574.02749
  21455819.633 6   -229883.773 6   -137544.15649  21455818.44149
  21712512.586 7      8326.273 7     -3377.34449  21712509.45749
 20  5 16  0  3 44.0000000  0  7G03G04G14G16G26G27G31               -0.000070074
  24317466.227 1     25275.930 1                
  22753992.99213   -145658.61713    -66160.45756  22753990.73056
  21831672.141 6    113443.996 6     67870.33247  21831669.23847
  20616508.586 6    -54121.297 6    -33856.30948  20616505.00448
  21048669.336 6     30371.523 6     18756.10549  21048668.80549
  21455083.648 6   -233753.086 6   -140559.20749  21455081.95349
  21712493.242 7      8224.934 7     -3456.30949  21712490.03149
 20  5 16  0  3 45.0000000  0  7G03G04G14G16G26G27G31               -0.000070679
  24317573.641 1     25837.738 1                
  22753291.359 3   -149348.539 3    -69035.73846  22753289.00446
  21832028.773 6    115320.277 6     69332.36347  21832026.17247
  20616329.922 6    -55058.270 6    -34586.41448  20616326.19548
  21048763.922 6     30870.219 6     19144.69949  21048763.95749
  21454347.086 6   -237622.242 6   -143574.14149  21454345.85549
  21712474.055 6      8123.512 6     -3535.33649  21712471.10949
 20  5 16  0  3 46.0000000  0  7G03G04G14G16G26G27G31               -0.000071285
  24317680.773 1     26399.453 1                
  22752588.891 2   -153038.266 2    -71910.87146  22752586.81646
  21832385.492 6    117196.648 6     70794.46947  21832383.66847
  20616151.844 6    -55995.129 6    -35316.44148  20616148.34848
  21048859.141 6     31368.793 6     19533.19949  21048858.73049
  21453610.969 6   -241491.227 6   -146588.93849  21453609.41449
  21712454.906 6      8022.031 6     -3614.41449  21712451.65649
 20  5 16  0  3 47.0000000  0  7G03G04G14G16G26G27G31               -0.000071901
  24317788.48411                                
  22751886.102 2   -156728.137 2    -74786.08246  22751884.90646
  21832743.031 6    119072.992 6     72256.55147  21832740.62147
  20615973.500 6    -56932.063 6    -36046.51648  20615969.53148
  21048953.281 6     31867.078 6     19921.47749  21048953.44549
  21452874.477 6   -245360.262 6   -149603.77049  21452873.35549
  21712435.414 6      7920.320 6     -3693.67249  21712431.89149
 20  5 16  0  3 48.0000000  0  7G03G04G14G16G26G27G31               -0.000072496
  24317894.898 1     27522.512 1                
  22751184.164 2   -160417.852 2    -77661.20745  22751182.40245
  21833100.148 6    120949.523 6     73718.78147  21833098.01247
  20615795.031 6    -57868.828 6    -36776.46548  20615791.34848
  21049047.828 6     32365.336 6     20309.72749  21049048.31649
  21452138.555 6   -249229.023 6   -152618.39849  21452137.18849
  21712415.938 6      7818.613 6     -3772.93049  21712412.58249
 20  5 16  0  3 49.0000000  0  7G03G04G14G16G26G27G31               -0.000073103
  24318001.109 1     28084.219 1                
  22750482.398 5   -164107.395 5    -80536.15246  22750480.51246
  21833457.414 6    122826.340 6     75181.21547  21833455.23847
  20615617.148 6    -58805.441 6    -37506.28948  20615613.15648
  21049143.148 6     32863.555 6     20697.94549  21049143.13349
  21451401.992 6   -253097.465 6   -155632.77049  21451401.07049
  21712396.781 6      7716.984 6     -3852.12549  21712393.00449
 20  5 16  0  3 50.0000000  0  9G03G04G08G14G16G26G27G31G32         -0.000073711
  24318106.930 2     28645.879 2                
  22749780.695 5   -167796.848 5    -83411.02346  22749778.45746
  23805663.54714   -127483.09414    -70085.26258  23805664.90258
  21833814.930 6    124703.191 6     76643.68847  21833812.11747
  20615438.977 6    -59741.914 6    -38236.00848  20615434.81648
  21049237.789 6     33361.633 6     21086.05949  21049237.64549
  21450666.219 6   -256965.840 6   -158647.09849  21450664.97349
  21712377.195 6      7615.207 6     -3931.43849  21712373.91049
  23876090.09415     71935.44915     37633.65257  23876091.10557
 20  5 16  0  3 51.0000000  0  9G03G04G08G14G16G26G27G31G32         -0.000074318
  24318213.555 4     29207.453 4                
  22749077.969 5   -171486.082 5    -86285.73846  22749076.50846
  23804772.148 4   -132171.492 4    -73738.56348  23804772.91848
  21834172.492 6    126580.262 6     78106.32847  21834169.07047
  20615260.867 6    -60678.223 6    -38965.60548  20615256.96948
  21049332.844 6     33859.656 6     21474.12949  21049332.76649
  21449930.180 6   -260833.973 6   -161661.23049  21449929.10249
  21712358.102 6      7513.492 6     -4010.70749  21712354.30549
  23876603.242 5     74633.441 5     39735.98447  23876604.26647
 20  5 16  0  3 52.0000000  0  9G03G04G08G14G16G26G27G31G32         -0.000074924
  24318320.703 4     29769.074 4                
  22748376.219 5   -175175.176 5    -89160.35247  22748374.29747
  23803879.742 4   -136860.039 4    -77391.96948  23803880.69548
  21834529.422 6    128457.473 6     79569.07847  21834526.51247
  20615083.000 6    -61614.406 6    -39695.10948  20615078.70348
  21049427.945 6     34357.594 6     21862.12549  21049427.37949
  21449194.102 6   -264701.914 6   -164675.21149  21449192.62149
  21712338.898 6      7411.699 6     -4090.02049  21712335.20349
  23877116.414 5     77331.309 5     41838.21547  23877117.43047
 20  5 16  0  3 53.0000000  0  9G03G04G08G14G16G26G27G31G32         -0.000075531
  24318427.828 4     30330.609 4     11250.05158  24318427.04758
  22747674.063 5   -178864.184 5    -92034.91847  22747672.07447
  23802987.695 4   -141548.730 4    -81045.48848  23802989.02748
  21834886.781 6    130334.809 6     81031.94547  21834883.49647
  20614904.633 6    -62550.477 6    -40424.51648  20614900.47748
  21049522.250 6     34855.410 6     22250.03149  21049522.10549
  21448458.000 6   -268569.676 6   -167689.04749  21448456.55549
  21712319.531 6      7309.863 6     -4169.37549  21712315.81349
  23877630.031 5     80029.020 5     43940.32047  23877630.91447
 20  5 16  0  3 54.0000000  0  9G03G04G08G14G16G26G27G31G32         -0.000076138
  24318534.188 4     30892.105 4     11687.60948  24318534.20748
  22746972.250 5   -182553.109 5    -94909.41447  22746970.65247
  23802095.516 4   -146237.570 4    -84699.12948  23802096.21548
  21835243.742 6    132212.242 6     82494.88347  21835240.72347
  20614726.242 6    -63486.473 6    -41153.86348  20614722.87148
  21049616.789 6     35353.074 6     22637.83249  21049617.05549
  21447721.852 6   -272437.289 6   -170702.77049  21447720.56649
  21712300.125 6      7207.938 6     -4248.79349  21712296.65249
  23878143.539 5     82726.555 5     46042.28947  23878144.27747
 20  5 16  0  3 55.0000000  0  9G03G04G08G14G16G26G27G31G32         -0.000076746
  24318640.922 4     31453.660 4     12125.21548  24318641.43448
  22746269.938 5   -186241.863 5    -97783.77747  22746268.28147
  23801202.914 4   -150926.523 4    -88352.84848  23801203.62148
  21835601.109 6    134089.863 6     83957.96547  21835598.28547
  20614548.203 6    -64422.316 6    -41883.09048  20614544.27748
  21049711.609 6     35850.676 6     23025.57449  21049711.55149
  21446985.750 6   -276304.680 6   -173716.32449  21446984.68449
  21712280.570 6      7106.012 6     -4328.21949  21712277.09049
  23878656.453 5     85423.977 5     48144.16847  23878657.50047
 20  5 16  0  3 56.0000000  0  9G03G04G08G14G16G26G27G31G32         -0.000077353
  24318749.055 4     32015.223 4     12562.80548  24318748.78148
  22745568.086 5   -189930.465 5   -100658.02047  22745566.53547
  23800310.602 4   -155615.574 4    -92006.65648  23800311.90248
  21835958.594 6    135967.707 6     85421.21947  21835955.64847
  20614370.469 6    -65357.977 6    -42612.18448  20614366.75048
  21049806.297 6     36348.238 6     23413.27749  21049806.33649
  21446249.898 6   -280171.840 6   -176729.69949  21446248.71949
  21712261.414 6      7004.109 6     -4407.62149  21712257.85549
  23879170.086 5     88121.328 5     50245.99647  23879170.77347
 20  5 16  0  3 57.0000000  0  9G03G04G08G14G16G26G27G31G32         -0.000077959
  24318855.234 4     32576.832 4     13000.42248  24318855.19548
  22744866.133 5   -193618.871 5   -103532.10547  22744864.63747
  23799418.602 4   -160304.629 4    -95660.45748  23799419.39148
  21836316.023 6    137845.742 6     86884.62547  21836313.03547
  20614192.328 6    -66293.453 6    -43341.12548  20614188.50848
  21049900.836 6     36845.773 6     23800.97349  21049900.88749
  21445513.813 6   -284038.738 6   -179742.86349  21445513.19149
  21712241.969 6      6902.234 6     -4487.00849  21712238.15649
  23879683.500 5     90818.602 5     52347.75847  23879684.12947
 20  5 16  0  3 58.0000000  0  9G03G04G08G14G16G26G27G31G32         -0.000078568
  24318961.875 4     33138.391 4     13437.98848  24318962.13748
  22744164.438 5   -197307.203 5   -106406.12947  22744163.02347
  23798525.992 4   -164993.898 4    -99314.43448  23798526.88348
  21836673.352 6    139723.871 6     88348.08647  21836670.24247
  20614014.492 6    -67228.836 6    -44069.99648  20614010.10548
  21049995.383 6     37343.148 6     24188.53549  21049995.55549
  21444778.188 6   -287905.496 6   -182755.92649  21444777.23849
  21712222.656 6      6800.266 6     -4566.46949  21712218.93449
  23880196.352 5     93515.695 5     54449.39547  23880197.20347
 20  5 16  0  3 59.0000000  0  9G03G04G08G14G16G26G27G31G32         -0.000079176
  24319068.773 4     33700.039 4     13875.63348  24319069.06648
  22743462.750 5   -200995.328 5   -109279.99247  22743460.90647
  23797634.125 4   -169683.195 4   -102968.43048  23797634.38348
  21837030.758 6    141602.223 6     89811.74247  21837027.23847
  20613836.742 6    -68164.035 6    -44798.71548  20613832.59848
  21050090.492 6     37840.527 6     24576.10249  21050089.94149
  21444042.695 6   -291771.977 6   -185768.76249  21444041.23449
  21712202.805 6      6698.332 6     -4645.90249  21712199.87149
  23880709.359 5     96212.723 5     56550.97747  23880710.70347
 20  5 16  0  4  0.0000000  0  9G03G04G08G14G16G26G27G31G32         -0.000079784
  24319176.219 4     34261.629 4     14313.23448  24319176.21948
  22742760.734 5   -204683.332 5   -112153.75047  22742758.97747
  23796741.695 4   -174372.629 4   -106622.53948  23796741.84848
  21837388.117 6    143480.742 6     91275.52047  21837384.88747
  20613658.633 6    -69099.102 6    -45527.34048  20613654.73848
  21050185.094 6     38337.785 6     24963.57449  21050184.55949
  21443306.836 6   -295638.281 6   -188781.46949  21443305.47349
  21712183.734 6      6596.383 6     -4725.34449  21712180.12949
  23881222.602 5     98909.637 5     58652.46947  23881223.88747
 20  5 16  0  4  1.0000000  0  9G03G04G08G14G16G26G27G31G32         -0.000080391
  24319282.586 4     34823.316 4     14750.90247  24319282.68047
  22742058.938 5   -208371.137 5   -115027.35247  22742057.30547
  23795849.000 4   -179062.168 4   -110276.72748  23795849.88748
  21837745.961 6    145359.457 6     92739.46147  21837742.56347
  20613480.516 6    -70033.980 6    -46255.81348  20613476.32048
  21050279.445 6     38835.020 6     25351.02349  21050279.35949
  21442571.445 6   -299504.336 6   -191793.97749  21442569.64549
  21712164.258 6      6494.441 6     -4804.77349  21712160.91449
  23881736.469 5    101606.449 5     60753.87947  23881736.74247
 20  5 16  0  4  2.0000000  0  9G03G04G08G14G16G26G27G31G32         -0.000080999
  24319389.641 4     35385.090 4     15188.64147  24319390.00447
  22741357.641 5   -212058.703 5   -117900.77747  22741355.55147
  23794956.797 4   -183751.641 4   -113930.85948  23794957.44948
  21838103.492 6    147238.434 6     94203.59447  21838100.38747
  20613302.617 6    -70968.617 6    -46984.10248  20613298.66048
  21050373.844 6     39332.277 6     25738.49649  21050374.33249
  21441835.930 6   -303370.070 6   -194806.23449  21441834.04349
  21712144.625 6      6392.574 6     -4884.15249  21712141.55549
  23882248.875 5    104303.281 5     62855.30547  23882250.43047
 20  5 16  0  4  3.0000000  0  9G03G04G08G14G16G26G27G31G32         -0.000081608
  24319497.063 4     35946.914 4     15626.42647  24319496.39847
  22740656.008 5   -215746.066 5   -120774.04747  22740653.89847
  23794064.305 4   -188441.215 4   -117585.06648  23794065.10248
  21838461.148 6    149117.633 6     95667.90647  21838457.93047
  20613124.680 6    -71903.078 6    -47712.25848  20613120.77748
  21050468.664 6     39829.488 6     26125.94149  21050468.65249
  21441100.102 6   -307235.570 6   -197818.31349  21441098.62549
  21712125.320 6      6290.754 6     -4963.50049  21712121.75449
  23882762.289 5    107000.016 5     64956.64847  23882763.54747
 20  5 16  0  4  4.0000000  0  9G03G04G08G14G16G26G27G31G32         -0.000082216
  24319603.555 4     36508.836 4     16064.28948  24319603.90248
  22739953.734 5   -219433.266 5   -123647.19547  22739952.00447
  23793171.578 4   -193130.785 4   -121239.27348  23793172.72748
  21838819.008 6    150997.066 6     97132.39847  21838815.84847
  20612947.133 6    -72837.316 6    -48440.23848  20612943.10948
  21050563.156 6     40326.695 6     26513.37149  21050562.91449
  21440364.734 6   -311100.770 6   -200830.16049  21440363.15649
  21712106.523 6      6188.941 6     -5042.83249  21712102.26249
  23883275.219 5    109696.715 5     67057.96947  23883276.47347
 20  5 16  0  4  5.0000000  0  9G03G04G08G14G16G26G27G31G32         -0.000082825
  24319710.109 4     37070.742 4     16502.13748  24319710.44548
  22739252.203 5   -223120.250 5   -126520.16847  22739250.64547
  23792279.242 4   -197820.473 4   -124893.57048  23792280.52048
  21839176.547 6    152876.688 6     98597.03147  21839173.19947
  20612769.617 6    -73771.398 6    -49168.09448  20612765.35948
  21050658.148 6     40823.840 6     26900.75449  21050657.93849
  21439629.078 6   -314965.754 6   -203841.83649  21439627.55149
  21712086.750 6      6087.156 6     -5122.15249  21712083.41849
  23883788.867 5    112393.309 5     69159.21547  23883789.59447
 20  5 16  0  4  6.0000000  0  9G03G04G08G14G16G26G27G31G32         -0.000083433
  24319817.375 4     37632.707 4     16940.02748  24319817.44948
  22738550.828 5   -226807.082 5   -129393.03147  22738548.98447
  23791387.281 4   -202510.203 4   -128547.90648  23791388.31648
  21839534.336 6    154756.512 6    100061.82847  21839531.18047
  20612591.500 6    -74705.293 6    -49895.80948  20612587.48848
  21050752.172 6     41320.918 6     27288.08649  21050752.38349
  21438893.578 6   -318830.469 6   -206853.30149  21438891.90649
  21712067.234 6      5985.395 6     -5201.44949  21712063.74649
  23884301.539 5    115089.820 5     71260.39547  23884303.14847
 20  5 16  0  4  7.0000000  0  9G03G04G08G14G16G26G27G31G32         -0.000084042
  24319924.586 4     38194.715 4     17377.95348  24319924.60548
  22737849.297 5   -230493.758 5   -132265.76247  22737847.27047
  23790494.977 4   -207200.047 4   -132202.33248  23790495.86748
  21839891.945 6    156636.500 6    101526.75447  21839888.78547
  20612413.648 6    -75639.039 6    -50623.39848  20612409.87548
  21050846.961 6     41817.977 6     27675.40249  21050846.89849
  21438158.281 6   -322694.996 6   -209864.62149  21438156.50049
  21712048.242 6      5883.617 6     -5280.75849  21712044.56349
  23884814.453 5    117786.234 5     73361.48447  23884816.03547
 20  5 16  0  4  8.0000000  0  9G03G04G08G14G16G26G27G31G32         -0.000084652
  24320031.172 4     38756.781 4     17815.92647  24320031.24247
  22737147.719 5   -234180.203 5   -135138.31347  22737146.07047
  23789602.680 4   -211889.918 4   -135856.77348  23789603.41048
  21840249.703 6    158516.762 6    102991.89847  21840246.61347
  20612236.656 6    -76572.555 6    -51350.81348  20612231.99648
  21050941.789 6     42314.984 6     28062.68449  21050941.70749
  21437422.977 6   -326559.223 6   -212875.70749  21437421.16449
  21712028.578 6      5781.906 6     -5360.01249  21712025.21949
  23885328.055 5    120482.609 5     75462.55947  23885328.80547
 20  5 16  0  4  9.0000000  0  9G03G04G08G14G16G26G27G31G32         -0.000085260
  24320138.109 4     39318.777 4     18253.84448  24320138.03148
  22736446.172 5   -237866.590 5   -138010.82447  22736444.48047
  23788709.406 4   -216580.020 4   -139511.39548  23788710.77748
  21840607.828 6    160397.113 6    104457.10947  21840604.28947
  20612058.867 6    -77506.031 6    -52078.19948  20612054.41848
  21051036.172 6     42811.848 6     28449.85249  21051036.10549
  21436687.555 6   -330423.313 6   -215886.68449  21436686.35549
  21712009.250 6      5680.078 6     -5439.35949  21712005.44149
  23885841.703 5    123178.797 5     77563.46947  23885842.07047
 20  5 16  0  4 10.0000000  0  9G03G04G08G14G16G26G27G31G32         -0.000085869
  24320245.039 4     39880.844 4     18691.81348  24320244.87148
  22735745.063 5   -241552.785 5   -140883.18447  22735743.19147
  23787817.266 4   -221270.105 4   -143165.99648  23787818.33248
  21840965.172 6    162277.660 6    105922.47747  21840962.12547
  20611880.836 6    -78439.285 6    -52805.41048  20611876.65248
  21051130.531 6     43308.719 6     28837.02049  21051130.65249
  21435952.242 6   -334287.117 6   -218897.44149  21435951.32449
  21711989.453 6      5578.301 6     -5518.66849  21711986.49649
  23886354.438 5    125874.906 5     79664.34047  23886355.44547
 20  5 16  0  4 11.0000000  0  9G03G04G08G14G16G26G27G31G32         -0.000086479
  24320352.156 4     40442.957 4     19129.82048  24320351.99648
  22735043.539 5   -245238.785 5   -143755.39547  22735041.67247
  23786924.086 4   -225960.289 4   -146820.68448  23786925.81348
  21841322.930 6    164158.395 6    107387.98047  21841319.78947
  20611703.375 6    -79372.375 6    -53532.49648  20611699.20748
  21051225.711 6     43805.484 6     29224.11349  21051225.14549
  21435217.391 6   -338150.738 6   -221908.05949  21435215.96949
  21711970.859 6      5476.512 6     -5597.98449  21711967.08649
  23886867.148 5    128570.918 5     81765.12947  23886868.09847
 20  5 16  0  4 12.0000000  0  9G03G04G08G14G16G26G27G31G32         -0.000087088
  24320459.063 4     41004.980 4     19567.76248  24320458.67648
  22734341.977 5   -248924.676 5   -146627.50847  22734340.25847
  23786032.211 4   -230650.605 4   -150475.47348  23786033.32048
  21841680.914 6    166039.293 6    108853.61347  21841677.94947
  20611525.727 6    -80305.367 6    -54259.50448  20611521.28948
  21051319.891 6     44302.184 6     29611.15249  21051319.77749
  21434481.578 6   -342014.148 6   -224918.51249  21434480.69149
  21711951.047 6      5374.711 6     -5677.30949  21711947.91449
  23887380.008 5    131266.813 5     83865.82447  23887381.02347
 20  5 16  0  4 13.0000000  0  9G03G04G08G14G16G26G27G31G32         -0.000087698
  24320566.273 4     41567.207 4     20005.85547  24320566.06347
  22733640.992 5   -252610.313 5   -149499.43847  22733639.25447
  23785139.953 4   -235340.938 4   -154130.27748  23785140.62148
  21842038.961 6    167920.453 6    110319.45747  21842036.13347
  20611348.391 6    -81238.094 6    -54986.30948  20611344.38748
  21051414.422 6     44798.875 6     29998.18049  21051414.27749
  21433746.758 6   -345877.254 6   -227928.71949  21433745.79349
  21711931.688 6      5272.965 6     -5756.59049  21711928.25049
  23887893.344 5    133962.684 5     85966.50447  23887893.97747
 20  5 16  0  4 14.0000000  0  9G03G04G08G14G16G26G27G31G32         -0.000088308
  24320672.992 4     42129.398 4     20443.93047  24320673.12547
  22732939.391 6   -256295.836 6   -152371.27747  22732937.86347
  23784246.531 4   -240031.391 4   -157785.17648  23784247.83648
  21842396.820 6    169801.762 6    111785.40647  21842394.48447
  20611170.719 6    -82170.707 6    -55713.02748  20611166.90648
  21051508.875 6     45295.500 6     30385.16049  21051509.18449
  21433011.563 6   -349740.160 6   -230938.77749  21433010.34849
  21711912.289 6      5171.195 6     -5835.89549  21711909.14849
  23888406.289 5    136658.414 5     88067.07047  23888407.20347
 20  5 16  0  4 15.0000000  0  9G03G04G08G14G16G26G27G31G32         -0.000088917
  24320780.375 4     42691.742 4     20882.10947  24320780.09047
  22732237.977 5   -259981.039 5   -155242.85947  22732236.24647
  23783354.422 4   -244721.770 4   -161440.01648  23783355.34448
  21842755.094 6    171683.410 6    113251.62547  21842752.39547
  20610993.781 6    -83102.992 6    -56439.48048  20610989.44948
  21051603.516 6     45792.203 6     30772.20349  21051603.03949
  21432276.719 6   -353602.660 6   -233948.51649  21432275.82849
  21711893.156 6      5069.574 6     -5915.08249  21711889.97749
  23888919.336 5    139354.207 5     90167.68847  23888920.40247
 20  5 16  0  4 16.0000000  0  9G03G04G08G14G16G26G27G31G32         -0.000089527
  24320887.313 4     43254.168 4     21320.36348  24320887.33648
  22731536.891 5   -263665.992 5   -158114.25047  22731535.61747
  23782462.172 4   -249412.156 4   -165094.85948  23782463.12948
  21843112.969 6    173565.328 6    114718.05147  21843110.29747
  20610816.273 6    -84035.039 6    -57165.75048  20610812.07048
  21051697.781 6     46288.934 6     31159.25849  21051697.69949
  21431541.813 6   -357464.852 6   -236958.01649  21431540.73849
  21711873.453 6      4968.035 6     -5994.20349  21711870.42649
  23889432.461 5    142049.980 5     92268.28547  23889433.05947
 20  5 16  0  4 17.0000000  0  9G03G04G08G14G16G26G27G31G32         -0.000090137
  24320994.195 4     43816.691 4     21758.68847  24320994.20347
  22730835.508 5   -267350.758 5   -160985.49647  22730834.35247
  23781569.109 4   -254102.570 4   -168749.73448  23781570.19948
  21843471.430 6    175447.445 6    116184.63747  21843468.65247
  20610638.492 6    -84966.898 6    -57891.87948  20610634.90648
  21051792.445 6     46785.609 6     31546.27749  21051792.35549
  21430807.031 6   -361326.805 6   -239967.33249  21430806.11749
  21711854.492 6      4866.527 6     -6073.30549  21711850.97349
  23889945.305 5    144745.684 5     94368.82847  23889945.90647
 20  5 16  0  4 18.0000000  0  9G03G04G08G14G16G26G27G31G32         -0.000090748
  24321101.328 4     44379.191 4     22197.00448  24321101.00848
  22730134.297 5   -271035.395 5   -163856.64547  22730133.50047
  23780676.422 4   -258793.152 4   -172404.73048  23780677.83648
  21843829.266 6    177329.715 6    117651.33647  21843826.81647
  20610461.352 6    -85898.633 6    -58617.90248  20610457.31348
  21051887.086 6     47282.227 6     31933.25449  21051886.75049
  21430072.086 6   -365188.566 6   -242976.49649  21430071.09049
  21711835.273 6      4765.004 6     -6152.41049  21711831.81349
  23890458.203 5    147441.242 5     96469.26647  23890458.66847
 20  5 16  0  4 19.0000000  0  9G03G04G08G14G16G26G27G31G32         -0.000091358
  24321208.336 4     44941.824 4     22635.41847  24321207.79347
  22729433.656 5   -274719.746 5   -166727.56647  22729431.84047
  23779784.305 4   -263483.641 4   -176059.65248  23779785.29748
  21844187.500 6    179212.277 6    119118.27047  21844184.91047
  20610284.531 6    -86830.094 6    -59343.71548  20610279.93048
  21051981.516 6     47778.852 6     32320.23449  21051981.19949
  21429337.172 6   -369049.988 6   -245985.40249  21429336.54349
  21711815.711 6      4663.563 6     -6231.45749  21711812.70749
  23890970.953 5    150136.828 5     98569.71947  23890971.68447
 20  5 16  0  4 20.0000000  0  9G03G04G08G14G16G26G27G31G32         -0.000091969
  24321315.469 4     45504.496 4     23073.85948  24321315.30148
  22728732.219 5   -278403.980 5   -169598.39847  22728730.67647
  23778891.328 4   -268174.289 4   -179714.70348  23778892.19948
  21844546.008 6    181095.016 6    120585.33247  21844543.23847
  20610106.891 6    -87761.410 6    -60069.41848  20610103.16848
  21052076.188 6     48275.445 6     32707.19549  21052075.79349
  21428602.469 6   -372911.180 6   -248994.12549  21428601.54749
  21711796.719 6      4562.105 6     -6310.51249  21711793.16049
  23891484.297 5    152832.305 5    100670.08647  23891484.89547
 20  5 16  0  4 21.0000000  0  9G03G04G08G14G16G26G27G31G32         -0.000092579
  24321422.297 4     46067.148 4     23512.28947  24321422.39847
  22728030.813 5   -282087.988 5   -172469.05947  22728029.68847
  23777998.813 4   -272864.953 4   -183369.77048  23777999.80948
  21844904.039 6    182977.961 6    122052.55947  21844901.45747
  20609929.414 6    -88692.555 6    -60794.98848  20609925.45748
  21052170.078 6     48771.949 6     33094.07049  21052170.03549
  21427867.617 6   -376772.141 6   -252002.65649  21427866.85549
  21711777.320 6      4460.688 6     -6389.55149  21711773.85549
  23891996.461 5    155527.691 5    102770.38347  23891997.82447
 20  5 16  0  4 22.0000000  0  9G03G04G08G14G16G26G27G31G32         -0.000093189
  24321529.172 4     46629.977 4     23950.85947  24321529.53547
  22727329.695 5   -285771.789 5   -175339.55547  22727328.53147
  23777106.438 4   -277555.676 4   -187024.88348  23777107.00848
  21845262.500 6    184861.152 6    123519.97747  21845259.31647
  20609752.352 6    -89623.441 6    -61520.34848  20609748.80948
  21052264.977 6     49268.477 6     33480.97749  21052264.52049
  21427133.383 6   -380632.797 6   -255010.95749  21427132.04349
  21711757.961 6      4359.328 6     -6468.53949  21711754.68849
  23892509.992 5    158223.055 5    104870.66047  23892510.75447
 20  5 16  0  4 23.0000000  0  9G03G04G08G14G16G26G27G31G32         -0.000093800
  24321637.125 4     47192.789 4     24389.40247  24321636.37547
  22726629.688 5   -289455.371 5   -178209.87947  22726627.38347
  23776213.859 4   -282246.434 4   -190680.02048  23776214.67648
  21845620.766 6    186744.559 6    124987.55947  21845618.00847
  20609575.477 6    -90554.152 6    -62245.58248  20609571.71148
  21052359.375 6     49764.980 6     33867.86349  21052359.47349
  21426398.445 6   -384493.207 6   -258019.07049  21426397.63749
  21711738.836 6      4258.016 6     -6547.48449  21711735.43449
  23893023.047 5    160918.352 5    106970.88747  23893023.73847
 20  5 16  0  4 24.0000000  0  9G03G04G08G14G16G26G27G31G32         -0.000094410
  24321743.578 4     47755.727 4     24828.04747  24321743.83247
  22725928.594 5   -293138.723 5   -181080.02347  22725926.70347
  23775321.609 4   -286937.188 4   -194335.15648  23775322.05148
  21845979.328 6    188628.242 6    126455.35947  21845976.47347
  20609398.820 6    -91484.637 6    -62970.63748  20609394.54348
  21052453.742 6     50261.523 6     34254.77749  21052453.95749
  21425664.242 6   -388353.273 6   -261026.91049  21425662.89149
  21711719.250 6      4156.777 6     -6626.37549  21711716.39149
  23893535.516 5    163613.629 5    109071.10547  23893536.58247
 20  5 16  0  4 25.0000000  0  9G03G04G08G14G16G26G27G31G32         -0.000095020
  24321850.359 4     48318.703 4     25266.73047  24321850.93447
  22725227.695 5   -296821.949 5   -183950.06647  22725225.95347
  23774428.703 4   -291628.074 4   -197990.39148  23774428.85248
  21846337.867 6    190512.090 6    127923.29347  21846335.22347
  20609221.727 6    -92414.953 6    -63695.56348  20609217.44148
  21052548.086 6     50757.977 6     34641.62549  21052548.22749
  21424929.422 6   -392213.133 6   -264034.59449  21424928.37149
  21711700.188 6      4055.512 6     -6705.28149  21711696.56649
  23894048.563 5    166308.781 5    111171.21947  23894049.32047
 20  5 16  0  4 26.0000000  0  9G03G04G08G14G16G26G27G31G32         -0.000095633
  24321957.352 4     48881.734 4     25705.45747  24321957.97347
  22724526.867 5   -300504.914 5   -186819.90647  22724525.04747
  23773536.078 4   -296318.988 4   -201645.64548  23773536.26248
  21846696.383 6    192396.168 6    129391.41047  21846693.58647
  20609044.531 6    -93345.055 6    -64420.31348  20609040.49648
  21052642.680 6     51254.398 6     35028.44149  21052642.66849
  21424195.047 6   -396072.727 6   -267042.07449  21424194.08249
  21711680.508 6      3954.313 6     -6784.13349  21711677.42649
  23894561.477 5    169003.883 5    113271.29347  23894562.69147
 20  5 16  0  4 27.0000000  0  9G03G04G08G14G16G26G27G31G32         -0.000096243
  24322065.148 3     49444.840 3     26144.23847  24322065.46947
  22723825.289 5   -304187.688 5   -189689.60247  22723824.19947
  23772644.047 4   -301009.902 4   -205300.89848  23772643.69948
  21847054.594 6    194280.484 6    130859.70747  21847052.06347
  20608867.359 6    -94274.957 6    -65144.91448  20608863.34848
  21052737.555 6     51750.836 6     35415.27749  21052737.34449
  21423460.727 6   -399932.027 6   -270049.31649  21423459.48049
  21711661.320 6      3853.141 6     -6862.96949  21711658.28149
  23895074.469 5    171698.953 5    115371.34447  23895075.27747
 20  5 16  0  4 28.0000000  0  9G03G04G08G14G16G26G27G31G32         -0.000096855
  24322171.633 3     50008.043 3     26583.09447  24322172.36747
  22723124.875 5   -307870.203 5   -192559.09047  22723123.53147
  23771750.703 4   -305700.883 4   -208956.21548  23771751.09848
  21847413.492 6    196165.090 6    132328.23047  21847410.31647
  20608690.867 6    -95204.621 6    -65869.32848  20608686.31648
  21052831.625 6     52247.273 6     35802.11749  21052831.58249
  21422726.359 6   -403790.992 6   -273056.30149  21422725.25449
  21711642.406 6      3752.086 6     -6941.71549  21711639.19949
  23895587.875 5    174394.008 5    117471.38347  23895588.29347
 20  5 16  0  4 29.0000000  0  9G03G04G08G14G16G26G27G31G32         -0.000097466
  24322279.414 4     50571.348 4     27022.03147  24322279.65247
  22722424.141 5   -311552.504 5   -195428.42247  22722422.70347
  23770858.188 4   -310391.824 4   -212611.49248  23770858.02348
  21847772.297 6    198049.902 6    133796.91847  21847769.45747
  20608513.719 6    -96134.039 6    -66593.55548  20608509.38748
  21052926.008 6     52743.723 6     36188.94949  21052926.09049
  21421991.758 6   -407649.684 6   -276063.07849  21421990.75049
  21711623.297 6      3651.078 6     -7020.42649  21711619.71949
  23896100.258 5    177089.004 5    119571.37547  23896101.33647
 20  5 16  0  4 30.0000000  0  9G03G04G08G14G16G26G27G31G32         -0.000098078
  24322386.555 4     51134.645 4     27460.96147  24322386.80947
  22721723.773 5   -315234.637 5   -198297.61747  22721721.72347
  23769965.523 4   -315082.840 4   -216266.83248  23769965.32448
  21848130.828 6    199934.910 6    135265.75047  21848128.26247
  20608337.172 6    -97063.328 6    -67317.67248  20608333.09848
  21053020.734 6     53240.105 6     36575.74249  21053020.65249
  21421257.383 6   -411508.156 6   -279069.68449  21421256.49649
  21711604.078 6      3550.066 6     -7099.13749  21711600.61749
  23896613.086 5    179783.918 5    121671.30947  23896614.35247
 20  5 16  0  4 31.0000000  0  9G03G04G08G14G16G26G27G31G32         -0.000098688
  24322493.688 3     51698.094 3     27900.02047  24322494.21547
  22721023.109 5   -318916.500 5   -201166.60247  22721021.39147
  23769072.656 4   -319773.867 4   -219922.18048  23769072.83648
  21848489.898 6    201820.207 6    136734.80147  21848486.98847
  20608160.359 6    -97992.344 6    -68041.57848  20608156.38748
  21053115.211 6     53736.527 6     36962.57049  21053115.18449
  21420523.359 6   -415366.316 6   -282076.03949  21420522.52749
  21711584.953 6      3449.156 6     -7177.77049  21711581.07449
  23897126.289 5    182478.832 5    123771.23847  23897126.63347
 20  5 16  0  4 32.0000000  0  9G03G04G08G14G16G26G27G31G32         -0.000099300
  24322600.484 3     52261.617 3     28339.12547  24322601.43447
  22720322.367 5   -322598.121 5   -204035.39847  22720320.84447
  23768179.797 4   -324464.918 4   -223577.53948  23768180.09048
  21848849.047 6    203705.766 6    138204.06647  21848845.78947
  20607983.484 6    -98921.117 6    -68765.30148  20607979.44548
  21053209.242 6     54232.969 6     37349.40249  21053209.22749
  21419789.273 6   -419224.117 6   -285082.11749  21419788.20349
  21711565.477 6      3348.324 6     -7256.34849  21711562.09449
  23897638.500 5    185173.699 5    125871.13346  23897639.71546
 20  5 16  0  4 33.0000000  0  9G03G04G08G14G16G26G27G31G32         -0.000099913
  24322707.914 3     52825.184 3     28778.26247  24322708.57047
  22719622.227 5   -326279.598 5   -206904.07047  22719620.37547
  23767286.766 4   -329156.039 4   -227232.95748  23767287.68448
  21849207.594 6    205591.461 6    139673.44547  21849204.50447
  20607806.609 6    -99849.762 6    -69488.91848  20607802.73048
  21053304.086 6     54729.309 6     37736.16049  21053304.28149
  21419055.430 6   -423081.734 6   -288088.05949  21419053.86749
  21711546.336 6      3247.465 6     -7334.93849  21711542.85549
  23898151.375 5    187868.473 5    127970.94947  23898152.27047
 20  5 16  0  4 34.0000000  0  9G03G04G08G14G16G26G27G31G32         -0.000100525
  24322815.664 3     53388.781 3     29217.43047  24322815.91847
  22718920.961 5   -329960.875 5   -209772.60247  22718919.46947
  23766394.852 4   -333847.203 4   -230888.41048  23766395.24248
  21849566.734 6    207477.418 6    141143.01647  21849563.17247
  20607629.977 6   -100778.188 6    -70212.36748  20607626.23848
  21053398.367 6     55225.672 6     38122.93449  21053398.66049
  21418321.219 6   -426939.070 6   -291093.77349  21418320.15249
  21711526.977 6      3146.668 6     -7413.48449  21711523.73049
  23898663.844 5    190563.180 5    130070.72347  23898664.96147
 20  5 16  0  4 35.0000000  0  9G03G04G08G14G16G26G27G31G32         -0.000101135
  24322922.461 4     53952.480 4     29656.66847  24322923.36347
  22718220.742 5   -333641.906 5   -212640.93447  22718219.55547
  23765501.797 4   -338538.402 4   -234543.89148  23765502.62148
  21849925.680 6    209363.609 6    142612.77047  21849922.16047
  20607453.500 6   -101706.391 6    -70935.64548  20607449.23448
  21053493.383 6     55721.992 6     38509.67649  21053492.87549
  21417587.055 6   -430796.113 6   -294099.26249  21417585.94949
  21711508.250 6      3045.930 6     -7491.98449  21711504.88749
  23899177.219 5    193257.863 5    132170.47747  23899178.05947
 20  5 16  0  4 36.0000000  0  9G03G04G08G14G16G26G27G31G32         -0.000101748
  24323030.094 3     54516.238 3     30095.95747  24323030.37547
  22717520.852 5   -337322.746 5   -215509.12547  22717518.96147
  23764609.141 4   -343229.641 4   -238199.40148  23764609.85548
  21850284.203 6    211250.020 6    144082.70347  21850281.48447
  20607277.070 6   -102634.398 6    -71658.77048  20607272.72748
  21053587.234 6     56218.316 6     38896.41849  21053587.60949
  21416853.414 6   -434652.887 6   -297104.53949  21416852.28149
  21711488.922 6      2945.234 6     -7570.44549  21711485.67249
  23899689.867 5    195952.473 5    134270.16847  23899690.87547
 20  5 16  0  4 37.0000000  0  9G03G04G08G14G16G26G27G31G32         -0.000102360
  24323137.852 3     55080.039 3     30535.28147  24323137.98847
  22716820.391 5   -341003.383 5   -218377.15247  22716818.58247
  23763715.680 4   -347920.953 4   -241854.96948  23763717.30948
  21850643.313 6    213136.609 6    145552.77347  21850640.40647
  20607100.391 6   -103562.234 6    -72381.76648  20607095.99648
  21053681.539 6     56714.574 6     39283.10949  21053681.78949
  21416119.813 6   -438509.398 6   -300109.61349  21416118.28549
  21711469.773 6      2844.543 6     -7648.91049  21711466.48849
  23900202.734 5    198647.004 5    136369.79746  23900203.48446
 20  5 16  0  4 38.0000000  0  9G03G04G08G14G16G26G27G31G32         -0.000102972
  24323244.656 4     55643.910 4     30974.66447  24323245.39547
  22716119.820 6   -344683.832 6   -221245.03947  22716117.89147
  23762823.422 4   -352612.289 4   -245510.54348  23762824.65248
  21851002.250 6    215023.449 6    147023.04347  21850999.70747
  20606923.672 6   -104489.895 6    -73104.61748  20606919.39848
  21053776.031 6     57210.813 6     39669.79349  21053776.11349
  21415385.648 6   -442365.656 6   -303114.48849  21415384.62549
  21711450.750 6      2743.891 6     -7727.34049  21711447.46949
  23900715.086 5    201341.480 5    138469.38747  23900716.06647
 20  5 16  0  4 39.0000000  0  9G03G04G08G14G16G26G27G31G32         -0.000103584
  24323351.633 4     56208.016 4     31414.23047  24323352.83247
  22715419.461 6   -348363.852 6   -224112.58647  22715417.82447
  23761930.516 4   -357303.473 4   -249166.00448  23761931.60548
  21851361.422 6    216910.738 6    148493.66047  21851358.72347
  20606747.211 6   -105417.098 6    -73827.10948  20606743.24648
  21053870.836 6     57707.258 6     40056.63349  21053870.79749
  21414652.359 6   -446221.426 6   -306118.98049  21414650.67249
  21711431.508 6      2643.504 6     -7805.56649  21711427.83649
  23901227.773 5    204036.090 5    140569.08647  23901229.00047
 20  5 16  0  4 40.0000000  0  9G03G04G08G14G16G26G27G31G32         -0.000104197
  24323459.039 4     56772.254 4     31853.89147  24323459.87547
  22714719.258 5   -352043.637 5   -226979.96147  22714717.45747
  23761038.430 4   -361994.621 4   -252821.44948  23761039.02048
  21851720.648 6    218798.242 6    149964.43847  21851717.90647
  20606571.070 6   -106344.102 6    -74549.44948  20606566.77348
  21053964.938 6     58203.688 6     40443.46149  21053965.27349
  21413918.539 6   -450076.895 6   -309123.25049  21413916.87549
  21711412.609 6      2543.160 6     -7883.75049  21711409.30549
  23901740.289 5    206730.668 5    142668.74646  23901741.49646
 20  5 16  0  4 41.0000000  0  9G03G04G08G14G16G26G27G31G32         -0.000104811
  24323566.719 4     57336.574 4     32293.62147  24323567.16447
  22714018.898 5   -355723.195 5   -229847.14547  22714017.46547
  23760145.461 4   -366685.832 4   -256476.93448  23760146.20748
  21852079.992 6    220686.047 6    151435.45747  21852077.11747
  20606394.883 6   -107270.852 6    -75271.59048  20606390.48448
  21054059.453 6     58700.141 6     40830.30949  21054059.56349
  21413184.719 6   -453932.051 6   -312127.26649  21413183.43049
  21711393.438 6      2442.934 6     -7961.85549  21711390.16049
  23902253.406 5    209425.234 5    144768.41047  23902254.76247
 20  5 16  0  4 42.0000000  0  9G03G04G08G14G16G26G27G31G32         -0.000105423
  24323674.172 4     57901.012 4     32733.43847  24323675.01247
  22713318.844 5   -359402.480 5   -232714.11347  22713316.81647
  23759252.844 4   -371377.012 4   -260132.40248  23759253.80148
  21852438.766 6    222574.082 6    152906.64847  21852436.53147
  20606218.063 6   -108197.371 6    -75993.56348  20606214.32848
  21054154.016 6     59196.629 6     41217.17649  21054154.43049
  21412451.000 6   -457786.895 6   -315131.04749  21412449.88349
  21711374.438 6      2342.758 6     -8039.91849  21711371.25449
  23902766.336 5    212119.805 5    146868.06647  23902767.03147
 20  5 16  0  4 43.0000000  0  9G03G04G08G14G16G26G27G31G32         -0.000106035
  24323781.711 4     58465.531 4     33173.32447  24323782.41047
  22712618.633 5   -363081.566 5   -235580.92647  22712617.08647
  23758359.992 4   -376068.207 4   -263787.87948  23758361.20348
  21852798.547 6    224462.391 6    154378.05947  21852795.81647
  20606042.070 6   -109123.641 6    -76715.33248  20606037.98448
  21054248.352 6     59693.098 6     41604.03149  21054248.59849
  21411717.797 6   -461641.426 6   -318134.57849  21411716.24249
  21711355.234 6      2242.656 6     -8117.91449  21711351.87149
  23903279.266 5    214814.313 5    148967.67647  23903279.74247
 20  5 16  0  4 44.0000000  0  9G03G04G08G14G16G26G27G31G32         -0.000106647
  24323889.016 4     59030.117 4     33613.26247  24323889.71947
  22711918.805 5   -366760.414 5   -238447.56347  22711917.19147
  23757467.805 4   -380759.453 4   -267443.39848  23757468.42248
  21853158.242 6    226350.918 6    155849.63747  21853154.91447
  20605865.773 6   -110049.730 6    -77436.95748  20605861.72748
  21054343.117 6     60189.578 6     41990.90249  21054342.99649
  21410984.188 6   -465495.695 6   -321137.91049  21410982.88349
  21711336.047 6      2142.609 6     -8195.87949  21711333.06649
  23903791.883 5    217508.766 5    151067.25047  23903792.23047
 20  5 16  0  4 45.0000000  0  9G03G04G08G14G16G26G27G31G32         -0.000107260
  24323996.820 4     59594.895 4     34053.33647  24323997.34447
  22711218.508 5   -370438.957 5   -241313.95747  22711217.21947
  23756574.078 4   -385450.645 4   -271098.86348  23756575.69148
  21853517.219 6    228239.770 6    157321.47347  21853514.17647
  20605689.508 6   -110975.516 6    -78158.35548  20605685.28148
  21054437.430 6     60686.121 6     42377.81649  21054437.50849
  21410250.977 6   -469349.578 6   -324140.93449  21410249.68049
  21711317.195 6      2042.703 6     -8273.72749  21711313.56349
  23904304.313 5    220203.258 5    153166.85547  23904305.34447
 20  5 16  0  4 46.0000000  0  9G03G04G08G14G16G26G27G31G32         -0.000107874
  24324104.102 4     60159.629 4     34493.38747  24324104.67647
  22710518.828 5   -374117.371 5   -244180.25447  22710516.92647
  23755681.609 4   -390141.910 4   -274754.39148  23755683.01648
  21853876.820 6    230128.785 6    158793.43047  21853873.92247
  20605513.188 6   -111901.148 6    -78879.62548  20605509.28948
  21054531.766 6     61182.566 6     42764.65649  21054532.20349
  21409517.398 6   -473203.270 6   -327143.81349  21409516.00449
  21711297.781 6      1942.781 6     -8351.59049  21711294.85549
  23904817.391 5    222897.621 5    155266.35247  23904818.46547
 20  5 16  0  4 47.0000000  0  9G03G04G08G14G16G26G27G31G32         -0.000108486
  24324211.641 4     60724.422 4     34933.48847  24324212.06347
  22709818.805 5   -377795.578 5   -247046.39147  22709817.34447
  23754789.633 4   -394833.262 4   -278409.99248  23754790.50048
  21854236.391 6    232017.984 6    160265.53147  21854233.55947
  20605337.766 6   -112826.633 6    -79600.78148  20605333.07048
  21054626.523 6     61678.977 6     43151.46949  21054626.23449
  21408784.313 6   -477056.695 6   -330146.48049  21408782.70349
  21711279.305 6      1842.875 6     -8429.44149  21711275.81649
  23905330.078 5    225591.926 5    157365.81647  23905330.93047
 20  5 16  0  4 48.0000000  0  9G03G04G08G14G16G26G27G31G32         -0.000109100
  24324318.328 4     61289.215 4     35373.58247  24324319.89847
  22709119.008 5   -381473.621 5   -249912.39147  22709117.30147
  23753896.156 4   -399524.691 4   -282065.64848  23753897.53548
  21854595.852 6    233907.391 6    161737.79747  21854592.92247
  20605161.039 6   -113751.945 6    -80321.80548  20605157.16848
  21054721.039 6     62175.324 6     43538.23049  21054720.77349
  21408051.211 6   -480909.898 6   -333148.97749  21408050.01249
  21711260.250 6      1742.977 6     -8507.28949  21711256.88749
  23905842.539 5    228286.117 5    159465.18047  23905843.46547
 20  5 16  0  4 49.0000000  0  9G03G04G08G14G16G26G27G31G32         -0.000109713
  24324426.461 4     61854.191 4     35813.83247  24324427.05947
  22708419.008 5   -385151.359 5   -252778.16447  22708417.27047
  23753003.422 4   -404216.063 4   -285721.25848  23753005.01248
  21854955.633 6    235797.113 6    163210.30547  21854952.32847
  20604985.070 6   -114676.934 6    -81042.57848  20604981.37548
  21054815.555 6     62671.754 6     43925.05949  21054815.05149
  21407317.789 6   -484762.711 6   -336151.16849  21407316.43449
  21711241.203 6      1643.219 6     -8585.02349  21711238.02349
  23906355.266 5    230980.348 5    161564.57847  23906356.09047
 20  5 16  0  4 50.0000000  0  9G03G04G08G14G16G26G27G31G32         -0.000110327
  24324533.703 4     62419.250 4     36254.14147  24324534.73847
  22707719.219 6   -388828.855 6   -255643.75047  22707717.44547
  23752110.906 4   -408907.391 4   -289376.83648  23752112.15248
  21855315.047 6    237687.094 6    164683.01647  21855312.46947
  20604809.242 6   -115601.711 6    -81763.18448  20604805.37148
  21054910.195 6     63168.223 6     44311.91849  21054909.75449
  21406584.813 6   -488615.234 6   -339153.12549  21406583.55149
  21711221.992 6      1543.527 6     -8662.70349  21711218.69549
  23906867.648 5    233674.566 5    163663.96147  23906868.96547
 20  5 16  0  4 51.0000000  0  9G03G04G08G14G16G26G27G31G32         -0.000110939
  24324641.227 4     62984.418 4     36694.52347  24324642.24647
  22707019.195 5   -392506.102 5   -258509.13347  22707017.91847
  23751217.875 4   -413598.730 4   -293032.42648  23751219.44548
  21855674.539 6    239577.324 6    166155.91847  21855672.02047
  20604633.500 6   -116526.262 6    -82483.61348  20604629.46148
  21055004.492 6     63664.645 6     44698.73849  21055004.30149
  21405851.141 6   -492467.426 6   -342154.84049  21405850.60949
  21711202.898 6      1443.926 6     -8740.32049  21711199.94949
  23907380.445 5    236368.734 5    165763.30947  23907381.18847
 20  5 16  0  4 52.0000000  0  9G03G04G08G14G16G26G27G31G32         -0.000111553
  24324749.133 4     63549.621 4     37134.94147  24324749.54747
  22706319.766 5   -396183.176 5   -261374.38347  22706318.34047
  23750325.820 4   -418290.164 4   -296688.09448  23750326.88348
  21856034.648 6    241467.781 6    167628.99247  21856031.97347
  20604457.578 6   -117450.613 6    -83203.89148  20604453.57448
  21055098.813 6     64161.066 6     45085.56349  21055098.58649
  21405118.727 6   -496319.379 6   -345156.36349  21405117.16449
  21711184.273 6      1344.340 6     -8817.91049  21711180.73449
  23907893.195 5    239062.852 5    167862.62147  23907894.30947
 20  5 16  0  4 53.0000000  0  9G03G04G08G14G16G26G27G31G32         -0.000112167
  24324857.320 4     64114.934 4     37575.44147  24324857.07447
  22705620.156 6   -399860.016 6   -264239.45747  22705618.82847
  23749432.664 4   -422981.668 4   -300343.80548  23749433.97748
  21856394.508 6    243358.480 6    169102.26647  21856391.19947
  20604281.313 6   -118374.746 6    -83924.00048  20604277.86348
  21055193.367 6     64657.461 6     45472.35949  21055193.18049
  21404385.594 6   -500171.035 6   -348157.65249  21404384.23049
  21711165.195 6      1244.832 6     -8895.44949  21711161.78949
  23908405.977 5    241756.891 5    169961.87547  23908406.68847
 20  5 16  0  4 54.0000000  0  9G03G04G08G14G16G26G27G31G32         -0.000112782
  24324964.109 4     64680.250 4     38015.93847  24324964.51647
  22704920.219 6   -403536.676 6   -267104.39147  22704918.66447
  23748539.875 4   -427673.215 4   -303999.55548  23748541.07848
  21856754.164 6    245249.348 6    170575.67247  21856751.47347
  20604105.875 6   -119298.719 6    -84643.97348  20604101.73448
  21055287.672 6     65153.824 6     45859.13749  21055287.47749
  21403652.813 6   -504022.441 6   -351158.75449  21403651.37949
  21711146.375 6      1145.344 6     -8972.98449  21711142.96149
  23908918.734 5    244450.848 5    172061.05547  23908919.38747
 20  5 16  0  4 55.0000000  0  9G03G04G08G14G16G26G27G31G32         -0.000113394
  24325071.719 4     65245.680 4     38456.53947  24325072.26647
  22704220.672 5   -407213.074 5   -269969.12147  22704219.27047
  23747647.133 4   -432364.715 4   -307655.26648  23747648.38348
  21857113.906 6    247140.512 6    172049.30547  21857111.16047
  20603930.297 6   -120222.430 6    -85363.74248  20603925.99648
  21055382.023 6     65650.195 6     46245.91849  21055382.44149
  21402920.094 6   -507873.531 6   -354159.59849  21402918.65249
  21711127.516 6      1045.914 6     -9050.46149  21711124.10549
  23909431.008 5    247144.836 5    174160.26247  23909432.06647
 20  5 16  0  4 56.0000000  0  9G03G04G08G14G16G26G27G31G32         -0.000114008
  24325179.461 4     65811.332 4     38897.30147  24325180.40647
  22703520.742 5   -410889.152 5   -272833.59047  22703519.43047
  23746754.594 4   -437056.160 4   -311310.93448  23746755.61748
  21857474.516 6    249032.031 6    173523.21147  21857471.24247
  20603754.164 6   -121145.801 6    -86083.25448  20603750.28148
  21055476.633 6     66146.680 6     46632.78949  21055476.44949
  21402186.977 6   -511724.219 6   -357160.13749  21402186.09049
  21711108.508 6       946.680 6     -9127.78549  21711105.43449
  23909943.711 5    249838.836 5    176259.47747  23909944.68447
 20  5 16  0  4 57.0000000  0  9G03G04G08G14G16G26G27G31G32         -0.000114622
  24325287.375 4     66377.129 4     39338.18447  24325287.57447
  22702821.602 5   -414564.852 5   -275697.77047  22702820.05147
  23745862.078 4   -441747.477 4   -314966.49648  23745862.76648
  21857833.844 6    250923.949 6    174997.43447  21857831.32847
  20603578.539 6   -122068.848 6    -86802.51248  20603574.57848
  21055570.820 6     66643.316 6     47019.77749  21055570.89549
  21401454.531 6   -515574.484 6   -360160.34449  21401453.34049
  21711090.117 6       847.625 6     -9204.96949  21711086.12549
  23910456.281 5    252532.965 5    178358.80147  23910457.42647
 20  5 16  0  4 58.0000000  0  9G03G04G08G14G16G26G27G31G32         -0.000115236
  24325394.430 4     66943.156 4     39779.24647  24325395.53547
  22702122.188 5   -418240.266 5   -278561.72747  22702121.08647
  23744969.352 3   -446438.715 3   -318622.01648  23744969.98448
  21858193.531 6    252816.156 6    176471.87947  21858191.02047
  20603403.359 6   -122991.574 6    -87521.52748  20603399.28548
  21055665.898 6     67140.000 6     47406.80549  21055665.57049
  21400722.086 6   -519424.359 6   -363160.24249  21400720.82449
  21711070.867 6       748.711 6     -9282.04749  21711067.40249
  23910969.367 5    255227.102 5    180458.11347  23910970.35547
 20  5 16  0  4 59.0000000  0  9G03G04G08G14G16G26G27G31G32         -0.000115850
  24325502.781 4     67509.324 4     40220.41447  24325502.77747
  22701422.703 5   -421915.301 5   -281425.39547  22701421.29347
  23744076.984 4   -451129.938 4   -322277.50848  23744076.95748
  21858553.930 6    254708.688 6    177946.58247  21858551.37947
  20603227.375 6   -123913.996 6    -88240.30148  20603224.19548
  21055760.508 6     67636.797 6     47793.91449  21055759.93849
  21399989.227 6   -523273.867 6   -366159.86349  21399988.26649
  21711052.344 6       649.988 6     -9358.97749  21711048.96149
  23911481.820 5    257921.313 5    182557.50047  23911482.56347
 20  5 16  0  5  0.0000000  0  9G03G04G08G14G16G26G27G31G32         -0.000116465
  24325610.633 4     68075.516 4     40661.60248  24325611.26248
  22700723.852 5   -425590.223 5   -284288.98047  22700722.33247
  23743183.602 4   -455821.199 4   -325933.03548  23743184.19548
  21858914.039 6    256601.422 6    179421.44147  21858911.51647
  20603052.063 6   -124836.262 6    -88958.93848  20603048.17248
  21055854.688 6     68133.504 6     48180.96149  21055854.92649
  21399257.430 6   -527123.125 6   -369159.28149  21399256.16049
  21711033.281 6       551.215 6     -9435.94149  21711029.82449
  23911994.672 5    260615.402 5    184656.78547  23911995.38347
 20  5 16  0  5  1.0000000  0  9G03G04G08G14G16G26G27G31G32         -0.000117079
  24325718.016 4     68641.758 4     41102.82848  24325718.53548
  22700024.297 5   -429264.918 5   -287152.38347  22700022.63747
  23742291.289 4   -460512.500 4   -329588.60548  23742291.81648
  21859274.086 6    258494.398 6    180896.48847  21859271.61747
  20602876.477 6   -125758.293 6    -89677.40648  20602872.92248
  21055949.070 6     68630.215 6     48568.00849  21055948.95749
  21398524.805 6   -530972.098 6   -372158.47749  21398523.49249
  21711014.695 6       452.500 6     -9512.86749  21711011.19149
  23912507.133 5    263309.445 5    186756.04747  23912508.17247
 20  5 16  0  5  2.0000000  0  9G03G04G08G14G16G26G27G31G32         -0.000117693
  24325825.984 4     69208.094 4     41544.13747  24325826.94547
  22699325.211 5   -432939.395 5   -290015.60547  22699323.94147
  23741398.297 4   -465203.832 4   -333244.18848  23741398.52348
  21859634.813 6    260387.563 6    182371.68047  21859632.15247
  20602701.055 6   -126680.172 6    -90395.75048  20602696.88348
  21056043.672 6     69126.898 6     48955.03549  21056043.80949
  21397791.883 6   -534820.801 6   -375157.46949  21397790.93449
  21710995.773 6       353.852 6     -9589.73449  21710992.28149
  23913020.289 6    266003.430 6    188855.25047  23913020.84447
 20  5 16  0  5  3.0000000  0  9G03G04G08G14G16G26G27G31G32         -0.000118307
  24325933.484 4     69774.590 4     41985.55947  24325934.47747
  22698625.781 5   -436613.574 5   -292878.59847  22698624.37947
  23740505.688 4   -469895.121 4   -336899.73848  23740505.72748
  21859995.148 6    262281.070 6    183847.13747  21859992.50447
  20602525.414 6   -127601.707 6    -91113.83248  20602521.86748
  21056138.258 6     69623.656 6     49342.11349  21056137.93449
  21397059.641 6   -538669.125 6   -378156.16849  21397058.39549
  21710977.117 6       255.336 6     -9666.50049  21710973.74249
  23913532.672 5    268697.461 5    190954.49247  23913533.14847
 20  5 16  0  5  4.0000000  0  9G03G04G08G14G16G26G27G31G32         -0.000118921
  24326041.695 4     70341.207 4     42427.07447  24326042.20747
  22697926.859 5   -440287.461 5   -295741.35547  22697925.16847
  23739612.516 4   -474586.336 4   -340555.23848  23739612.93448
  21860355.547 6    264174.863 6    185322.82047  21860352.54747
  20602350.516 6   -128522.992 6    -91831.71948  20602346.50048
  21056232.695 6     70120.469 6     49729.23849  21056232.60549
  21396327.508 6   -542517.129 6   -381154.61349  21396326.19949
  21710958.633 6       156.945 6     -9743.17649  21710955.32049
  23914045.406 6    271391.492 6    193053.73447  23914046.23047
 20  5 16  0  5  5.0000000  0  9G03G04G08G14G16G26G27G31G32         -0.000119535
  24326149.867 4     70907.949 4     42868.69147  24326149.77047
  22697227.547 5   -443961.094 5   -298603.92247  22697226.27747
  23738720.141 4   -479277.586 4   -344210.75848  23738720.05548
  21860715.875 6    266068.957 6    186798.73447  21860712.90247
  20602174.992 6   -129444.008 6    -92549.39548  20602171.28948
  21056327.617 6     70617.324 6     50116.39849  21056327.56649
  21395595.617 6   -546364.754 6   -384152.75849  21395594.29749
  21710939.438 6        58.645 6     -9819.77049  21710936.59049
  23914557.922 6    274085.527 6    195152.98447  23914558.71147
 20  5 16  0  5  6.0000000  0  9G03G04G08G14G16G26G27G31G32         -0.000120152
  24326257.430 4     71474.887 4     43310.46147  24326258.31347
  22696528.484 5   -447634.363 5   -301466.22347  22696527.13747
  23737827.211 4   -483968.719 4   -347866.18048  23737826.95348
  21861076.898 6    267963.375 6    188274.90647  21861073.96947
  20601999.977 6   -130364.707 6    -93266.82848  20601995.99648
  21056421.813 6     71114.266 6     50503.62549  21056421.62149
  21394863.297 6   -550211.996 6   -387150.61349  21394862.12949
  21710920.648 6       -39.496 6     -9896.24249  21710917.63749
  23915070.766 6    276779.621 6    197252.26247  23915071.63347
 20  5 16  0  5  7.0000000  0  9G03G04G08G14G16G26G27G31G32         -0.000120766
  24326364.711 4     72041.898 4     43752.28947  24326365.70747
  22695829.961 5   -451307.414 5   -304328.34447  22695828.14847
  23736935.086 4   -488659.820 4   -351521.57848  23736934.59048
  21861437.055 6    269858.043 6    189751.26647  21861434.21147
  20601824.805 6   -131285.184 6    -93984.08248  20601820.75048
  21056516.391 6     71611.211 6     50890.85549  21056516.30549
  21394131.422 6   -554058.957 6   -390148.25049  21394129.86749
  21710902.172 6      -137.570 6     -9972.66449  21710898.99249
  23915583.516 5    279473.672 5    199351.52347  23915584.13747
 20  5 16  0  5  8.0000000  0  9G03G04G08G14G16G26G27G31G32         -0.000121380
  24326472.773 4     72608.930 4     44194.12547  24326473.54747
  22695130.930 5   -454980.289 5   -307190.32847  22695129.24247
  23736041.813 4   -493351.000 4   -355177.04348  23736041.78948
  21861797.891 6    271752.930 6    191227.78947  21861794.89847
  20601649.813 6   -132205.449 6    -94701.17248  20601646.12548
  21056610.531 6     72108.113 6     51278.05149  21056610.25449
  21393399.586 6   -557905.645 6   -393145.66849  21393398.21949
  21710883.422 6      -235.613 6    -10049.06649  21710880.43849
  23916095.742 5    282167.633 5    201450.71147  23916096.41447
 20  5 16  0  5  9.0000000  0  9G03G04G08G14G16G26G27G31G32         -0.000121996
  24326580.516 4     73175.980 4     44635.98447  24326581.44547
  22694432.070 5   -458653.016 5   -310052.18847  22694430.57447
  23735149.758 4   -498042.324 4   -358832.62148  23735149.51248
  21862157.953 6    273647.934 6    192704.41847  21862155.34047
  20601474.672 6   -133125.652 6    -95418.21948  20601470.54348
  21056705.453 6     72604.898 6     51665.16049  21056705.63349
  21392667.391 6   -561752.137 6   -396142.93449  21392665.89849
  21710865.023 6      -333.680 6    -10125.48049  21710861.71549
  23916608.648 5    284861.441 5    203549.78147  23916608.94147
 20  5 16  0  5 10.0000000  0  9G03G04G08G14G16G26G27G31G32         -0.000122610
  24326688.078 4     73743.117 4     45077.91447  24326689.69147
  22693732.813 5   -462325.473 5   -312913.83647  22693731.55547
  23734256.867 4   -502733.617 4   -362488.17248  23734256.48848
  21862519.047 6    275543.254 6    194181.29347  21862516.14847
  20601299.305 6   -134045.523 6    -96135.00448  20601295.50048
  21056800.211 6     73101.742 6     52052.30549  21056799.93449
  21391935.742 6   -565598.289 6   -399139.93849  21391933.78549
  21710846.039 6      -431.656 6    -10201.82849  21710843.04349
  23917120.766 5    287555.301 5    205648.89147  23917121.74647
 20  5 16  0  5 11.0000000  0  9G03G04G08G14G16G26G27G31G32         -0.000123226
  24326796.914 4     74310.391 4     45519.94147  24326797.38347
  22693034.313 5   -465997.656 5   -315775.28947  22693032.79747
  23733364.148 4   -507424.906 4   -366143.72348  23733363.77048
  21862879.305 6    277438.789 6    195658.33247  21862876.92247
  20601124.648 6   -134965.219 6    -96851.64548  20601120.96148
  21056894.758 6     73598.594 6     52439.45749  21056894.28549
  21391203.742 6   -569444.125 6   -402136.69149  21391202.45749
  21710827.414 6      -529.539 6    -10278.10249  21710824.22349
  23917633.555 5    290249.102 5    207747.95747  23917634.52047
 20  5 16  0  5 12.0000000  0  9G03G04G08G14G16G26G27G31G32         -0.000123840
  24326904.422 4     74877.801 4     45962.08247  24326905.19547
  22692335.578 5   -469669.551 5   -318636.51247  22692333.98047
  23732470.922 4   -512116.148 4   -369799.23848  23732470.77048
  21863240.609 6    279334.656 6    197135.63747  21863237.73447
  20600949.570 6   -135884.566 6    -97568.02048  20600945.64848
  21056989.398 6     74095.555 6     52826.69949  21056988.66449
  21390471.844 6   -573289.566 6   -405133.13749  21390470.32049
  21710809.031 6      -627.285 6    -10354.27049  21710805.87149
  23918146.648 5    292942.973 5    209847.07447  23918147.35947
 20  5 16  0  5 13.0000000  0  9G03G04G08G14G16G26G27G31G32         -0.000124456
  24327013.063 4     75445.387 4     46404.35247  24327013.75047
  22691636.750 5   -473341.121 5   -321497.47347  22691635.32447
  23731578.531 4   -516807.305 4   -373454.68848  23731578.25848
  21863601.211 6    281230.922 6    198613.23847  21863598.37947
  20600774.617 6   -136803.586 6    -98284.13348  20600770.86348
  21057083.836 6     74592.594 6     53214.00449  21057083.68449
  21389740.055 6   -577134.637 6   -408129.29349  21389738.78149
  21710790.469 6      -724.863 6    -10430.30549  21710786.98449
  23918658.813 5    295636.875 5    211946.21947  23918659.67647
 20  5 16  0  5 14.0000000  0  9G03G04G08G14G16G26G27G31G32         -0.000125071
  24327121.063 4     76013.102 4     46846.72347  24327121.47347
  22690937.836 5   -477012.465 5   -324358.25446  22690936.41446
  23730685.328 4   -521498.512 4   -377110.17248  23730685.54748
  21863961.961 6    283127.359 6    200090.98847  21863959.29347
  20600599.383 6   -137722.438 6    -99000.12948  20600595.72748
  21057178.594 6     75089.605 6     53601.28949  21057177.82849
  21389008.203 6   -580979.414 6   -411125.22749  21389007.07449
  21710771.945 6      -822.398 6    -10506.30549  21710768.48449
  23919171.828 5    298330.719 5    214045.31347  23919172.42647
 20  5 16  0  5 15.0000000  0  9G03G04G08G14G16G26G27G31G32         -0.000125687
  24327229.219 4     76580.867 4     47289.14847  24327229.30547
  22690239.281 5   -480683.547 5   -327218.82847  22690237.85947
  23729792.945 4   -526189.715 4   -380765.64848  23729793.21148
  21864322.813 6    285024.090 6    201568.96547  21864320.05547
  20600425.047 6   -138641.004 6    -99715.89548  20600421.15648
  21057273.008 6     75586.641 6     53988.58649  21057272.64849
  21388276.688 6   -584823.879 6   -414120.91449  21388275.52749
  21710753.977 6      -919.844 6    -10582.23449  21710750.46149
  23919684.211 5    301024.531 5    216144.38347  23919685.03547
 20  5 16  0  5 16.0000000  0  9G03G04G08G14G16G26G27G31G32         -0.000126303
  24327337.531 4     77148.840 4     47731.71547  24327337.46547
  22689541.367 5   -484354.262 5   -330079.12547  22689539.48847
  23728900.070 4   -530880.816 4   -384421.05948  23728900.60548
  21864684.586 6    286921.184 6    203047.21547  21864681.17247
  20600250.109 6   -139559.277 6   -100431.43448  20600246.51648
  21057367.695 6     76083.824 6     54375.99649  21057367.32449
  21387545.109 6   -588667.910 6   -417116.26649  21387544.05949
  21710734.555 6     -1017.094 6    -10658.01649  21710731.85549
  23920197.258 5    303718.469 5    218243.53947  23920197.09047
 20  5 16  0  5 17.0000000  0  9G03G04G08G14G16G26G27G31G32         -0.000126917
  24327445.523 4     77716.883 4     48174.34047  24327445.98047
  22688842.891 5   -488024.773 5   -332939.27047  22688840.98847
  23728007.281 4   -535571.895 4   -388076.44548  23728007.83648
  21865045.422 6    288818.504 6    204525.64147  21865042.64147
  20600075.570 6   -140477.293 6   -101146.77348  20600071.95748
  21057462.305 6     76580.961 6     54763.38349  21057462.28949
  21386813.672 6   -592511.645 6   -420111.38749  21386812.72749
  21710716.422 6     -1114.281 6    -10733.75049  21710712.62949
  23920710.102 5    306412.328 5    220342.64547  23920710.06647
 20  5 16  0  5 18.0000000  0  9G03G04G08G14G16G26G27G31G32         -0.000127533
  24327553.477 4     78284.891 4     48616.94147  24327554.07047
  22688144.078 5   -491695.188 5   -335799.33647  22688142.38747
  23727114.313 4   -540263.129 4   -391731.94148  23727114.98448
  21865406.406 6    290715.938 6    206004.16047  21865403.05147
  20599900.828 6   -141395.266 6   -101862.06648  20599897.19948
  21057556.922 6     77077.980 6     55150.66049  21057556.39149
  21386082.133 6   -596355.230 6   -423106.38749  21386081.12549
  21710697.766 6     -1211.543 6    -10809.54349  21710694.38349
  23921222.023 5    309106.035 5    222441.64147  23921222.60547
 20  5 16  0  5 19.0000000  0  9G03G04G08G14G16G26G27G31G32         -0.000128149
  24327660.781 4     78853.059 4     49059.67647  24327661.83247
  22687445.273 5   -495365.273 5   -338659.13347  22687444.06647
  23726222.180 4   -544954.254 4   -395387.36348  23726222.25848
  21865767.516 6    292613.754 6    207482.97347  21865764.45347
  20599726.453 6   -142312.875 6   -102577.09448  20599722.28148
  21057651.172 6     77575.117 6     55538.04749  21057650.95749
  21385350.945 6   -600198.387 6   -426101.05549  21385349.87149
  21710679.477 6     -1308.656 6    -10885.21949  21710676.03949
  23921734.773 5    311799.801 5    224540.68847  23921735.00847
 20  5 16  0  5 20.0000000  0  9G03G04G08G14G16G26G27G31G32         -0.000128765
  24327769.328 4     79421.430 4     49502.55947  24327770.05947
  22686747.156 5   -499035.035 5   -341518.68847  22686745.70347
  23725329.156 4   -549645.336 4   -399042.75048  23725329.43848
  21866128.750 6    294511.820 6    208961.98447  21866125.69147
  20599551.773 6   -143230.199 6   -103291.89548  20599547.88348
  21057746.141 6     78072.293 6     55925.45349  21057745.90249
  21384620.094 6   -604041.188 6   -429095.44949  21384618.69149
  21710660.836 6     -1405.625 6    -10960.77749  21710657.57849
  23922247.305 5    314493.563 5    226639.71547  23922247.98847
 20  5 16  0  5 21.0000000  0  9G03G04G08G14G16G26G27G31G32         -0.000129381
  24327877.695 4     79989.844 4     49945.47747  24327878.02347
  22686049.172 5   -502704.559 5   -344378.05147  22686047.21947
  23724437.094 4   -554336.430 4   -402698.15248  23724437.23848
  21866489.523 6    296410.148 6    210441.19947  21866486.89847
  20599377.383 6   -144147.293 6   -104006.51248  20599373.25448
  21057840.578 6     78569.492 6     56312.87549  21057840.15649
  21383888.680 6   -607883.688 6   -432089.60249  21383887.28549
  21710642.602 6     -1502.508 6    -11036.27349  21710639.07849
  23922760.117 5    317187.363 5    228738.77747  23922760.25847
 20  5 16  0  5 22.0000000  0  9G03G04G08G14G16G26G27G31G32         -0.000129995
  24327985.758 4     80558.375 4     50388.48047  24327986.19547
  22685351.133 5   -506373.832 5   -347237.23047  22685349.39147
  23723544.531 4   -559027.512 4   -406353.53948  23723544.47748
  21866851.406 6    298308.762 6    211920.63747  21866848.13347
  20599202.898 6   -145064.125 6   -104720.92648  20599198.93448
  21057935.078 6     79066.719 6     56700.32449  21057935.16449
  21383157.461 6   -611725.836 6   -435083.48849  21383156.38749
  21710623.859 6     -1599.277 6    -11111.67649  21710620.91049
  23923272.891 5    319881.098 5    230837.79347  23923273.01647
 20  5 16  0  5 23.0000000  0  9G03G04G08G14G16G26G27G31G32         -0.000130613
  24328094.313 4     81127.023 4     50831.58247  24328094.25047
  22684652.672 5   -510042.813 5   -350096.18047  22684650.83647
  23722651.703 4   -563718.566 4   -410008.91048  23722651.78948
  21867212.047 6    300207.645 6    213400.28947  21867209.40647
  20599028.609 6   -145980.734 6   -105435.17248  20599024.86348
  21058030.328 6     79563.969 6     57087.79749  21058029.82449
  21382426.328 6   -615567.691 6   -438077.14149  21382425.26249
  21710605.602 6     -1695.980 6    -11187.03149  21710602.69549
  23923784.969 5    322574.813 5    232936.79747  23923785.88747
 20  5 16  0  5 24.0000000  0  9G03G04G08G14G16G26G27G31G32         -0.000131227
  24328202.016 4     81695.770 4     51274.76247  24328202.57047
  22683954.633 5   -513711.559 5   -352954.94147  22683952.84047
  23721758.984 4   -568409.617 4   -413664.27048  23721759.04348
  21867573.891 6    302106.805 6    214880.15247  21867570.69947
  20598853.688 6   -146897.078 6   -106149.19948  20598850.06648
  21058124.992 6     80061.258 6     57475.28549  21058124.21149
  21381695.953 6   -619409.199 6   -441070.52349  21381694.25849
  21710587.234 6     -1792.594 6    -11262.31349  21710584.10249
  23924297.445 5    325268.551 5    235035.80547  23924298.47747
 20  5 16  0  5 25.0000000  0  9G03G04G08G14G16G26G27G31G32         -0.000131845
  24328310.711 3     82264.660 3     51718.04747  24328310.95747
  22683256.531 5   -517380.012 5   -355813.48047  22683254.37547
  23720865.969 4   -573100.629 4   -417319.60548  23720866.33648
  21867935.273 6    304006.262 6    216360.25047  21867932.19147
  20598679.633 6   -147813.156 6   -106863.03148  20598675.71148
  21058219.430 6     80558.574 6     57862.81349  21058219.12149
  21380964.898 6   -623250.363 6   -444063.64149  21380963.26249
  21710568.992 6     -1889.082 6    -11337.49649  21710565.69949
  23924810.063 5    327962.258 5    237134.80147  23924811.01247
 20  5 16  0  5 26.0000000  0  9G03G04G08G14G16G26G27G31G32         -0.000132462
  24328419.148 4     82833.809 4     52161.53947  24328419.34847
  22682558.984 5   -521048.074 5   -358671.71147  22682556.64547
  23719973.539 4   -577791.508 4   -420974.83248  23719973.60948
  21868297.258 6    305906.074 6    217840.61747  21868293.70347
  20598505.539 6   -148728.855 6   -107576.56348  20598501.40248
  21058313.977 6     81056.055 6     58250.45749  21058313.61349
  21380233.664 6   -627091.070 6   -447056.39849  21380232.58649
  21710550.852 6     -1985.344 6    -11412.50849  21710547.20349
  23925323.047 5    330656.109 5    239233.89847  23925323.81347
 20  5 16  0  5 27.0000000  0  9G03G04G08G14G16G26G27G31G32         -0.000133076
  24328526.750 3     83402.938 3     52605.01247  24328527.65647
  22681860.813 5   -524715.961 5   -361529.80547  22681859.09847
  23719080.688 4   -582482.422 4   -424630.09448  23719080.90648
  21868658.336 6    307806.129 6    219321.18047  21868655.30547
  20598331.281 6   -149644.348 6   -108289.94148  20598327.20748
  21058408.586 6     81553.504 6     58638.07849  21058408.19549
  21379502.656 6   -630931.516 6   -450048.94949  21379501.49249
  21710532.141 6     -2081.586 6    -11487.50049  21710529.10549
  23925835.414 5    333349.848 5    241332.91447  23925836.42247
 20  5 16  0  5 28.0000000  0  9G03G04G08G14G16G26G27G31G32         -0.000133694
  24328635.523 4     83972.180 4     53048.57847  24328635.71547
  22681162.867 5   -528383.613 5   -364387.72347  22681161.03547
  23718188.109 4   -587173.395 4   -428285.39548  23718188.06348
  21869020.047 6    309706.387 6    220801.89847  21869017.24647
  20598157.250 6   -150559.691 6   -109003.19548  20598153.11348
  21058502.984 6     82050.914 6     59025.66449  21058502.96149
  21378772.055 6   -634771.680 6   -453041.28949  21378770.64149
  21710514.367 6     -2177.789 6    -11562.46949  21710510.57049
  23926347.914 5    336043.535 5    243431.88347  23926348.62147
 20  5 16  0  5 29.0000000  0  9G03G04G08G14G16G26G27G31G32         -0.000134310
  24328744.484 4     84541.426 4     53492.14147  24328744.20347
  22680464.813 5   -532051.074 5   -367245.48047  22680462.84447
  23717295.750 4   -591864.406 4   -431940.72748  23717295.90248
  21869381.445 6    311606.859 6    222282.78547  21869378.53547
  20597983.125 6   -151474.816 6   -109716.27748  20597979.04348
  21058597.781 6     82548.289 6     59413.22749  21058597.57049
  21378041.844 6   -638611.586 6   -456033.42649  21378040.46549
  21710495.539 6     -2273.941 6    -11637.38749  21710492.52749
  23926860.359 5    338737.164 5    245530.80547  23926861.16847
 20  5 16  0  5 30.0000000  0  9G03G04G08G14G16G26G27G31G32         -0.000134926
  24328852.492 4     85110.844 4     53935.84447  24328852.56347
  22679767.109 5   -535718.234 5   -370103.00447  22679765.41047
  23716402.672 4   -596555.363 4   -435596.01648  23716402.82048
  21869743.570 6    313507.590 6    223763.86747  21869740.42647
  20597808.750 6   -152389.684 6   -110429.15648  20597804.91448
  21058692.570 6     83045.703 6     59800.82849  21058692.05149
  21377310.789 6   -642451.133 6   -459025.28149  21377309.39149
  21710477.211 6     -2369.996 6    -11712.23449  21710473.99249
  23927373.453 5    341430.777 5    247629.72347  23927374.13747
 20  5 16  0  5 31.0000000  0  9G03G04G08G14G16G26G27G31G32         -0.000135542
  24328960.781 3     85680.383 3     54379.64147  24328961.03947
  22679068.875 5   -539385.141 5   -372960.32847  22679067.52047
  23715510.102 5   -601246.340 5   -439251.32448  23715510.43848
  21870105.117 6    315408.652 6    225245.21947  21870101.66447
  20597634.945 6   -153304.289 6   -111141.83648  20597630.77748
  21058787.094 6     83543.160 6     60188.45749  21058786.94949
  21376579.828 6   -646290.352 6   -462016.88749  21376578.93449
  21710459.195 6     -2465.965 6    -11787.02049  21710455.84849
  23927886.563 5    344124.402 5    249728.64547  23927886.50047
 20  5 16  0  5 32.0000000  0  9G03G04G08G14G16G26G27G31G32         -0.000136160
  24329069.031 3     86250.031 3     54823.51647  24329069.44147
  22678371.625 5   -543051.762 5   -375817.44947  22678369.81647
  23714617.398 5   -605937.219 5   -442906.55148  23714617.68848
  21870466.766 6    317309.984 6    226726.77747  21870463.74647
  20597461.008 6   -154218.625 6   -111854.31348  20597456.68048
  21058881.789 6     84040.680 6     60576.12949  21058881.51649
  21375849.734 6   -650129.191 6   -465008.18449  21375848.54749
  21710440.813 6     -2561.734 6    -11861.64849  21710437.23449
  23928398.852 6    346818.047 6    251827.58247  23928399.30147
 20  5 16  0  5 33.0000000  0  9G03G04G08G14G16G26G27G31G32         -0.000136776
  24329177.578 3     86819.828 3     55267.51247  24329177.64147
  22677673.523 5   -546718.070 5   -378674.31647  22677671.82047
  23713725.039 4   -610628.059 4   -446561.75048  23713725.08248
  21870828.445 6    319211.648 6    228208.60247  21870825.55547
  20597286.648 6   -155132.664 6   -112566.55548  20597283.01248
  21058976.289 6     84538.258 6     60963.85249  21058976.02349
  21375119.242 6   -653967.676 6   -467999.20749  21375118.00049
  21710422.656 6     -2657.441 6    -11936.23049  21710419.38349
  23928911.203 5    349511.703 5    253926.53947  23928912.01647
 20  5 16  0  5 34.0000000  0  9G03G04G08G14G16G26G27G31G32         -0.000137392
  24329285.453 3     87389.934 3     55711.74647  24329286.21147
  22676976.148 5   -550383.914 5   -381530.82047  22676974.32847
  23712832.391 4   -615318.746 4   -450216.83648  23712832.39848
  21871190.414 6    321113.727 6    229690.73447  21871187.63347
  20597113.031 6   -156046.273 6   -113278.44948  20597109.43848
  21059071.227 6     85036.051 6     61351.74249  21059071.09049
  21374388.969 6   -657805.641 6   -470989.83649  21374388.02749
  21710404.719 6     -2752.848 6    -12010.57049  21710401.34049
  23929423.578 5    352205.547 5    256025.64147  23929424.58247
 20  5 16  0  5 35.0000000  0  9G03G04G08G14G16G26G27G31G32         -0.000138010
  24329394.859 3     87959.953 3     56155.91447  24329394.49647
  22676278.313 5   -554049.695 5   -384387.27047  22676276.59047
  23711939.539 4   -620009.570 4   -453872.02348  23711940.04748
  21871552.555 6    323015.930 6    231172.96547  21871549.85247
  20596939.102 6   -156959.820 6   -113990.30948  20596935.30148
  21059166.250 6     85533.688 6     61739.51249  21059165.61749
  21373658.430 6   -661643.461 6   -473980.34449  21373657.10549
  21710386.266 6     -2848.324 6    -12084.96949  21710382.97749
  23929936.414 5    354899.191 5    258124.58247  23929937.72347
 20  5 16  0  5 36.0000000  0  9G03G04G08G14G16G26G27G31G32         -0.000138626
  24329502.961 3     88530.137 3     56600.21547  24329503.09847
  22675580.813 5   -557715.180 5   -387243.49247  22675579.55547
  23711046.641 4   -624700.348 4   -457527.17248  23711047.65248
  21871914.383 6    324918.418 6    232655.41447  21871911.77047
  20596765.109 6   -157873.082 6   -114701.93848  20596761.43048
  21059260.453 6     86031.398 6     62127.33649  21059260.35549
  21372928.625 6   -665480.914 6   -476970.57049  21372927.29349
  21710368.320 6     -2943.684 6    -12159.27349  21710365.02749
  23930449.258 5    357592.836 5    260223.52047  23930449.91047
 20  5 16  0  5 37.0000000  0  9G03G04G08G14G16G26G27G31G32         -0.000139244
  24329611.234 3     89100.469 3     57044.62947  24329611.55547
  22674883.297 5   -561380.313 5   -390099.43847  22674882.34847
  23710154.414 5   -629390.996 5   -461182.21948  23710154.96148
  21872276.695 6    326821.250 6    234138.13747  21872273.64847
  20596591.602 6   -158786.027 6   -115413.32048  20596587.79348
  21059355.266 6     86529.188 6     62515.21949  21059355.35949
  21372197.961 6   -669317.988 6   -479960.49649  21372196.75049
  21710350.031 6     -3038.883 6    -12233.45349  21710346.63349
  23930961.969 5    360286.551 5    262322.50847  23930962.54747
 20  5 16  0  5 38.0000000  0  9G03G04G08G14G16G26G27G31G32         -0.000139860
  24329720.008 3     89670.945 3     57489.15247  24329720.07447
  22674185.688 5   -565045.172 5   -392955.17247  22674184.95747
  23709261.930 4   -634081.652 4   -464837.27048  23709262.28148
  21872639.102 6    328724.406 6    235621.10947  21872636.16447
  20596417.828 6   -159698.680 6   -116124.48048  20596414.14548
  21059449.969 6     87027.031 6     62903.15249  21059450.04349
  21371468.320 6   -673154.668 6   -482950.11749  21371466.54349
  21710332.078 6     -3133.941 6    -12307.52349  21710328.87149
  23931474.305 5    362980.281 5    264421.50847  23931475.55947
 20  5 16  0  5 39.0000000  0  9G03G04G08G14G16G26G27G31G32         -0.000140478
  24329828.328 4     90241.645 4     57933.85947  24329828.39547
  22673488.156 5   -568709.699 5   -395810.64147  22673487.59847
  23708369.711 5   -638772.184 5   -468492.23048  23708369.91048
  21873000.984 6    330627.863 6    237104.32447  21872998.04347
  20596244.305 6   -160611.043 6   -116835.41848  20596240.58248
  21059545.102 6     87524.977 6     63291.15649  21059544.98449
  21370738.289 6   -676990.980 6   -485939.44949  21370736.74649
  21710313.906 6     -3228.859 6    -12381.48849  21710310.60549
  23931986.484 5    365674.063 5    266520.55947  23931987.52047
 20  5 16  0  5 40.0000000  0  9G03G04G08G14G16G26G27G31G32         -0.000141094
  24329937.430 3     90812.434 3     58378.62547  24329937.27047
  22672791.398 5   -572373.906 5   -398665.87147  22672790.02047
  23707476.875 5   -643462.691 5   -472147.16448  23707477.19148
  21873363.594 6    332531.648 6    238587.79347  21873360.17647
  20596070.539 6   -161523.078 6   -117546.09448  20596066.83248
  21059639.617 6     88022.992 6     63679.22749  21059639.38749
  21370008.172 6   -680826.879 6   -488928.46149  21370006.64549
  21710295.797 6     -3323.625 6    -12455.33249  21710292.23049
  23932499.344 5    368367.906 5    268619.66047  23932500.24247
 20  5 16  0  5 41.0000000  0  9G03G04G08G14G16G26G27G31G32         -0.000141712
  24330045.773 4     91383.344 4     58823.48847  24330045.81347
  22672094.211 5   -576037.867 5   -401520.90247  22672092.59847
  23706584.125 4   -648153.191 4   -475802.10248  23706584.81348
  21873725.727 6    334435.684 6    240071.45347  21873722.70747
  20595897.414 6   -162434.902 6   -118256.60248  20595893.40648
  21059734.578 6     88521.008 6     64067.28949  21059734.18849
  21369278.141 6   -684662.523 6   -491917.27749  21369276.77049
  21710278.031 6     -3418.340 6    -12529.13749  21710274.50049
  23933012.336 5    371061.684 5    270718.69947  23933012.82447
 20  5 16  0  5 42.0000000  0  9G03G04G08G14G16G26G27G31G32         -0.000142330
  24330155.078 4     91954.336 4     59268.41847  24330154.44947
  22671397.094 5   -579701.578 5   -404375.74247  22671395.57847
  23705691.688 4   -652843.672 4   -479457.02048  23705692.28948
  21874088.367 6    336339.992 6    241555.33247  21874084.88747
  20595723.383 6   -163346.492 6   -118966.93448  20595719.74648
  21059828.945 6     89019.043 6     64455.35949  21059829.32049
  21368548.602 6   -688497.816 6   -494905.81349  21368547.33649
  21710259.961 6     -3512.930 6    -12602.84449  21710256.87149
  23933524.914 5    373755.438 5    272817.72746  23933525.39846
 20  5 16  0  5 43.0000000  0  9G03G04G08G14G16G26G27G31G32         -0.000142946
  24330263.570 4     92525.453 4     59713.43447  24330263.15647
  22670699.680 5   -583365.031 5   -407230.38347  22670698.53147
  23704799.000 5   -657534.184 5   -483111.95748  23704799.36748
  21874450.836 6    338244.543 6    243039.39847  21874447.48847
  20595550.438 6   -164257.832 6   -119677.07448  20595546.73048
  21059923.820 6     89517.117 6     64843.47349  21059923.55549
  21367818.922 6   -692332.758 6   -497894.07849  21367817.60549
  21710242.172 6     -3607.473 6    -12676.51649  21710238.76649
  23934037.430 5    376449.172 5    274916.74647  23934037.94947
 20  5 16  0  5 44.0000000  0  9G03G04G08G14G16G26G27G31G32         -0.000143564
  24330372.070 4     93096.719 4     60158.58247  24330371.83647
  22670003.180 5   -587028.172 5   -410084.77747  22670001.15247
  23703906.375 5   -662224.594 5   -486766.82848  23703906.66448
  21874813.352 6    340149.422 6    244523.71547  21874810.30547
  20595377.367 6   -165168.871 6   -120386.97348  20595372.75048
  21060019.070 6     90015.238 6     65231.61349  21060018.98849
  21367089.164 6   -696167.332 6   -500882.06349  21367087.45349
  21710223.961 6     -3701.828 6    -12750.03949  21710220.55949
  23934549.602 5    379142.938 5    277015.77747  23934551.01647
 20  5 16  0  5 45.0000000  0  9G03G04G08G14G16G26G27G31G32         -0.000144182
  24330480.727 4     93668.109 4     60603.82447  24330480.68847
  22669305.867 5   -590691.031 5   -412938.94947  22669304.11347
  23703014.031 5   -666915.027 5   -490421.71148  23703013.85948
  21875175.930 6    342054.590 6    246008.26247  21875173.03947
  20595203.398 6   -166079.660 6   -121096.68048  20595199.87148
  21060113.703 6     90513.406 6     65619.79749  21060113.34849
  21366359.195 6   -700001.594 6   -503869.79749  21366357.91049
  21710205.688 6     -3796.117 6    -12823.51249  21710202.34049
  23935062.586 5    381836.691 5    279114.80547  23935063.30547
 20  5 16  0  5 46.0000000  0  9G03G04G08G14G16G26G27G31G32         -0.000144800
  24330589.242 4     94239.625 4     61049.15247  24330589.57447
  22668609.094 5   -594353.633 5   -415792.93047  22668607.29347
  23702121.180 5   -671605.375 5   -494076.52748  23702121.12948
  21875538.023 6    343960.008 6    247492.99647  21875535.47747
  20595030.344 6   -166990.211 6   -121806.19948  20595026.84448
  21060208.609 6     91011.625 6     66008.02349  21060208.26249
  21365629.539 6   -703835.496 6   -506857.25449  21365627.96149
  21710187.977 6     -3890.293 6    -12896.89149  21710185.06649
  23935575.148 5    384530.469 5    281213.84447  23935575.80147
 20  5 16  0  5 47.0000000  0  9G03G04G08G14G16G26G27G31G32         -0.000145416
  24330698.094 4     94811.270 4     61494.59447  24330698.09847
  22667911.852 5   -598015.891 5   -418646.63747  22667910.58247
  23701228.508 5   -676295.652 5   -497731.29348  23701228.81648
  21875900.875 6    345865.789 6    248978.02047  21875898.05147
  20594857.016 6   -167900.398 6   -122515.43848  20594853.52748
  21060303.344 6     91509.910 6     66396.29349  21060303.06349
  21364900.148 6   -707669.016 6   -509844.41849  21364898.98049
  21710170.250 6     -3984.270 6    -12970.12549  21710166.60549
  23936087.758 5    387224.273 5    283312.89847  23936088.32047
 20  5 16  0  5 48.0000000  0  9G03G04G08G14G16G26G27G31G32         -0.000146034
  24330807.523 4     95383.043 4     61940.12947  24330806.64147
  22667215.336 5   -601677.867 5   -421500.12147  22667213.53947
  23700336.094 4   -680985.883 4   -501386.02048  23700336.08248
  21876263.172 6    347771.820 6    250463.24647  21876260.95747
  20594683.773 6   -168810.363 6   -123224.50448  20594679.73448
  21060398.102 6     92008.242 6     66784.60249  21060398.11349
  21364170.648 6   -711502.207 6   -512831.32049  21364169.21549
  21710152.438 6     -4078.172 6    -13043.30149  21710149.28949
  23936600.195 5    389918.070 5    285411.96147  23936601.04347
 20  5 16  0  5 49.0000000  0  9G03G04G08G14G16G26G27G31G32         -0.000146652
  24330915.805 4     95954.871 4     62385.71147  24330916.04747
  22666518.211 5   -605339.680 5   -424353.48447  22666516.48047
  23699443.867 5   -685676.191 5   -505040.80148  23699443.78148
  21876625.820 6    349678.059 6    251948.62147  21876623.58247
  20594510.672 6   -169720.148 6   -123933.42248  20594506.79748
  21060492.930 6     92506.520 6     67172.86349  21060492.47349
  21363441.250 6   -715335.117 6   -515818.00049  21363439.84049
  21710134.477 6     -4172.066 6    -13116.46549  21710131.48049
  23937113.445 5    392611.805 5    287510.98047  23937114.00047
 20  5 16  0  5 50.0000000  0  9G03G04G08G14G16G26G27G31G32         -0.000147270
  24331024.586 4     96526.883 4     62831.42647  24331024.75047
  22665821.820 5   -609001.133 5   -427206.56647  22665819.95347
  23698551.555 4   -690366.414 4   -508695.51648  23698551.13348
  21876988.789 6    351584.676 6    253434.30147  21876986.72747
  20594337.852 6   -170629.582 6   -124642.07048  20594333.74648
  21060587.703 6     93004.918 6     67561.22349  21060587.61349
  21362711.703 6   -719167.586 6   -518804.34049  21362710.43049
  21710117.016 6     -4265.750 6    -13189.46949  21710113.35549
  23937625.414 5    395305.590 5    289610.02347  23937626.44947
 20  5 16  0  5 51.0000000  0  9G03G04G08G14G16G26G27G31G32         -0.000147888
  24331133.586 4     97098.906 4     63277.14847  24331133.68447
  22665125.023 5   -612662.398 5   -430059.49247  22665123.25447
  23697658.398 4   -695056.703 4   -512350.28548  23697658.58248
  21877351.633 6    353491.426 6    254920.07447  21877349.47347
  20594165.086 6   -171538.906 6   -125350.62948  20594161.02048
  21060682.398 6     93503.223 6     67949.51649  21060682.21549
  21361982.953 6   -722999.883 6   -521790.54349  21361981.38349
  21710098.992 6     -4359.484 6    -13262.50449  21710095.50049
  23938138.000 5    397999.250 5    291708.97747  23938139.05947
 20  5 16  0  5 52.0000000  0  9G03G04G08G14G16G26G27G31G32         -0.000148506
  24331242.688 4     97671.133 4     63723.04347  24331242.71147
  22664428.500 5   -616323.324 5   -432912.16447  22664426.78147
  23696765.922 5   -699746.891 5   -516004.97348  23696765.86348
  21877714.719 6    355398.563 6    256406.14847  21877712.13747
  20593991.688 6   -172447.855 6   -126058.90248  20593987.86748
  21060777.438 6     94001.664 6     68337.91449  21060777.23449
  21361253.523 6   -726831.719 6   -524776.38749  21361252.35949
  21710081.430 6     -4452.996 6    -13335.37149  21710077.57449
  23938650.617 5    400692.988 5    293807.98846  23938651.14146
 20  5 16  0  5 53.0000000  0  9G03G04G08G14G16G26G27G31G32         -0.000149124
  24331351.609 4     98243.402 4     64168.96547  24331351.34447
  22663731.844 5   -619984.008 5   -435764.64547  22663729.73047
  23695873.656 5   -704437.078 5   -519659.67248  23695873.93448
  21878077.547 6    357305.945 6    257892.42647  21878075.04347
  20593818.781 6   -173356.574 6   -126766.99248  20593814.84448
  21060871.969 6     94500.109 6     68726.31349  21060872.02349
  21360524.438 6   -730663.242 6   -527761.99649  21360522.83649
  21710063.016 6     -4546.430 6    -13408.18049  21710060.06649
  23939162.609 5    403386.727 5    295907.00846  23939163.90646
 20  5 16  0  5 54.0000000  0  9G03G04G08G14G16G26G27G31G32         -0.000149742
  24331459.719 4     98815.852 4     64615.02747  24331460.61347
  22663035.023 5   -623644.391 5   -438616.88747  22663033.37947
  23694981.008 4   -709127.234 4   -523314.33648  23694981.40648
  21878440.680 6    359213.617 6    259378.92647  21878437.96147
  20593646.047 6   -174265.063 6   -127474.91048  20593642.08248
  21060966.852 6     94998.586 6     69114.73049  21060967.10549
  21359795.742 6   -734494.422 6   -530747.33249  21359794.36349
  21710045.367 6     -4639.781 6    -13480.92249  21710042.42649
  23939676.047 5    406080.422 5    298005.98847  23939676.56347
 20  5 16  0  5 55.0000000  0  9G03G04G08G14G16G26G27G31G32         -0.000150360
  24331569.094 4     99388.363 4     65061.13747  24331569.30547
  22662338.617 5   -627304.563 5   -441468.98047  22662336.98447
  23694088.133 4   -713817.395 4   -526969.01248  23694088.92248
  21878803.406 6    361121.516 6    260865.59847  21878801.21547
  20593473.313 6   -175173.297 6   -128182.62948  20593469.03548
  21061061.984 6     95497.082 6     69503.16449  21061062.03549
  21359066.383 6   -738325.293 6   -533732.43449  21359065.38349
  21710027.977 6     -4733.027 6    -13553.58249  21710024.64149
  23940188.227 5    408774.102 5    300104.96947  23940189.05147
 20  5 16  0  5 56.0000000  0  9G03G04G08G14G16G26G27G31G32         -0.000150978
  24331678.664 4     99961.070 4     65507.41047  24331678.44147
  22661642.273 5   -630964.395 5   -444320.79747  22661640.75847
  23693196.461 5   -718507.520 5   -530623.64848  23693196.58648
  21879166.953 6    363029.754 6    262352.53147  21879164.43447
  20593300.555 6   -176081.262 6   -128890.13748  20593296.41048
  21061157.047 6     95995.613 6     69891.62949  21061156.55149
  21358337.805 6   -742155.793 6   -536717.24249  21358336.45749
  21710010.063 6     -4826.168 6    -13626.16049  21710007.14149
  23940700.789 5    411467.785 5    302203.94547  23940701.92647
 20  5 16  0  5 57.0000000  0  9G03G04G08G14G16G26G27G31G32         -0.000151598
  24331787.109 4    100533.855 4     65953.73047  24331787.45747
  22660945.586 5   -634623.945 5   -447172.39847  22660944.37947
  23692303.359 5   -723197.551 5   -534278.22348  23692304.34048
  21879530.492 6    364938.273 6    263839.68447  21879527.75047
  20593127.617 6   -176988.934 6   -129597.40648  20593123.81648
  21061251.922 6     96494.227 6     70280.16049  21061251.44949
  21357608.719 6   -745985.922 6   -539701.75849  21357607.80949
  21709992.195 6     -4919.152 6    -13698.60949  21709989.11349
  23941213.828 5    414161.512 5    304302.94947  23941214.62547
 20  5 16  0  5 58.0000000  0  9G03G04G08G14G16G26G27G31G32         -0.000152216
  24331895.727 4    101106.789 4     66400.16847  24331896.46147
  22660249.516 5   -638283.238 5   -450023.79747  22660247.75847
  23691410.555 4   -727887.559 4   -537932.77348  23691411.85948
  21879893.477 6    366847.078 6    265327.06647  21879890.42247
  20592954.914 6   -177896.332 6   -130304.46948  20592951.18448
  21061346.414 6     96992.863 6     70668.70749  21061346.30149
  21356880.078 6   -749815.734 6   -542686.02349  21356878.80949
  21709974.414 6     -5012.055 6    -13771.00849  21709971.47749
  23941726.203 5    416855.223 5    306401.94147  23941727.08247
 20  5 16  0  5 59.0000000  0  9G03G04G08G14G16G26G27G31G32         -0.000152834
  24332005.344 3    101679.926 3     66846.77047  24332005.60247
  22659553.273 5   -641942.109 5   -452874.86747  22659551.72747
  23690518.828 4   -732577.434 4   -541587.21948  23690519.28548
  21880257.398 6    368756.262 6    266814.74247  21880254.03947
  20592782.367 6   -178803.398 6   -131011.27748  20592778.53148
  21061441.523 6     97491.641 6     71057.36349  21061441.55549
  21356151.438 6   -753645.066 6   -545669.92649  21356150.23049
  21709956.961 6     -5104.723 6    -13843.21549  21709954.16449
  23942238.195 5    419549.035 5    308501.00847  23942239.77047
 20  5 16  0  6  0.0000000  0  9G03G04G08G14G16G26G27G31G32         -0.000153452
  24332114.648 4    102253.230 4     67293.50047  24332114.55547
  22658856.875 5   -645600.680 5   -455725.69147  22658855.53947
  23689626.617 4   -737267.266 4   -545241.63348  23689626.68048
  21880620.531 6    370665.770 6    268302.66447  21880617.30547
  20592609.633 6   -179710.148 6   -131717.83248  20592606.02348
  21061536.227 6     97990.520 6     71446.10549  21061536.23049
  21355422.828 6   -757474.039 6   -548653.53549  21355421.41849
  21709939.313 6     -5197.277 6    -13915.34049  21709936.09049
  23942751.438 5    422242.902 5    310600.12147  23942752.35947
 20  5 16  0  6  1.0000000  0  9G03G04G08G14G16G26G27G31G32         -0.000154070
  24332222.875 3    102826.539 3     67740.23047  24332223.55547
  22658160.570 5   -649259.043 5   -458576.36347  22658159.18047
  23688733.625 5   -741957.129 5   -548896.07048  23688734.59848
  21880983.484 6    372575.500 6    269790.77347  21880980.82847
  20592437.234 6   -180616.695 6   -132424.23048  20592433.24248
  21061631.398 6     98489.344 6     71834.79349  21061631.15649
  21354693.859 6   -761302.711 6   -551636.91049  21354692.77749
  21709922.023 6     -5289.777 6    -13987.42249  21709918.59049
  23943263.688 5    424936.699 5    312699.17647  23943264.99247
 20  5 16  0  6  2.0000000  0  9G03G04G08G14G16G26G27G31G32         -0.000154690
  24332332.305 3    103399.984 3     68187.07047  24332332.87947
  22657464.727 5   -652917.164 5   -461426.83247  22657463.27047
  23687841.461 5   -746646.980 5   -552550.50448  23687841.79748
  21881347.453 6    374485.453 6    271279.04747  21881344.53947
  20592264.930 6   -181523.051 6   -133130.49648  20592260.98848
  21061726.242 6     98988.164 6     72223.48049  21061726.43049
  21353965.469 6   -765131.090 6   -554620.06649  21353963.78549
  21709904.297 6     -5382.180 6    -14059.42649  21709900.64849
  23943776.688 5    427630.430 5    314798.18047  23943777.70347
 20  5 16  0  6  3.0000000  0  9G03G04G08G14G16G26G27G31G32         -0.000155308
  24332441.305 3    103973.605 3     68634.03947  24332442.06647
  22656768.656 5   -656574.918 5   -464277.02747  22656766.84847
  23686949.000 4   -751336.727 4   -556204.84848  23686949.56648
  21881710.844 6    376395.762 6    272767.59847  21881708.36347
  20592092.375 6   -182429.035 6   -133836.45348  20592088.16048
  21061821.031 6     99487.113 6     72612.27349  21061821.21549
  21353237.141 6   -768959.027 6   -557602.87149  21353235.59049
  21709886.461 6     -5474.422 6    -14131.30549  21709883.11749
  23944288.914 5    430324.207 5    316897.21947  23944290.08647
 20  5 16  0  6  4.0000000  0  9G03G04G08G14G16G26G27G31G32         -0.000155928
  24332551.008 4    104547.371 4     69081.12147  24332550.94547
  22656072.977 5   -660232.402 5   -467127.01247  22656071.51247
  23686056.664 4   -756026.465 4   -559859.19148  23686057.28948
  21882074.313 6    378306.387 6    274256.39847  21882071.19147
  20591920.008 6   -183334.770 6   -134542.21948  20591916.25848
  21061915.953 6     99986.105 6     73001.10249  21061915.98849
  21352508.852 6   -772786.641 6   -560585.42649  21352506.85949
  21709869.273 6     -5566.535 6    -14203.07849  21709865.73049
  23944801.422 5    433018.031 5    318996.30546  23944802.92246
 20  5 16  0  6  5.0000000  0  9G03G04G08G14G16G26G27G31G32         -0.000156546
  24332660.070 3    105121.180 3     69528.24247  24332660.12547
  22655377.156 5   -663889.641 5   -469976.82047  22655375.10947
  23685163.891 4   -760716.176 4   -563513.50848  23685164.86748
  21882437.469 6    380217.246 6    275745.37147  21882434.83647
  20591747.500 6   -184240.289 6   -135247.82848  20591743.50448
  21062011.453 6    100485.078 6     73389.91049  21062010.92249
  21351780.641 6   -776613.926 6   -563567.72349  21351778.86349
  21709851.781 6     -5658.613 6    -14274.82849  21709848.35949
  23945314.773 5    435711.801 5    321095.35946  23945315.30146
 20  5 16  0  6  6.0000000  0  9G03G04G08G14G16G26G27G31G32         -0.000157166
  24332769.289 3    105695.215 3     69975.53947  24332769.32847
  22654681.367 5   -667546.527 5   -472826.34047  22654679.41447
  23684272.258 4   -765405.805 4   -567167.76248  23684272.07848
  21882801.164 6    382128.461 6    277234.62147  21882798.15247
  20591575.750 6   -185145.465 6   -135953.15248  20591571.68448
  21062106.164 6    100984.207 6     73778.83649  21062105.70749
  21351052.109 6   -780440.820 6   -566549.72349  21351050.57449
  21709834.117 6     -5750.465 6    -14346.40249  21709830.73849
  23945827.430 5    438405.625 5    323194.42647  23945828.23447
 20  5 16  0  6  7.0000000  0  9G03G04G08G14G16G26G27G31G32         -0.000157784
  24332878.609 3    106269.359 3     70422.92647  24332878.87547
  22653985.039 6   -671203.148 6   -475675.65647  22653983.62547
  23683379.563 4   -770095.402 4   -570821.99648  23683379.81348
  21883164.969 6    384039.914 6    278724.06647  21883162.52047
  20591403.344 6   -186050.391 6   -136658.29348  20591399.35948
  21062201.375 6    101483.332 6     74167.76249  21062200.71949
  21350324.039 6   -784267.352 6   -569531.43849  21350322.46549
  21709816.688 6     -5842.215 6    -14417.89549  21709813.15249
  23946339.648 5    441099.480 5    325293.52347  23946340.69147
 20  5 16  0  6  8.0000000  0  9G03G04G08G14G16G26G27G31G32         -0.000158403
  24332987.828 3    106843.559 3     70870.35247  24332987.84447
  22653289.617 5   -674859.504 5   -478524.76247  22653287.94547
  23682486.352 4   -774785.043 4   -574476.25848  23682487.52348
  21883528.789 6    385951.633 6    280213.71947  21883526.07047
  20591231.141 6   -186955.078 6   -137363.23848  20591227.03548
  21062295.914 6    101982.461 6     74556.68849  21062296.02349
  21349596.070 6   -788093.586 6   -572512.91849  21349594.48449
  21709799.297 6     -5933.934 6    -14489.36749  21709795.97749
  23946852.070 5    443793.230 5    327392.54347  23946853.26247
 20  5 16  0  6  9.0000000  0  9G03G04G08G14G16G26G27G31G32         -0.000159021
  24333097.320 3    107417.879 3     71317.87947  24333097.40247
  22652593.555 5   -678515.629 5   -481373.69147  22652591.84047
  23681594.078 4   -779474.629 4   -578130.48048  23681595.09448
  21883892.703 6    387863.621 6    281703.57847  21883889.82447
  20591059.461 6   -187859.527 6   -138068.00448  20591055.15648
  21062391.008 6    102481.633 6     74945.66049  21062390.89549
  21348867.836 6   -791919.461 6   -575494.12149  21348866.23449
  21709781.727 6     -6025.516 6    -14560.73049  21709778.85249
  23947365.070 5    446487.027 5    329491.59447  23947365.92247
 20  5 16  0  6 10.0000000  0  9G03G04G08G14G16G26G27G31G32         -0.000159641
  24333206.367 3    107992.344 3     71765.51247  24333206.47347
  22651898.328 6   -682171.422 6   -484222.35947  22651896.51647
  23680701.961 4   -784164.211 4   -581784.70348  23680703.04348
  21884256.367 6    389775.934 6    283193.69147  21884253.84447
  20590887.031 6   -188763.727 6   -138772.57848  20590882.89548
  21062486.125 6    102980.820 6     75334.62949  21062486.21149
  21348139.586 6   -795745.004 6   -578475.06349  21348138.45749
  21709764.289 6     -6117.020 6    -14632.03549  21709761.48849
  23947877.320 5    449180.809 5    331590.64847  23947878.76647
 20  5 16  0  6 11.0000000  0  9G03G04G08G14G16G26G27G31G32         -0.000160261
  24333315.438 4    108566.957 4     72213.25447  24333315.80147
  22651202.328 5   -685826.922 5   -487070.80947  22651200.81647
  23679809.742 4   -788853.703 4   -585438.85248  23679810.45348
  21884620.656 6    391688.516 6    284684.01247  21884617.57847
  20590714.789 6   -189667.609 6   -139476.90648  20590710.94148
  21062581.063 6    103480.109 6     75723.69149  21062580.96949
  21347412.281 6   -799570.164 6   -581455.70749  21347410.68849
  21709747.508 6     -6208.352 6    -14703.19549  21709744.07849
  23948390.484 5    451874.602 5    333689.71147  23948390.85947
 20  5 16  0  6 12.0000000  0  9G03G04G08G14G16G26G27G31G32         -0.000160879
  24333425.148 4    109141.734 4     72661.12547  24333424.96947
  22650506.852 6   -689482.074 6   -489918.97747  22650505.34047
  23678917.477 4   -793543.109 4   -589092.93048  23678918.22748
  21884984.992 6    393601.477 6    286174.63347  21884981.50447
  20590542.758 6   -190571.164 6   -140180.97348  20590539.13348
  21062676.117 6    103979.500 6     76112.82449  21062676.38749
  21346684.609 6   -803394.891 6   -584436.01649  21346682.42649
  21709729.945 6     -6299.504 6    -14774.23049  21709726.48049
  23948902.484 5    454568.480 5    335788.83647  23948903.70347
 20  5 16  0  6 13.0000000  0  9G03G04G08G14G16G26G27G31G32         -0.000161499
  24333534.273 4    109716.594 4     73109.07447  24333534.50847
  22649811.492 6   -693136.977 6   -492766.95347  22649809.55547
  23678024.961 4   -798232.555 4   -592747.04348  23678025.59048
  21885348.344 6    395514.645 6    287665.41847  21885345.23447
  20590371.016 6   -191474.520 6   -140884.88348  20590367.33248
  21062771.016 6    104478.852 6     76501.92249  21062771.09049
  21345956.469 6   -807219.336 6   -587416.10249  21345954.99649
  21709712.219 6     -6390.598 6    -14845.21549  21709709.12949
  23949415.602 5    457262.301 5    337887.91446  23949416.59046
 20  5 16  0  6 14.0000000  0  9G03G04G08G14G16G26G27G31G32         -0.000162119
  24333643.688 4    110291.539 4     73557.08247  24333644.03147
  22649116.313 5   -696791.648 5   -495614.75847  22649114.03547
  23677132.867 4   -802921.977 4   -596401.13348  23677133.21948
  21885713.219 6    397428.070 6    289156.40247  21885709.75847
  20590199.172 6   -192377.637 6   -141588.60548  20590195.50048
  21062865.836 6    104978.230 6     76891.05949  21062866.18449
  21345228.625 6   -811043.453 6   -590395.94149  21345227.05949
  21709695.094 6     -6481.609 6    -14916.13349  21709692.13749
  23949928.023 5    459956.098 5    339986.97746  23949928.90246
 20  5 16  0  6 15.0000000  0  9G03G04G08G14G16G26G27G31G32         -0.000162739
  24333753.313 4    110866.605 4     74005.19147  24333753.26247
  22648420.305 5   -700446.059 5   -498462.34847  22648418.73047
  23676240.805 4   -807611.383 4   -600055.21148  23676240.73848
  21886077.219 6    399341.750 6    290647.58647  21886073.77347
  20590027.344 6   -193280.543 6   -142292.17248  20590023.44148
  21062961.359 6    105477.625 6     77280.19149  21062960.84449
  21344501.117 6   -814867.266 6   -593375.53549  21344499.86349
  21709677.648 6     -6572.535 6    -14986.98849  21709674.44949
  23950440.172 5    462649.836 5    342085.98447  23950441.47347
 20  5 16  0  6 16.0000000  0  9G03G04G08G14G16G26G27G31G32         -0.000163357
  24333862.398 4    111441.863 4     74453.43847  24333862.89847
  22647725.148 5   -704100.102 5   -501309.64847  22647723.56647
  23675347.758 4   -812300.648 4   -603709.18448  23675348.67248
  21886441.258 6    401255.816 6    292139.07047  21886438.08247
  20589855.453 6   -194183.070 6   -142995.44148  20589851.80548
  21063056.258 6    105977.141 6     77669.42249  21063056.50449
  21343773.711 6   -818690.621 6   -596354.77049  21343772.12549
  21709660.758 6     -6663.250 6    -15057.67649  21709657.60249
  23950953.297 5    465343.660 5    344185.07447  23950954.40247
 20  5 16  0  6 17.0000000  0  9G03G04G08G14G16G26G27G31G32         -0.000163977
  24333971.859 4    112017.227 4     74901.77347  24333972.78547
  22647030.227 5   -707753.840 5   -504156.72347  22647027.58647
  23674455.391 4   -816989.820 4   -607363.09048  23674456.33648
  21886805.172 6    403170.195 6    293630.79347  21886802.00447
  20589684.008 6   -195085.293 6   -143698.48048  20589679.70348
  21063151.742 6    106476.715 6     78058.69949  21063151.19949
  21343045.953 6   -822513.609 6   -599333.72349  21343044.43849
  21709642.945 6     -6753.801 6    -15128.23449  21709639.94549
  23951465.875 5    468037.570 5    346284.21947  23951466.65247
 20  5 16  0  6 18.0000000  0  9G03G04G08G14G16G26G27G31G32         -0.000164597
  24334081.477 4    112592.840 4     75350.30547  24334082.17647
  22646334.688 5   -711407.219 5   -507003.50847  22646332.82847
  23673562.750 4   -821678.922 4   -611016.93448  23673563.94948
  21887169.578 6    405084.895 6    295122.76247  21887166.77047
  20589512.469 6   -195987.203 6   -144401.26648  20589508.53548
  21063246.422 6    106976.434 6     78448.09049  21063246.31649
  21342318.703 6   -826336.184 6   -602312.34849  21342317.25849
  21709625.789 6     -6844.215 6    -15198.68849  21709622.76249
  23951978.406 5    470731.500 5    348383.36747  23951979.62547
 20  5 16  0  6 19.0000000  0  9G03G04G08G14G16G26G27G31G32         -0.000165216
  24334191.219 4    113168.457 4     75798.83247  24334191.76647
  22645639.648 5   -715060.375 5   -509850.11347  22645637.71947
  23672671.148 4   -826368.043 4   -614670.78948  23672671.62548
  21887534.289 6    406999.832 6    296614.91847  21887531.43447
  20589340.695 6   -196888.934 6   -145103.90648  20589336.56348
  21063341.344 6    107476.090 6     78837.42649  21063341.31649
  21341591.523 6   -830158.469 6   -605290.75049  21341589.90249
  21709608.430 6     -6934.563 6    -15269.09049  21709605.46949
  23952491.141 5    473425.363 5    350482.48046  23952492.19546
 20  5 16  0  6 20.0000000  0  9G03G04G08G14G16G26G27G31G32         -0.000165836
  24334300.375 4    113744.289 4     76247.53147  24334301.14847
  22644944.188 5   -718713.184 5   -512696.45747  22644942.36747
  23671778.344 4   -831057.094 4   -618324.59448  23671779.12948
  21887898.578 6    408915.129 6    298107.35247  21887895.60947
  20589169.141 6   -197790.316 6   -145806.28148  20589165.47348
  21063436.773 6    107975.863 6     79226.86349  21063437.00449
  21340863.945 6   -833980.340 6   -608268.84049  21340862.60949
  21709591.820 6     -7024.754 6    -15339.37149  21709588.26649
  23953003.672 5    476119.289 5    352581.64546  23953004.85546
 20  5 16  0  6 21.0000000  0  9G03G04G08G14G16G26G27G31G32         -0.000166456
  24334410.586 4    114320.238 4     76696.31647  24334410.54747
  22644249.109 5   -722365.711 5   -515542.59047  22644247.30547
  23670885.969 4   -835746.082 4   -621978.34848  23670887.13748
  21888263.023 6    410830.668 6    299599.97747  21888260.75447
  20588997.563 6   -198691.457 6   -146508.47348  20588993.93048
  21063531.711 6    108475.664 6     79616.32049  21063531.32049
  21340136.836 6   -837801.867 6   -611246.65249  21340135.46149
  21709574.227 6     -7114.816 6    -15409.55149  21709571.07849
  23953516.391 5    478813.262 5    354680.83647  23953517.57447
 20  5 16  0  6 22.0000000  0  9G03G04G08G14G16G26G27G31G32         -0.000167076
  24334520.766 4    114896.297 4     77145.18847  24334520.54747
  22643554.086 5   -726017.977 5   -518388.52047  22643552.25447
  23669993.906 4   -840435.078 4   -625632.10948  23669994.71948
  21888627.547 6    412746.504 6    301092.83647  21888625.00847
  20588826.414 6   -199592.336 6   -147210.46148  20588822.49248
  21063626.578 6    108975.492 6     80005.78949  21063626.60249
  21339409.625 6   -841623.047 6   -614224.19549  21339408.28149
  21709557.109 6     -7204.793 6    -15479.66449  21709553.75049
  23954029.219 5    481507.148 5    356779.96546  23954030.46146
 20  5 16  0  6 23.0000000  0  9G03G04G08G14G16G26G27G31G32         -0.000167696
  24334630.438 4    115472.469 4     77594.14847  24334629.94147
  22642859.227 5   -729669.941 5   -521234.20347  22642857.76647
  23669101.422 4   -845124.012 4   -629285.81348  23669102.07048
  21888992.102 6    414662.648 6    302585.94547  21888989.74247
  20588655.258 6   -200492.914 6   -147912.20348  20588651.13348
  21063721.727 6    109475.391 6     80395.32849  21063721.82449
  21338682.438 6   -845443.871 6   -617201.46549  21338681.00049
  21709540.477 6     -7294.605 6    -15549.64849  21709536.99249
  23954542.063 5    484201.086 5    358879.13747  23954542.81347
 20  5 16  0  6 24.0000000  0  9G03G04G08G14G16G26G27G31G32         -0.000168316
  24334739.320 3    116048.805 3     78043.24247  24334739.71147
  22642164.164 5   -733321.574 5   -524079.62947  22642162.52347
  23668209.320 4   -849812.891 4   -632939.48048  23668210.26248
  21889356.789 6    416579.070 6    304079.25847  21889354.37547
  20588483.797 6   -201393.242 6   -148613.75848  20588479.96148
  21063817.148 6    109975.340 6     80784.89549  21063816.82849
  21337955.156 6   -849264.324 6   -620178.43449  21337954.12549
  21709522.820 6     -7384.336 6    -15619.56649  21709519.86749
  23955054.570 5    486895.023 5    360978.31346  23955055.82846
 20  5 16  0  6 25.0000000  0  9G03G04G08G14G16G26G27G31G32         -0.000168936
  24334850.086 3    116625.094 3     78492.30547  24334849.55547
  22641469.445 5   -736973.082 5   -526924.96547  22641467.78547
  23667317.273 4   -854501.867 4   -636593.23048  23667317.86348
  21889721.781 6    418495.656 6    305572.69547  21889718.86347
  20588312.617 6   -202293.434 6   -149315.20748  20588308.65248
  21063912.172 6    110475.188 6     81174.38749  21063912.09849
  21337228.430 6   -853084.566 6   -623155.25049  21337227.23049
  21709506.086 6     -7474.086 6    -15689.50849  21709502.84049
  23955567.180 5    489588.832 5    363077.37946  23955568.02046
 20  5 16  0  6 26.0000000  0  9G03G04G08G14G16G26G27G31G32         -0.000169556
  24334958.500 3    117201.527 3     78941.47347  24334959.22347
  22640774.539 6   -740624.320 6   -529770.08247  22640772.77747
  23666425.336 4   -859190.824 4   -640246.96548  23666425.16848
  21890086.734 6    420412.488 6    307066.32847  21890083.99647
  20588141.352 6   -203193.375 6   -150016.45748  20588136.99248
  21064007.078 6    110975.063 6     81563.90249  21064007.35549
  21336501.781 6   -856904.445 6   -626131.78149  21336500.21549
  21709489.031 6     -7563.707 6    -15759.33649  21709486.10949
  23956079.898 5    492282.586 5    365176.39846  23956080.86746
 20  5 16  0  6 27.0000000  0  9G03G04G08G14G16G26G27G31G32         -0.000170177
  24335068.531 3    117778.090 3     79390.74247  24335068.78147
  22640079.953 5   -744275.250 5   -532614.96147  22640078.25047
  23665532.680 4   -863879.754 4   -643900.68048  23665533.07048
  21890451.086 6    422329.641 6    308560.20347  21890448.51647
  20587969.805 6   -204093.047 6   -150717.50848  20587965.76248
  21064102.195 6    111474.980 6     81953.44549  21064102.44549
  21335774.742 6   -860723.988 6   -629108.04349  21335773.55949
  21709471.922 6     -7653.219 6    -15829.09049  21709468.84049
  23956592.477 5    494976.402 5    367275.46146  23956593.60246
 20  5 16  0  6 28.0000000  0  9G03G04G08G14G16G26G27G31G32         -0.000170797
  24335178.156 3    118354.754 3     79840.08247  24335178.92647
  22639385.180 5   -747925.875 5   -535459.60247  22639383.50847
  23664640.875 4   -868568.602 4   -647554.32848  23664640.98048
  21890816.266 6    424247.090 6    310054.31347  21890813.37547
  20587798.992 6   -204992.434 6   -151418.32448  20587794.35948
  21064197.461 6    111974.977 6     82343.05149  21064197.69549
  21335047.867 6   -864543.137 6   -632084.00449  21335046.94949
  21709455.102 6     -7742.586 6    -15898.73049  21709451.75849
  23957104.484 5    497670.227 5    369374.53946  23957106.02746
 20  5 16  0  6 29.0000000  0  9G03G04G08G14G16G26G27G31G32         -0.000171417
  24335288.281 3    118931.641 3     80289.60247  24335288.57447
  22638690.750 6   -751576.109 6   -538303.94147  22638689.00447
  23663747.852 4   -873257.289 4   -651207.85548  23663748.05148
  21891181.203 6    426164.918 6    311548.72347  21891178.67247
  20587627.609 6   -205891.441 6   -152118.84448  20587623.84448
  21064292.867 6    112475.113 6     82732.76649  21064292.85249
  21334321.563 6   -868361.836 6   -635059.61749  21334320.01249
  21709438.211 6     -7831.738 6    -15968.19549  21709434.78949
  23957617.672 5    500364.125 5    371473.67246  23957618.58646
 20  5 16  0  6 30.0000000  0  9G03G04G08G14G16G26G27G31G32         -0.000172037
  24335398.070 3    119508.719 3     80739.27347  24335398.60247
  22637996.055 6   -755226.047 6   -541148.05547  22637994.00047
  23662855.766 4   -877945.953 4   -654861.35548  23662856.07848
  21891545.891 6    428083.043 6    313043.36747  21891543.44547
  20587456.414 6   -206790.188 6   -152819.16448  20587452.55148
  21064387.953 6    112975.320 6     83122.53549  21064388.20349
  21333594.563 6   -872180.164 6   -638034.94149  21333593.57049
  21709421.102 6     -7920.750 6    -16037.56349  21709417.94549
  23958129.602 4    503058.113 4    373572.87946  23958131.16846
 20  5 16  0  6 31.0000000  0  9G03G04G08G14G16G26G27G31G32         -0.000172659
  24335507.727 3    120085.934 3     81189.04347  24335508.26247
  22637301.703 5   -758875.660 5   -543991.90647  22637299.59447
  23661963.898 4   -882634.531 4   -658514.78548  23661964.18448
  21891911.172 6    430001.500 6    314538.26647  21891908.74247
  20587285.859 6   -207688.629 6   -153519.25048  20587281.93448
  21064483.305 6    113475.594 6     83512.36349  21064483.27749
  21332868.023 6   -875998.113 6   -641009.96149  21332866.86349
  21709404.180 6     -8009.641 6    -16106.82449  21709400.91849
  23958642.656 4    505752.055 4    375672.04346  23958644.00046
 20  5 16  0  6 32.0000000  0  9G03G04G08G14G16G26G27G31G32         -0.000173279
  24335617.797 3    120663.250 3     81638.89847  24335618.16047
  22636607.289 5   -762525.023 5   -546835.57047  22636605.35947
  23661071.523 4   -887323.098 4   -662168.21148  23661071.99248
  21892276.398 6    431920.184 6    316033.34847  21892273.68047
  20587114.805 6   -208586.828 6   -154219.14548  20587110.75048
  21064578.375 6    113975.867 6     83902.18449  21064578.71549
  21332141.734 6   -879815.742 6   -643984.74249  21332140.57449
  21709387.477 6     -8098.414 6    -16176.00049  21709384.05549
  23959155.742 5    508446.012 5    377771.23046  23959156.57046
 20  5 16  0  6 33.0000000  0  9G03G04G08G14G16G26G27G31G32         -0.000173899
  24335727.656 3    121240.703 3     82088.86747  24335727.91847
  22635912.633 6   -766174.039 6   -549678.96147  22635910.92247
  23660178.938 4   -892011.563 4   -665821.55948  23660179.72348
  21892641.945 6    433839.227 6    317528.69947  21892639.19147
  20586944.008 6   -209484.723 6   -154918.80148  20586939.98448
  21064673.688 6    114476.227 6     84292.07049  21064673.14149
  21331415.273 6   -883632.969 6   -646959.20349  21331414.16849
  21709370.898 6     -8187.027 6    -16245.04749  21709367.14849
  23959668.000 5    511139.973 5    379870.42646  23959669.06646
 20  5 16  0  6 34.0000000  0  9G03G04G08G14G16G26G27G31G32         -0.000174520
  24335837.211 3    121818.277 3     82538.92647  24335837.92247
  22635218.469 5   -769822.762 5   -552522.12147  22635216.76647
  23659287.461 4   -896699.957 4   -669474.85548  23659287.82048
  21893006.961 6    435758.535 6    319024.26647  21893004.12547
  20586772.766 6   -210382.320 6   -155618.23448  20586769.05148
  21064768.578 6    114976.672 6     84682.03149  21064768.71549
  21330689.250 6   -887449.813 6   -649933.37149  21330687.59449
  21709353.805 6     -8275.492 6    -16313.98849  21709350.33649
  23960181.008 5    513833.977 5    381969.66046  23960181.64546
 20  5 16  0  6 35.0000000  0  9G03G04G08G14G16G26G27G31G32         -0.000175140
  24335947.477 3    122395.957 3     82989.07047  24335947.41847
  22634524.047 5   -773471.293 5   -555365.13347  22634522.72747
  23658394.898 4   -901388.418 4   -673128.21548  23658395.65648
  21893372.156 6    437678.082 6    320520.00847  21893369.01647
  20586602.484 6   -211279.781 6   -156317.55548  20586598.42248
  21064863.891 6    115477.059 6     85071.94149  21064863.96149
  21329962.750 6   -891266.398 6   -652907.33249  21329961.27349
  21709336.984 6     -8363.941 6    -16382.91049  21709333.68049
  23960693.289 5    516527.902 5    384068.80946  23960694.67646
 20  5 16  0  6 36.0000000  0  9G03G04G08G14G16G26G27G31G32         -0.000175762
  24336057.172 3    122973.777 3     83439.31347  24336057.62547
  22633829.742 5   -777119.465 5   -558207.86747  22633828.11747
  23657502.641 4   -906076.820 4   -676781.52048  23657503.14848
  21893737.563 6    439597.961 6    322016.02047  21893734.64847
  20586431.867 6   -212176.883 6   -157016.59848  20586427.58648
  21064959.227 6    115977.520 6     85461.91049  21064959.08249
  21329236.992 6   -895082.563 6   -655880.96549  21329235.28149
  21709320.188 6     -8452.223 6    -16451.69949  21709316.45749
  23961205.734 5    519221.879 5    386168.00446  23961207.07046
 20  5 16  0  6 37.0000000  0  9G03G04G08G14G16G26G27G31G32         -0.000176382
  24336167.453 4    123551.742 4     83889.67647  24336167.59047
  22633135.594 5   -780767.316 5   -561050.34847  22633134.27747
  23656610.688 4   -910765.121 4   -680434.74648  23656611.33248
  21894103.109 6    441518.117 6    323512.24247  21894100.14147
  20586261.234 6   -213073.695 6   -157715.41448  20586257.31648
  21065054.602 6    116478.078 6     85851.95349  21065054.39849
  21328510.453 6   -898898.352 6   -658854.30949  21328509.04749
  21709303.406 6     -8540.352 6    -16520.37149  21709299.85949
  23961718.719 4    521915.840 4    388267.18846  23961719.91446
 20  5 16  0  6 38.0000000  0  9G03G04G08G14G16G26G27G31G32         -0.000177004
  24336277.094 3    124129.824 3     84340.12547  24336277.47347
  22632441.602 5   -784414.891 5   -563892.60247  22632439.80947
  23655718.078 4   -915453.434 4   -684087.97348  23655718.99248
  21894468.805 6    443438.539 6    325008.68447  21894465.44947
  20586090.297 6   -213970.273 6   -158414.03948  20586086.34848
  21065149.789 6    116978.652 6     86242.01249  21065149.34849
  21327784.352 6   -902713.805 6   -661827.39149  21327783.19949
  21709286.203 6     -8628.406 6    -16588.98849  21709283.28949
  23962231.398 5    524609.813 5    390366.38346  23962232.10246
 20  5 16  0  6 39.0000000  0  9G03G04G08G14G16G26G27G31G32         -0.000177624
  24336387.539 3    124707.910 3     84790.57847  24336387.55547
  22631747.648 5   -788062.277 5   -566734.71547  22631745.44147
  23654826.695 4   -920141.785 4   -687741.23048  23654826.75448
  21894833.992 6    445359.188 6    326505.28947  21894830.46147
  20585919.547 6   -214866.660 6   -159112.52748  20585915.92248
  21065245.156 6    117479.188 6     86632.03549  21065244.89849
  21327058.367 6   -906528.980 6   -664800.25449  21327056.93049
  21709269.711 6     -8716.414 6    -16657.56649  21709266.24249
  23962744.516 5    527303.723 5    392465.53946  23962744.84446
 20  5 16  0  6 40.0000000  0  9G03G04G08G14G16G26G27G31G32         -0.000178246
  24336497.516 4    125286.215 4     85241.19547  24336497.76647
  22631053.477 5   -791709.313 5   -569576.56347  22631052.02347
  23653934.094 4   -924830.000 4   -691394.37948  23653934.84848
  21895199.492 6    447280.188 6    328002.17247  21895196.50447
  20585749.359 6   -215762.715 6   -159810.75048  20585745.54348
  21065340.398 6    117979.840 6     87022.16049  21065340.15249
  21326332.500 6   -910343.734 6   -667772.78549  21326331.52349
  21709253.117 6     -8804.242 6    -16726.00049  21709249.85549
  23963256.430 4    529997.680 4    394564.73046  23963257.69146
 20  5 16  0  6 41.0000000  0  9G03G04G08G14G16G26G27G31G32         -0.000178865
  24336607.820 4    125864.793 4     85692.04347  24336607.75447
  22630359.867 5   -795355.902 5   -572418.06647  22630357.82047
  23653041.688 4   -929518.059 4   -695047.39848  23653042.82848
  21895565.219 6    449201.617 6    329499.39147  21895562.09047
  20585578.875 6   -216658.363 6   -160508.65648  20585574.70348
  21065435.781 6    118480.676 6     87412.41449  21065435.68849
  21325606.711 6   -914157.984 6   -670744.93449  21325605.55949
  21709236.055 6     -8891.813 6    -16794.24249  21709233.09049
  23963769.344 5    532691.793 5    396664.03146  23963770.36746
 20  5 16  0  6 42.0000000  0  9G03G04G08G14G16G26G27G31G32         -0.000179487
  24336718.109 4    126443.496 4     86142.98047  24336717.84847
  22629665.797 5   -799002.188 5   -575259.32847  22629664.16047
  23652150.227 4   -934206.047 4   -698700.37948  23652150.60248
  21895930.469 6    451123.340 6    330996.83647  21895927.93047
  20585408.172 6   -217553.719 6   -161206.33648  20585404.22348
  21065530.578 6    118981.559 6     87802.71549  21065530.91849
  21324880.836 6   -917971.867 6   -673716.78949  21324879.77349
  21709219.625 6     -8979.254 6    -16862.37149  21709216.45749
  23964281.984 5    535385.938 5    398763.36346  23964283.07846
 20  5 16  0  6 43.0000000  0  9G03G04G08G14G16G26G27G31G32         -0.000180109
  24336827.758 4    127022.355 4     86594.04347  24336828.05147
  22628972.078 5   -802648.125 5   -578100.32847  22628970.16047
  23651257.859 4   -938893.930 4   -702353.27748  23651258.02048
  21896296.266 6    453045.410 6    332494.55147  21896293.39547
  20585238.516 6   -218448.766 6   -161903.77348  20585234.19148
  21065626.344 6    119482.535 6     88193.08249  21065626.22349
  21324155.203 6   -921785.328 6   -676688.31349  21324153.86349
  21709202.852 6     -9066.520 6    -16930.37549  21709199.65249
  23964795.086 5    538080.070 5    400862.68846  23964795.91446
 20  5 16  0  6 44.0000000  0 10G03G04G08G14G16G18G26G27G31G32      -0.000180729
  24336937.805 4    127601.383 4     87045.22747  24336938.25847
  22628278.266 5   -806293.734 5   -580941.05947  22628276.61347
  23650366.078 4   -943581.758 4   -706006.13348  23650366.52048
  21896662.648 6    454967.773 6    333992.49247  21896659.41847
  20585067.914 6   -219343.516 6   -162600.98448  20585063.64148
  24827110.25013   -298328.87913   -214047.96155  24827108.91055
  21065721.414 6    119983.586 6     88583.51249  21065721.68049
  21323429.578 6   -925598.418 6   -679659.55549  21323428.54749
  21709186.477 6     -9153.645 6    -16998.26649  21709182.94149
  23965307.117 5    540774.305 5    402962.08646  23965308.83646
 20  5 16  0  6 45.0000000  0 10G03G04G08G14G16G18G26G27G31G32      -0.000181351
  24337048.898 4    128180.563 4     87496.53947  24337048.39147
  22627584.445 5   -809939.059 5   -583781.56647  22627582.88747
  23649474.078 4   -948269.504 4   -709658.92248  23649474.03548
  21897028.453 6    456890.461 6    335490.68847  21897025.35547
  20584897.648 6   -220238.004 6   -163297.98848  20584893.43848
  24826751.055 3   -300219.699 3   -215521.33646  24826749.57046
  21065816.977 6    120484.695 6     88973.98849  21065817.02049
  21322704.211 6   -929411.137 6   -682630.51249  21322702.71149
  21709170.164 6     -9240.621 6    -17066.03949  21709166.77049
  23965819.859 4    543468.523 4    405061.46546  23965821.23846
 20  5 16  0  6 46.0000000  0 10G03G04G08G14G16G18G26G27G31G32      -0.000181973
  24337158.727 4    128759.883 4     87947.95747  24337158.63747
  22626890.836 5   -813584.066 5   -586621.82847  22626889.34847
  23648581.695 4   -952957.180 4   -713311.66048  23648581.91848
  21897393.828 6    458813.441 6    336989.12147  21897390.84847
  20584727.680 6   -221132.184 6   -163994.75048  20584723.48048
  24826390.766 3   -302110.320 3   -216994.55946  24826389.42646
  21065912.125 6    120985.879 6     89364.51649  21065911.99249
  21321978.297 6   -933223.461 6   -685601.15249  21321977.07049
  21709153.789 6     -9327.488 6    -17133.73849  21709150.03149
  23966332.375 5    546162.750 5    407160.86746  23966333.45746
 20  5 16  0  6 47.0000000  0 10G03G04G08G14G16G18G26G27G31G32      -0.000182594
  24337269.461 4    129339.184 4     88399.35547  24337268.78547
  22626197.563 5   -817228.844 5   -589461.92247  22626195.66047
  23647689.594 4   -957644.910 4   -716964.43848  23647689.80148
  21897760.578 6    460736.629 6    338487.70747  21897757.12547
  20584557.281 6   -222026.199 6   -164691.39148  20584553.28548
  24826031.898 3   -304000.820 3   -218467.68846  24826030.13346
  21066007.594 6    121487.023 6     89755.02349  21066007.44149
  21321252.852 6   -937035.531 6   -688571.60249  21321251.56349
  21709137.180 6     -9414.305 6    -17201.38349  21709133.69949
  23966845.063 5    548856.910 5    409260.19146  23966845.97346
 20  5 16  0  6 48.0000000  0 10G03G04G08G14G16G18G26G27G31G32      -0.000183214
  24337378.742 4    129918.809 4     88851.01647  24337379.15247
  22625503.773 5   -820873.211 5   -592301.69547  22625502.30947
  23646797.492 4   -962332.449 4   -720617.07048  23646797.56648
  21898126.242 6    462660.242 6    339986.62947  21898123.07447
  20584387.219 6   -222919.809 6   -165387.70748  20584382.98448
  24825672.227 4   -305890.883 4   -219940.47745  24825669.64845
  21066103.086 6    121988.328 6     90145.64149  21066102.64849
  21320528.141 6   -940847.094 6   -691541.65249  21320526.59049
  21709120.641 6     -9500.859 6    -17268.83249  21709117.25449
  23967357.938 5    551551.207 5    411359.64146  23967358.99246
 20  5 16  0  6 49.0000000  0 10G03G04G08G14G16G18G26G27G31G32      -0.000183836
  24337489.695 3    130498.418 3     89302.65647  24337489.37147
  22624810.383 5   -824517.438 5   -595141.35247  22624808.43847
  23645905.375 4   -967020.090 4   -724269.76648  23645905.72748
  21898492.289 6    464583.984 6    341485.65247  21898488.96947
  20584217.094 6   -223813.281 6   -166083.92248  20584213.18448
  24825311.648 3   -307780.840 3   -221413.12945  24825310.22745
  21066198.281 6    122489.551 6     90536.20749  21066198.23049
  21319802.453 6   -944658.426 6   -694511.52349  21319800.95749
  21709104.242 6     -9587.445 6    -17336.30149  21709100.75049
  23967870.695 5    554245.355 5    413458.98046  23967871.88746
 20  5 16  0  6 50.0000000  0 10G03G04G08G14G16G18G26G27G31G32      -0.000184458
  24337599.500 3    131078.121 3     89754.37147  24337599.71947
  22624116.930 5   -828161.344 5   -597980.76247  22624115.18047
  23645013.883 4   -971707.668 4   -727922.41848  23645013.89548
  21898858.500 6    466508.047 6    342984.91447  21898854.97747
  20584047.000 6   -224706.480 6   -166779.92648  20584043.44148
  24824951.391 3   -309670.547 3   -222885.60545  24824951.03545
  21066294.070 6    122990.820 6     90926.80949  21066293.61349
  21319077.438 6   -948469.402 6   -697481.10949  21319076.23849
  21709087.820 6     -9673.895 6    -17403.66449  21709084.23049
  23968383.508 5    556939.539 5    415558.35946  23968384.66046
 20  5 16  0  6 51.0000000  0 10G03G04G08G14G16G18G26G27G31G32      -0.000185080
  24337710.250 3    131658.016 3     90206.23447  24337710.12147
  22623423.461 5   -831804.961 5   -600819.94547  22623421.59847
  23644121.211 4   -976395.242 4   -731575.06648  23644121.71548
  21899224.836 6    468432.395 6    344484.39847  21899221.49647
  20583877.180 6   -225599.391 6   -167475.69948  20583873.60248
  24824593.297 3   -311560.016 3   -224357.92245  24824591.30145
  21066388.992 6    123492.152 6     91317.45349  21066389.27749
  21318352.422 6   -952280.012 6   -700450.41449  21318350.94549
  21709071.414 6     -9760.223 6    -17470.93049  21709067.97349
  23968896.609 5    559633.695 5    417657.69146  23968897.01246
 20  5 16  0  6 52.0000000  0 10G03G04G08G14G16G18G26G27G31G32      -0.000185701
  24337820.328 3    132238.051 3     90658.20747  24337820.51247
  22622730.570 5   -835448.168 5   -603658.80147  22622728.45747
  23643230.211 4   -981082.605 4   -735227.55948  23643229.71948
  21899590.734 6    470357.129 6    345984.19147  21899587.44947
  20583707.773 6   -226491.965 6   -168171.21548  20583703.47348
  24824233.523 3   -313449.141 3   -225829.99645  24824231.98045
  21066484.805 6    123993.629 6     91708.22349  21066484.39549
  21317626.938 6   -956090.180 6   -703419.37549  21317625.57049
  21709054.656 6     -9846.328 6    -17538.03149  21709051.33249
  23969408.828 5    562328.004 5    419757.15646  23969409.78146
 20  5 16  0  6 53.0000000  0 10G03G04G08G14G16G18G26G27G31G32      -0.000186323
  24337931.102 3    132818.262 3     91110.32047  24337931.14147
  22622037.000 6   -839091.094 6   -606497.44947  22622035.23447
  23642337.219 4   -985769.953 4   -738880.03948  23642338.04348
  21899957.438 6    472282.133 6    347484.19547  21899953.89847
  20583537.734 6   -227384.262 6   -168866.51248  20583533.72348
  24823873.609 3   -315338.090 3   -227301.89845  24823872.46145
  21066580.391 6    124495.141 6     92099.01249  21066580.03149
  21316902.117 6   -959899.961 6   -706388.03949  21316901.01649
  21709038.578 6     -9932.332 6    -17605.05149  21709035.05549
  23969922.164 5    565022.227 5    421856.54746  23969922.78546
 20  5 16  0  6 54.0000000  0 10G03G04G08G14G16G18G26G27G31G32      -0.000186945
  24338040.883 3    133398.559 3     91562.49647  24338041.52047
  22621343.398 6   -842733.766 6   -609335.89147  22621342.54347
  23641445.477 4   -990457.297 4   -742532.52048  23641446.06348
  21900323.430 6    474207.383 6    348984.39547  21900320.32447
  20583368.195 6   -228276.344 6   -169561.64548  20583364.20348
  24823515.031 3   -317226.797 3   -228773.61345  24823512.87945
  21066675.578 6    124996.645 6     92489.79349  21066675.30549
  21316177.391 6   -963709.445 6   -709356.47349  21316175.91849
  21709022.148 6    -10018.246 6    -17671.99649  21709018.89549
  23970434.727 5    567716.477 5    423955.95346  23970435.54746
 20  5 16  0  6 55.0000000  0 10G03G04G08G14G16G18G26G27G31G32      -0.000187567
  24338151.727 3    133978.988 3     92014.77347  24338151.81347
  22620650.859 5   -846376.121 5   -612174.09047  22620648.80947
  23640553.297 4   -995144.523 4   -746184.90648  23640554.21148
  21900689.930 6    476132.984 6    350484.86747  21900686.84447
  20583198.609 6   -229168.113 6   -170256.52348  20583194.43048
  24823154.914 3   -319115.180 3   -230245.09045  24823153.29745
  21066771.094 6    125498.254 6     92880.65649  21066770.81349
  21315452.281 6   -967518.516 6   -712324.57849  21315451.12149
  21709005.531 6    -10104.000 6    -17738.81649  21709002.31649
  23970946.914 5    570410.758 5    426055.38746  23970947.90246
 20  5 16  0  6 56.0000000  0 10G03G04G08G14G16G18G26G27G31G32      -0.000188189
  24338262.047 3    134559.508 3     92467.12547  24338262.26247
  22619957.961 5   -850018.207 5   -615012.07847  22619955.90247
  23639661.750 4   -999831.766 4   -749837.30548  23639662.28948
  21901056.352 6    478058.809 6    351985.50847  21901052.91447
  20583028.727 6   -230059.645 6   -170951.22348  20583024.41848
  24822795.609 3   -321003.445 3   -231716.45745  24822794.30545
  21066866.625 6    125999.848 6     93271.50449  21066866.49249
  21314727.859 6   -971327.270 6   -715292.43849  21314726.34449
  21708989.555 6    -10189.684 6    -17805.59049  21708986.05549
  23971460.383 5    573104.988 5    428154.78146  23971460.93046
 20  5 16  0  6 57.0000000  0 10G03G04G08G14G16G18G26G27G31G32      -0.000188810
  24338372.570 3    135140.195 3     92919.60247  24338372.68847
  22619265.094 5   -853659.977 5   -617849.81347  22619262.98447
  23638769.766 4  -1004518.918 4   -753489.62148  23638770.41448
  21901422.578 6    479984.965 6    353486.39847  21901419.69947
  20582859.313 6   -230950.879 6   -171645.69548  20582855.07048
  24822435.883 3   -322891.379 3   -233187.56345  24822435.42245
  21066961.961 6    126501.516 6     93662.41849  21066961.98449
  21314003.070 6   -975135.605 6   -718259.97349  21314001.86349
  21708972.938 6    -10275.199 6    -17872.22349  21708969.99649
  23971972.859 5    575799.273 5    430254.22746  23971973.16046
 20  5 16  0  6 58.0000000  0 10G03G04G08G14G16G18G26G27G31G32      -0.000189432
  24338483.109 3    135721.023 3     93372.19547  24338483.61747
  22618571.875 6   -857301.441 6   -620687.32047  22618570.33247
  23637878.289 4  -1009206.055 4   -757141.93848  23637878.23848
  21901789.180 6    481911.406 6    354987.52747  21901786.58247
  20582689.578 6   -231841.848 6   -172339.95748  20582685.49248
  24822076.531 3   -324779.105 3   -234658.53545  24822076.00845
  21067057.633 6    127003.258 6     94053.37949  21067057.73049
  21313278.305 6   -978943.629 6   -721227.26649  21313277.19549
  21708956.820 6    -10360.617 6    -17938.78549  21708953.44549
  23972485.586 5    578493.539 5    432353.65246  23972485.82046
 20  5 16  0  6 59.0000000  0 10G03G04G08G14G16G18G26G27G31G32      -0.000190054
  24338593.688 3    136302.141 3     93825.00847  24338593.98847
  22617878.852 5   -860942.406 5   -623524.44147  22617877.11747
  23636986.180 4  -1013892.945 4   -760794.05148  23636986.21148
  21902155.711 6    483838.316 6    356489.01247  21902153.07047
  20582519.898 6   -232732.367 6   -173033.86748  20582516.08648
  24821718.234 3   -326666.359 3   -236129.12945  24821717.01645
  21067153.016 6    127505.215 6     94444.52049  21067152.82849
  21312553.648 6   -982751.086 6   -724194.11349  21312552.38749
  21708940.750 6    -10445.723 6    -18005.09849  21708937.05549
  23972998.094 5    581188.012 5    434453.23846  23972998.17246
 20  5 16  0  7  0.0000000  0 10G03G04G08G14G16G18G26G27G31G32      -0.000190676
  24338704.461 3    136883.379 3     94277.92647  24338704.94147
  22617186.289 5   -864583.066 5   -626361.31647  22617184.41047
  23636094.180 4  -1018579.777 4   -764446.12148  23636094.31648
  21902522.852 6    485765.566 6    357990.76247  21902519.80147
  20582350.523 6   -233622.586 6   -173727.54748  20582346.73848
  24821358.156 3   -328553.371 3   -237599.52745  24821357.64145
  21067248.492 6    128007.242 6     94835.71149  21067248.69149
  21311829.547 6   -986558.121 6   -727160.63749  21311827.97349
  21708924.602 6    -10530.660 6    -18071.29349  21708921.21149
  23973510.375 5    583882.504 5    436552.84446  23973511.40646
 20  5 16  0  7  1.0000000  0 10G03G04G08G14G16G18G26G27G31G32      -0.000191299
  24338815.148 3    137464.746 3     94730.93847  24338815.08647
  22616493.344 5   -868223.512 5   -629198.03947  22616491.50847
  23635201.922 4  -1023266.637 4   -768098.21948  23635202.42648
  21902889.695 6    487692.988 6    359492.64847  21902886.95747
  20582181.102 6   -234512.621 6   -174421.08648  20582177.37548
  24820999.391 3   -330440.234 3   -239069.82445  24820998.38745
  21067343.930 6    128509.238 6     95226.87149  21067343.93849
  21311105.094 6   -990364.906 6   -730126.96149  21311103.70749
  21708908.742 6    -10615.578 6    -18137.45749  21708904.94549
  23974023.234 5    586576.941 5    438652.39546  23974023.78946
 20  5 16  0  7  2.0000000  0 10G03G04G08G14G16G18G26G27G31G32      -0.000191921
  24338926.078 3    138046.023 3     95183.87547  24338926.13747
  22615800.711 5   -871863.789 5   -632034.61347  22615798.85547
  23634310.508 4  -1027953.578 4   -771750.38348  23634310.96548
  21903256.367 6    489620.586 6    360994.66847  21903253.32047
  20582012.008 6   -235402.539 6   -175114.52748  20582008.02748
  24820640.180 3   -332326.988 3   -240540.01245  24820639.71945
  21067439.148 6    129011.121 6     95617.94949  21067439.17249
  21310380.930 6   -994171.465 6   -733093.10549  21310379.51649
  21708892.797 6    -10700.516 6    -18203.64549  21708889.31349
  23974535.656 5    589271.203 5    440751.82446  23974536.94146
 20  5 16  0  7  3.0000000  0 10G03G04G08G14G16G18G26G27G31G32      -0.000192543
  24339036.414 3    138627.441 3     95636.93047  24339036.77747
  22615107.906 5   -875503.730 5   -634870.92647  22615105.81647
  23633418.289 4  -1032640.398 4   -775402.44548  23633418.94948
  21903622.992 6    491548.504 6    362496.94147  21903620.02747
  20581842.484 6   -236292.141 6   -175807.72348  20581838.80948
  24820281.641 3   -334213.410 3   -242009.94545  24820280.60545
  21067534.891 6    129513.141 6     96009.12549  21067534.89149
  21309656.125 6   -997977.602 6   -736058.93449  21309655.07049
  21708876.117 6    -10785.270 6    -18269.68449  21708872.86749
  23975049.055 5    591965.523 5    442851.29346  23975049.30946
 20  5 16  0  7  4.0000000  0 10G03G04G08G14G16G18G26G27G31G32      -0.000193165
  24339146.969 3    139209.195 3     96090.24647  24339147.21547
  22614415.539 5   -879143.277 5   -637706.93847  22614413.78547
  23632526.648 4  -1037327.055 4   -779054.38748  23632526.35948
  21903990.313 6    493476.844 6    363999.53947  21903987.27347
  20581673.586 6   -237181.324 6   -176500.59048  20581669.57848
  24819923.000 3   -336099.527 3   -243479.62545  24819922.10245
  21067630.523 6    130015.309 6     96400.42249  21067630.53949
  21308932.359 6  -1001783.266 6   -739024.38749  21308930.87149
  21708860.406 6    -10869.789 6    -18335.54349  21708856.45749
  23975561.547 5    594659.977 5    444950.87946  23975562.03946
 20  5 16  0  7  5.0000000  0 10G03G04G08G14G16G18G26G27G31G32      -0.000193787
  24339257.719 4    139791.082 4     96543.66447  24339258.12947
  22613722.727 5   -882782.457 5   -640542.66047  22613721.22347
  23631634.898 4  -1042013.645 4   -782706.27348  23631635.01248
  21904357.805 6    495405.496 6    365502.38747  21904354.49647
  20581504.336 6   -238070.195 6   -177193.21548  20581500.25048
  24819563.703 3   -337985.328 3   -244949.08245  24819563.10945
  21067726.063 6    130517.551 6     96791.77749  21067725.79749
  21308207.961 6  -1005588.504 6   -741989.50449  21308207.09449
  21708844.406 6    -10954.148 6    -18401.28149  21708840.90249
  23976074.391 5    597354.477 5    447050.48446  23976074.66446
 20  5 16  0  7  6.0000000  0 10G03G04G08G14G16G18G26G27G31G32      -0.000194410
  24339368.266 4    140373.074 4     96997.16447  24339368.47747
  22613030.016 5   -886421.332 5   -643378.14547  22613028.62147
  23630743.359 4  -1046700.176 4   -786358.11748  23630743.04748
  21904724.586 6    497334.441 6    367005.45747  21904721.25047
  20581335.141 6   -238958.801 6   -177885.63748  20581331.04748
  24819204.555 3   -339870.887 3   -246418.35545  24819203.95345
  21067821.422 6    131019.859 6     97183.18449  21067821.50049
  21307483.938 6  -1009393.391 6   -744954.35249  21307482.90249
  21708828.125 6    -11038.379 6    -18466.91449  21708824.56649
  23976587.109 5    600049.020 5    449150.12146  23976587.73046
 20  5 16  0  7  7.0000000  0 10G03G04G08G14G16G18G26G27G31G32      -0.000195032
  24339480.125 4    140955.266 4     97450.82047  24339479.50047
  22612337.477 5   -890059.863 5   -646213.36347  22612336.28947
  23629851.719 4  -1051386.555 4   -790009.84848  23629851.43848
  21905091.930 6    499263.738 6    368508.80547  21905088.55547
  20581166.172 6   -239847.090 6   -178577.80948  20581161.87548
  24818846.180 3   -341756.133 3   -247887.36345  24818845.25845
  21067917.117 6    131522.266 6     97574.67249  21067917.20349
  21306760.039 6  -1013197.855 6   -747918.87149  21306758.83649
  21708812.219 6    -11122.410 6    -18532.39149  21708808.55149
  23977100.406 5    602743.502 5    451249.71346  23977100.60246
 20  5 16  0  7  8.0000000  0 10G03G04G08G14G16G18G26G27G31G32      -0.000195656
  24339589.844 4    141537.609 4     97904.59447  24339590.55147
  22611645.383 5   -893698.055 5   -649048.32847  22611644.17247
  23628959.688 4  -1056072.937 4   -793661.58048  23628959.47748
  21905458.930 6    501193.355 6    370012.40247  21905455.64547
  20580997.148 6   -240735.066 6   -179269.73848  20580993.07048
  24818488.125 3   -343641.152 3   -249356.21545  24818486.75845
  21068012.953 6    132024.758 6     97966.22349  21068012.94949
  21306036.086 6  -1017001.914 6   -750883.07449  21306034.95749
  21708796.313 6    -11206.313 6    -18597.77349  21708792.68049
  23977612.680 5    605438.137 5    453349.41846  23977613.24246
 20  5 16  0  7  9.0000000  0 10G03G04G08G14G16G18G26G27G31G32      -0.000196278
  24339700.789 4    142120.129 4     98358.50447  24339701.21147
  22610953.313 5   -897335.902 5   -651883.01247  22610951.78147
  23628068.148 4  -1060759.113 4   -797313.15248  23628067.72748
  21905825.797 6    503123.316 6    371516.27047  21905822.63747
  20580828.188 6   -241622.699 6   -179961.41048  20580824.49248
  24818129.008 3   -345525.773 3   -250824.75845  24818128.06345
  21068108.625 6    132527.359 6     98357.85949  21068108.63749
  21305312.383 6  -1020805.559 6   -753846.95349  21305311.12549
  21708780.359 6    -11290.023 6    -18662.99649  21708776.48849
  23978125.648 5    608132.809 5    455449.16046  23978125.84046
 20  5 16  0  7 10.0000000  0 10G03G04G08G14G16G18G26G27G31G32      -0.000196899
  24339811.797 4    142702.641 4     98812.40647  24339811.57047
  22610261.305 5   -900973.613 5   -654717.58247  22610259.55147
  23627175.828 4  -1065445.512 4   -800964.88748  23627175.93048
  21906193.414 6    505053.375 6    373020.21147  21906190.38747
  20580659.156 6   -242510.273 6   -180653.02348  20580655.50448
  24817769.750 3   -347410.406 3   -252293.31345  24817769.46545
  21068204.344 6    133029.785 6     98749.35949  21068204.35249
  21304588.648 6  -1024609.016 6   -756810.68449  21304587.09449
  21708764.133 6    -11373.789 6    -18728.27749  21708760.73849
  23978637.953 5    610827.297 5    457548.76646  23978638.76646
 20  5 16  0  7 11.0000000  0 10G03G04G08G14G16G18G26G27G31G32      -0.000197523
  24339922.383 4    143285.281 4     99266.40647  24339922.31647
  22609569.258 5   -904610.992 5   -657551.91047  22609567.15247
  23626283.945 4  -1070131.785 4   -804616.53148  23626284.24648
  21906560.719 6    506983.773 6    374524.41447  21906557.91847
  20580490.461 6   -243397.535 6   -181344.39548  20580486.38748
  24817412.070 3   -349294.734 3   -253761.62145  24817410.73445
  21068299.750 6    133532.340 6     99140.95749  21068299.77749
  21303865.164 6  -1028412.078 6   -759774.10949  21303863.75049
  21708748.344 6    -11457.391 6    -18793.42249  21708744.74249
  23979150.711 5    613521.809 5    459648.38346  23979151.62546
 20  5 16  0  7 12.0000000  0 10G03G04G08G14G16G18G26G27G31G32      -0.000198145
  24340033.664 4    143868.086 4     99720.54347  24340033.52347
  22608876.133 5   -908248.090 5   -660386.01247  22608875.15647
  23625392.523 4  -1074817.988 4   -808268.10948  23625392.57848
  21906928.039 6    508914.465 6    376028.85547  21906925.06647
  20580321.508 6   -244284.508 6   -182035.54348  20580317.82048
  24817054.102 3   -351178.793 3   -255229.71945  24817052.21945
  21068395.289 6    134034.941 6     99532.59849  21068395.17249
  21303141.578 6  -1032214.750 6   -762737.23049  21303139.85249
  21708731.992 6    -11540.855 6    -18858.45349  21708728.69149
  23979663.641 5    616216.332 5    461748.00846  23979664.34846
 20  5 16  0  7 13.0000000  0 10G03G04G08G14G16G18G26G27G31G32      -0.000198769
  24340144.328 4    144450.992 4    100174.75847  24340144.44947
  22608184.938 5   -911884.820 5   -663219.82847  22608183.24647
  23624500.469 4  -1079504.074 4   -811919.59848  23624500.64848
  21907295.930 6    510845.500 6    377533.55147  21907292.54347
  20580153.109 6   -245171.164 6   -182726.44548  20580148.91448
  24816694.758 4   -353062.605 4   -256697.63346  24816693.78146
  21068491.180 6    134537.645 6     99924.30949  21068491.27749
  21302417.766 6  -1036017.000 6   -765700.02349  21302416.21149
  21708716.227 6    -11624.129 6    -18923.34849  21708712.91449
  23980176.078 5    618910.949 5    463847.71146  23980177.11346
 20  5 16  0  7 14.0000000  0 10G03G04G08G14G16G18G26G27G31G32      -0.000199390
  24340255.313 4    145034.129 4    100629.14847  24340255.25847
  22607493.078 5   -915521.215 5   -666053.38347  22607491.23847
  23623609.211 4  -1084190.082 4   -815571.03148  23623608.93848
  21907662.609 6    512776.844 6    379038.48447  21907660.34847
  20579984.273 6   -246057.516 6   -183417.11348  20579980.37548
  24816336.773 4   -354946.121 4   -258165.28946  24816335.46146
  21068586.930 6    135040.398 6    100316.07449  21068586.56349
  21301694.094 6  -1039818.871 6   -768662.52349  21301692.83649
  21708700.367 6    -11707.281 6    -18988.14149  21708696.89549
  23980688.984 5    621605.590 5    465947.43446  23980690.12146
 20  5 16  0  7 15.0000000  0 10G03G04G08G14G16G18G26G27G31G32      -0.000200014
  24340365.977 4    145617.336 4    101083.59847  24340366.39147
  22606801.234 5   -919157.328 5   -668886.71947  22606799.18047
  23622717.305 4  -1088876.043 4   -819222.43448  23622717.25448
  21908030.227 6    514708.496 6    380543.66847  21908027.56347
  20579815.703 6   -246943.633 6   -184107.59048  20579811.40248
  24815978.227 3   -356829.336 3   -259632.71546  24815977.33246
  21068682.281 6    135543.199 6    100707.86349  21068682.35949
  21300970.672 6  -1043620.375 6   -771624.73849  21300969.16049
  21708684.664 6    -11790.313 6    -19052.84449  21708681.33249
  23981202.414 5    624300.180 5    468047.10546  23981202.78146
 20  5 16  0  7 16.0000000  0 10G03G04G08G14G16G18G26G27G31G32      -0.000200636
  24340477.563 4    146200.742 4    101538.19947  24340477.61747
  22606109.281 5   -922793.051 5   -671719.75047  22606107.20347
  23621825.477 4  -1093561.875 4   -822873.72348  23621826.10948
  21908398.398 6    516640.492 6    382049.11747  21908395.03947
  20579647.070 6   -247829.379 6   -184797.79348  20579643.24648
  24815620.039 4   -358712.383 4   -261100.03546  24815618.64846
  21068778.258 6    136046.148 6    101099.77049  21068777.93049
  21300247.352 6  -1047421.426 6   -774586.59849  21300246.32449
  21708669.258 6    -11873.125 6    -19117.37549  21708665.48449
  23981714.867 5    626994.891 5    470146.88746  23981715.43046
 20  5 16  0  7 17.0000000  0 10G03G04G08G14G16G18G26G27G31G32      -0.000201260
  24340588.672 4    146784.328 4    101992.95347  24340588.34847
  22605417.180 5   -926428.441 5   -674552.52047  22605415.43847
  23620933.898 4  -1098247.652 4   -826524.96948  23620934.34048
  21908765.578 6    518572.777 6    383554.79747  21908762.84047
  20579478.867 6   -248714.848 6   -185487.76248  20579474.43448
  24815261.828 3   -360595.008 3   -262567.00445  24815260.49645
  21068873.945 6    136549.152 6    101491.71949  21068873.80149
  21299524.102 6  -1051222.105 6   -777548.16849  21299522.98849
  21708653.414 6    -11955.781 6    -19181.78149  21708650.27349
  23982227.633 4    629689.609 4    472246.66846  23982228.09846
 20  5 16  0  7 18.0000000  0 10G03G04G08G14G16G18G26G27G31G32      -0.000201883
  24340699.859 4    147367.938 4    102447.70347  24340699.78147
  22604725.852 5   -930063.660 5   -677385.16047  22604723.70747
  23620042.508 4  -1102933.418 4   -830176.21548  23620042.45748
  21909133.820 6    520505.301 6    385060.66047  21909130.80147
  20579310.133 6   -249600.109 6   -186177.58248  20579306.28148
  24814903.500 3   -362477.527 3   -264033.89845  24814902.30545
  21068969.883 6    137052.125 6    101883.64149  21068969.59449
  21298801.102 6  -1055022.484 6   -780509.50049  21298799.56649
  21708637.742 6    -12038.402 6    -19246.16449  21708634.31649
  23982740.469 5    632384.284 5    474346.41246  23982741.03546
 20  5 16  0  7 19.0000000  0 10G03G04G08G14G16G18G26G27G31G32      -0.000202507
  24340811.109 4    147951.664 4    102902.55547  24340810.75847
  22604034.125 5   -933698.520 5   -680217.52047  22604032.24247
  23619150.578 4  -1107619.168 4   -833827.45348  23619150.80548
  21909501.313 6    522438.109 6    386566.73447  21909498.33647
  20579141.609 6   -250485.113 6   -186867.19548  20579137.71548
  24814545.695 4   -364359.777 4   -265500.56345  24814544.23045
  21069065.219 6    137555.141 6    102275.60249  21069065.45749
  21298077.844 6  -1058822.520 6   -783470.56349  21298076.53549
  21708621.961 6    -12120.918 6    -19310.46949  21708618.46549
  23983252.828 4    635078.945 4    476446.14146  23983253.78546
 20  5 16  0  7 20.0000000  0 11G03G04G08G14G16G18G21G26G27G31G32   -0.000203127
  24340921.953 4    148535.527 4    103357.51647  24340921.63347
  22603342.391 5   -937333.148 5   -683049.70747  22603340.57847
  23618258.695 4  -1112304.859 4   -837478.64148  23618259.14548
  21909869.336 6    524371.164 6    388073.00847  21909866.30947
  20578973.508 6   -251369.875 6   -187556.61348  20578969.67648
  24814187.414 4   -366241.770 4   -266967.05546  24814185.99246
  24331155.32014   -256998.87514   -185318.37556  24331152.40256
  21069160.898 6    138058.172 6    102667.57449  21069160.97749
  21297354.820 6  -1062622.191 6   -786431.35249  21297353.48049
  21708606.344 6    -12203.305 6    -19374.66849  21708603.00449
  23983765.594 4    637773.570 4    478545.83646  23983766.58646
 20  5 16  0  7 21.0000000  0 11G03G04G08G14G16G18G21G26G27G31G32   -0.000203751
  24341033.352 4    149119.523 4    103812.57447  24341033.00847
  22602650.680 5   -940967.402 5   -685881.59047  22602648.92647
  23617367.641 4  -1116990.500 4   -841129.78548  23617367.28148
  21910237.367 6    526304.547 6    389579.53947  21910234.73447
  20578805.031 6   -252254.313 6   -188245.78548  20578801.32848
  24813828.266 3   -368123.547 3   -268433.39546  24813827.59446
  24330888.922 4   -258394.930 4   -186406.20346  24330886.65646
  21069256.602 6    138561.301 6    103059.62949  21069256.84449
  21296631.789 6  -1066421.465 6   -789391.82049  21296630.44549
  21708590.680 6    -12285.559 6    -19438.76649  21708587.62949
  23984279.055 5    640468.246 5    480645.57446  23984279.22346
 20  5 16  0  7 22.0000000  0 11G03G04G08G14G16G18G21G26G27G31G32   -0.000204372
  24341143.641 4    149703.664 4    104267.73847  24341144.00847
  22601959.188 5   -944601.426 5   -688713.29347  22601957.43847
  23616475.305 4  -1121676.094 4   -844780.89848  23616475.44148
  21910605.430 6    528238.203 6    391086.29347  21910602.53547
  20578636.828 6   -253138.523 6   -188934.78148  20578633.02348
  24813470.695 3   -370005.078 3   -269899.53946  24813469.73046
  24330624.234 4   -259790.719 4   -187493.82046  24330621.35246
  21069352.602 6    139064.453 6    103451.69149  21069352.40249
  21295908.797 6  -1070220.410 6   -792352.04349  21295907.22349
  21708574.859 6    -12367.688 6    -19502.75449  21708571.27349
  23984791.188 5    643162.906 5    482745.30546  23984791.86746
 20  5 16  0  7 23.0000000  0 11G03G04G08G14G16G18G21G26G27G31G32   -0.000204996
  24341254.773 4    150287.961 4    104723.03947  24341255.44947
  22601267.641 5   -948235.000 5   -691544.64847  22601265.72347
  23615583.891 4  -1126361.531 4   -848431.88748  23615583.82848
  21910972.742 6    530172.266 6    392593.35547  21910970.06647
  20578468.781 6   -254022.336 6   -189623.47748  20578464.90648
  24813112.641 3   -371886.301 3   -271365.43446  24813111.34446
  24330358.609 4   -261186.145 4   -188581.15646  24330355.84046
  21069448.422 6    139567.750 6    103843.87149  21069448.29749
  21295186.219 6  -1074018.848 6   -795311.86349  21295184.75049
  21708559.758 6    -12449.586 6    -19566.57049  21708555.94949
  23985304.297 5    645857.629 5    484845.08646  23985304.53546
 20  5 16  0  7 24.0000000  0 11G03G04G08G14G16G18G21G26G27G31G32   -0.000205620
  24341366.398 4    150872.441 4    105178.46947  24341366.14847
  22600576.438 5   -951868.301 5   -694375.79347  22600574.39847
  23614692.008 4  -1131046.910 4   -852082.83648  23614691.91448
  21911341.359 6    532106.582 6    394100.60547  21911338.68447
  20578300.492 6   -254905.910 6   -190311.97748  20578296.57848
  24812754.813 4   -373767.207 4   -272831.05546  24812753.68446
  24330092.703 4   -262581.363 4   -189668.35546  24330090.25846
  21069544.219 6    140071.090 6    104236.07849  21069543.77749
  21294463.383 6  -1077816.953 6   -798271.43049  21294461.89549
  21708544.305 6    -12531.383 6    -19630.30949  21708540.34049
  23985817.242 5    648552.414 5    486944.92246  23985817.53146
 20  5 16  0  7 25.0000000  0 11G03G04G08G14G16G18G21G26G27G31G32   -0.000206244
  24341477.516 4    151457.133 4    105634.08247  24341477.63747
  22599885.219 5   -955501.172 5   -697206.60247  22599883.10547
  23613800.773 4  -1135732.164 4   -855733.68848  23613800.70748
  21911709.539 6    534041.363 6    395608.21947  21911706.45747
  20578132.539 6   -255789.051 6   -191000.13748  20578128.54348
  24812397.125 3   -375647.813 3   -274296.44946  24812395.95746
  24329827.453 4   -263976.148 4   -190755.21546  24329824.88746
  21069639.875 6    140574.598 6    104628.42249  21069640.14849
  21293740.719 6  -1081614.547 6   -801230.59449  21293739.38349
  21708528.273 6    -12612.895 6    -19693.82849  21708524.86349
  23986330.188 4    651247.289 4    489044.82846  23986330.62146
 20  5 16  0  7 26.0000000  0 11G03G04G08G14G16G18G21G26G27G31G32   -0.000206867
  24341588.695 4    152042.063 4    106089.87947  24341589.00047
  22599193.789 5   -959133.641 5   -700037.09047  22599191.93847
  23612909.039 4  -1140417.199 4   -859384.36348  23612908.86348
  21912077.680 6    535976.492 6    397116.10947  21912074.61347
  20577964.656 6   -256671.844 6   -191688.02048  20577960.61748
  24812039.883 3   -377528.027 3   -275761.54746  24812038.14846
  24329562.453 4   -265370.594 4   -191841.79346  24329559.26246
  21069735.758 6    141078.273 6    105020.89549  21069735.49249
  21293018.359 6  -1085411.672 6   -804189.39149  21293016.75049
  21708512.547 6    -12694.191 6    -19757.17649  21708509.27349
  23986842.289 4    653942.324 4    491144.85546  23986843.56346
 20  5 16  0  7 27.0000000  0 11G03G04G08G14G16G18G21G26G27G31G32   -0.000207489
  24341700.063 4    152627.180 4    106545.81347  24341700.47747
  22598502.617 5   -962765.762 5   -702867.31347  22598500.95347
  23612017.273 4  -1145102.152 4   -863034.98048  23612017.39548
  21912446.078 6    537911.980 6    398624.28947  21912442.73047
  20577796.648 6   -257554.313 6   -192375.66448  20577792.57848
  24811682.109 3   -379407.930 3   -277226.40246  24811680.35246
  24329296.516 4   -266764.738 4   -192928.12546  24329294.04346
  21069831.648 6    141582.059 6    105413.45749  21069831.63749
  21292295.773 6  -1089208.379 6   -807147.85549  21292294.05949
  21708497.445 6    -12775.313 6    -19820.39149  21708493.82849
  23987355.313 4    656637.340 4    493244.85946  23987356.24246
 20  5 16  0  7 28.0000000  0 11G03G04G08G14G16G18G21G26G27G31G32   -0.000208113
  24341811.398 4    153212.375 4    107001.80547  24341811.97347
  22597811.648 5   -966397.578 5   -705697.30147  22597809.60947
  23611125.688 4  -1149787.063 4   -866685.55548  23611125.76248
  21912814.461 6    539847.707 6    400132.65247  21912811.32847
  20577628.680 6   -258436.531 6   -193063.10248  20577624.59448
  24811323.438 3   -381287.586 3   -278691.08246  24811322.72746
  24329031.797 4   -268158.594 4   -194014.24646  24329028.68846
  21069927.422 6    142085.836 6    105806.00449  21069927.23049
  21291573.563 6  -1093004.742 6   -810106.06649  21291571.86749
  21708482.180 6    -12856.332 6    -19883.52749  21708478.71149
  23987868.250 4    659332.355 4    495344.87546  23987868.80946
 20  5 16  0  7 29.0000000  0 11G03G04G08G14G16G18G21G26G27G31G32   -0.000208736
  24341923.195 4    153797.680 4    107457.88347  24341923.10547
  22597120.297 6   -970029.152 6   -708527.10247  22597118.39847
  23610234.609 4  -1154471.973 4   -870336.12948  23610234.74248
  21913183.039 6    541783.688 6    401641.20747  21913179.66047
  20577460.883 6   -259318.547 6   -193750.39148  20577457.15648
  24810966.617 3   -383167.125 3   -280155.66046  24810964.82446
  24328766.500 4   -269552.289 4   -195100.23046  24328763.44546
  21070023.508 6    142589.621 6    106198.56649  21070023.35549
  21290850.844 6  -1096800.777 6   -813064.01649  21290849.59449
  21708466.492 6    -12937.285 6    -19946.61349  21708462.59449
  23988381.578 5    662027.355 5    497444.89146  23988381.32846
 20  5 16  0  7 30.0000000  0 11G03G04G08G14G16G18G21G26G27G31G32   -0.000209360
  24342034.727 4    154383.215 4    107914.13347  24342034.63347
  22596429.641 6   -973660.313 6   -711356.57847  22596427.81347
  23609343.242 4  -1159156.664 4   -873986.53548  23609342.92648
  21913551.234 6    543720.113 6    403150.10947  21913547.68047
  20577292.852 6   -260200.141 6   -194437.35248  20577289.30548
  24810608.563 3   -385046.223 3   -281619.89146  24810607.34446
  24328501.313 4   -270945.578 4   -196185.91046  24328498.29346
  21070119.391 6    143093.598 6    106591.27749  21070118.78949
  21290128.547 6  -1100596.328 6   -816021.59449  21290127.16449
  21708451.070 6    -13017.949 6    -20009.46149  21708447.85949
  23988894.109 5    664722.484 5    499544.98446  23988894.68846
 20  5 16  0  7 31.0000000  0 11G03G04G08G14G16G18G21G26G27G31G32   -0.000209984
  24342145.820 4    154968.848 4    108370.46547  24342145.49247
  22595738.914 6   -977291.199 6   -714185.83647  22595736.71147
  23608451.211 4  -1163841.387 4   -877636.96548  23608452.25448
  21913920.063 6    545656.754 6    404659.17647  21913916.38747
  20577125.359 6   -261081.516 6   -195124.13748  20577121.27748
  24810251.313 3   -386925.137 3   -283083.97346  24810249.80946
  24328236.445 4   -272338.688 4   -197271.44546  24328233.11346
  21070215.313 6    143597.563 6    106983.97349  21070214.84849
  21289406.266 6  -1104391.547 6   -818978.90249  21289404.81349
  21708436.172 6    -13098.555 6    -20072.27349  21708432.41849
  23989406.641 4    667417.535 4    501645.00846  23989407.18446
 20  5 16  0  7 32.0000000  0 11G03G04G08G14G16G18G21G26G27G31G32   -0.000210608
  24342257.656 4    155554.625 4    108826.91847  24342257.11747
  22595047.922 6   -980921.723 6   -717014.82047  22595045.77747
  23607559.977 4  -1168525.961 4   -881287.28148  23607560.58648
  21914288.883 6    547593.730 6    406168.51247  21914285.20747
  20576957.461 6   -261962.602 6   -195810.69548  20576953.94548
  24809894.039 3   -388803.758 3   -284547.80546  24809892.08646
  24327971.297 4   -273731.426 4   -198356.70746  24327968.37146
  21070311.320 6    144101.629 6    107376.75449  21070310.91449
  21288684.406 6  -1108186.344 6   -821935.89149  21288683.02049
  21708420.375 6    -13178.984 6    -20134.94549  21708417.00449
  23989920.391 5    670112.653 5    503745.08446  23989919.99646
 20  5 16  0  7 33.0000000  0 11G03G04G08G14G16G18G21G26G27G31G32   -0.000211231
  24342368.820 4    156140.387 4    109283.35247  24342368.80147
  22594356.563 6   -984552.117 6   -719843.70347  22594355.00447
  23606668.328 4  -1173210.676 4   -884937.71148  23606669.47348
  21914657.523 6    549530.855 6    407677.95747  21914653.77347
  20576790.461 6   -262843.527 6   -196497.12548  20576785.76648
  24809535.953 3   -390682.281 3   -286011.59846  24809534.90646
  24327706.383 4   -275124.125 4   -199441.94546  24327703.09446
  21070407.328 6    144605.563 6    107769.42649  21070407.07449
  21287962.406 6  -1111980.930 6   -824892.70749  21287961.22749
  21708405.398 6    -13259.438 6    -20197.63749  21708401.83249
  23990433.164 4    672807.648 4    505845.07846  23990432.89846
 20  5 16  0  7 34.0000000  0 11G03G04G08G14G16G18G21G26G27G31G32   -0.000211855
  24342479.813 4    156726.285 4    109739.89847  24342480.17247
  22593665.672 6   -988182.238 6   -722672.37147  22593664.08247
  23605777.070 4  -1177895.395 4   -888588.13348  23605778.13348
  21915025.813 6    551468.203 6    409187.58247  21915022.56347
  20576622.320 6   -263724.262 6   -197183.41048  20576618.34448
  24809178.453 3   -392560.605 3   -287475.24646  24809177.87946
  24327441.195 4   -276516.594 4   -200526.98846  24327438.37546
  21070503.039 6    145109.547 6    108162.13749  21070502.68849
  21287240.211 6  -1115775.191 6   -827849.27749  21287238.87149
  21708389.781 6    -13339.816 6    -20260.27749  21708386.46149
  23990946.016 4    675502.566 4    507945.01646  23990945.99246
 20  5 16  0  7 35.0000000  0 11G03G04G08G14G16G18G21G26G27G31G32   -0.000212479
  24342591.797 4    157312.242 4    110196.48847  24342591.81347
  22592975.172 6   -991812.047 6   -725500.78547  22592973.24647
  23604886.047 4  -1182580.035 4   -892238.50048  23604886.55148
  21915394.711 6    553405.867 6    410697.44947  21915391.03547
  20576454.852 6   -264604.684 6   -197869.45348  20576450.94548
  24808821.297 3   -394438.668 3   -288938.66446  24808819.96546
  24327175.852 4   -277908.742 4   -201611.78546  24327173.18846
  21070598.703 6    145613.563 6    108554.87949  21070598.50049
  21286518.734 6  -1119569.051 6   -830805.53149  21286517.07449
  21708374.484 6    -13420.043 6    -20322.78949  21708371.36749
  23991458.844 4    678197.555 4    510045.00446  23991458.92646
 20  5 16  0  7 36.0000000  0 11G03G04G08G14G16G18G21G26G27G31G32   -0.000213102
  24342702.898 4    157898.461 4    110653.27747  24342703.59847
  22592284.453 6   -995441.465 6   -728328.90247  22592282.86747
  23603994.648 4  -1187264.484 4   -895888.71948  23603995.27748
  21915763.445 6    555343.910 6    412207.60947  21915759.74247
  20576287.555 6   -265484.773 6   -198555.24248  20576283.01248
  24808464.391 3   -396316.375 3   -290401.82046  24808462.65646
  24326912.234 4   -279300.602 4   -202696.35246  24326908.53146
  21070694.938 6    146117.719 6    108947.73049  21070694.51249
  21285796.477 6  -1123362.473 6   -833761.43849  21285795.14549
  21708359.195 6    -13500.047 6    -20385.12949  21708356.03549
  23991970.953 4    680892.578 4    512145.02746  23991971.55546
 20  5 16  0  7 37.0000000  0 11G03G04G08G14G16G18G21G26G27G31G32   -0.000213728
  24342814.203 4    158484.734 4    111110.10947  24342814.90647
  22591593.594 5   -999070.598 5   -731156.79747  22591591.85247
  23603102.859 4  -1191948.980 4   -899538.97348  23603103.86748
  21916132.039 6    557282.188 6    413717.95747  21916128.88347
  20576120.289 6   -266364.582 6   -199240.81648  20576116.11348
  24808105.969 3   -398193.820 3   -291864.76646  24808105.55546
  24326647.117 4   -280692.223 4   -203780.73446  24326643.77746
  21070790.773 6    146621.918 6    109340.60549  21070790.73049
  21285075.031 6  -1127155.539 6   -836717.07849  21285073.47749
  21708343.953 6    -13579.953 6    -20447.39549  21708340.68449
  23992484.289 5    683587.578 5    514245.02746  23992484.50046
 20  5 16  0  7 38.0000000  0 11G03G04G08G14G16G18G21G26G27G31G32   -0.000214352
  24342926.555 4    159071.254 4    111567.13747  24342926.58247
  22590903.336 6  -1002699.352 6   -733984.40247  22590901.68447
  23602211.625 4  -1196633.281 4   -903189.07848  23602211.89548
  21916500.961 6    559220.875 6    415228.62147  21916497.66047
  20575952.609 6   -267244.082 6   -199926.13748  20575948.58248
  24807749.555 3   -400070.984 3   -293327.49646  24807748.15646
  24326382.148 4   -282083.488 4   -204864.82846  24326378.69546
  21070886.555 6    147126.230 6    109733.57849  21070886.84049
  21284352.781 6  -1130948.152 6   -839672.35949  21284351.68049
  21708328.641 6    -13659.664 6    -20509.51249  21708325.35249
  23992996.711 4    686282.707 4    516345.12546  23992997.26646
 20  5 16  0  7 39.0000000  0 11G03G04G08G14G16G18G21G26G27G31G32   -0.000214975
  24343038.117 4    159657.902 4    112024.26647  24343038.12147
  22590212.758 6  -1006327.773 6   -736811.75047  22590211.20347
  23601320.742 4  -1201317.543 4   -906839.14848  23601320.52748
  21916870.180 6    561159.840 6    416739.50047  21916866.81647
  20575785.453 6   -268123.258 6   -200611.21148  20575781.59848
  24807391.945 3   -401947.840 3   -294789.98045  24807391.03545
  24326117.633 4   -283474.469 4   -205948.70346  24326113.97746
  21070982.563 6    147630.621 6    110126.60949  21070982.41449
  21283631.289 6  -1134740.367 6   -842627.33649  21283629.63749
  21708314.008 6    -13739.207 6    -20571.49649  21708310.41449
  23993509.484 4    688977.855 4    518445.24646  23993510.32846
 20  5 16  0  7 40.0000000  0 11G03G04G08G14G16G18G21G26G27G31G32   -0.000215599
  24343150.086 4    160244.664 4    112481.48447  24343150.00847
  22589522.344 6  -1009955.902 6   -739638.86347  22589520.67247
  23600428.758 4  -1206001.738 4   -910489.16048  23600429.03148
  21917239.031 6    563099.117 6    418250.62547  21917235.22747
  20575617.875 6   -269002.184 6   -201296.08648  20575614.22748
  24807034.992 3   -403824.496 3   -296252.32846  24807034.00046
  24325852.688 4   -284865.203 4   -207032.39546  24325849.54346
  21071078.656 6    148135.066 6    110519.68049  21071078.47349
  21282909.797 6  -1138532.223 6   -845582.03149  21282908.50849
  21708298.664 6    -13818.641 6    -20633.39149  21708295.13349
  23994022.961 4    691673.023 4    520545.37146  23994023.17646
 20  5 16  0  7 41.0000000  0 11G03G04G08G14G16G18G21G26G27G31G32   -0.000216223
  24343261.523 4    160831.703 4    112938.92247  24343261.14147
  22588832.430 6  -1013583.621 6   -742465.65647  22588830.28147
  23599537.742 4  -1210685.766 4   -914139.05148  23599537.56348
  21917607.750 6    565038.770 6    419762.03947  21917604.57847
  20575450.766 6   -269880.711 6   -201980.64548  20575447.20748
  24806678.414 2   -405700.773 2   -297714.35546  24806676.93846
  24325587.820 4   -286255.555 4   -208115.78146  24325584.84846
  21071174.438 6    148639.633 6    110912.85249  21071174.35549
  21282188.094 6  -1142323.617 6   -848536.35949  21282186.79349
  21708283.992 6    -13897.855 6    -20695.12149  21708280.41049
  23994535.188 4    694368.262 4    522645.55946  23994536.10946
 20  5 16  0  7 42.0000000  0 11G03G04G08G14G16G18G21G26G27G31G32   -0.000216848
  24343373.336 4    161418.809 4    113396.39847  24343373.39147
  22588141.883 6  -1017211.035 6   -745292.21547  22588140.17247
  23598646.500 4  -1215369.734 4   -917788.89848  23598646.45748
  21917977.305 6    566978.719 6    421273.68447  21917973.59447
  20575283.836 6   -270758.988 6   -202665.02048  20575279.80948
  24806321.086 3   -407576.840 3   -299176.21945  24806319.80545
  24325323.430 4   -287645.691 4   -209198.97346  24325320.10246
  21071270.742 6    149144.258 6    111306.06349  21071270.85949
  21281466.750 6  -1146114.625 6   -851490.39849  21281465.73449
  21708268.750 6    -13976.910 6    -20756.71549  21708265.07449
  23995048.758 4    697063.488 4    524745.73046  23995049.08646
 20  5 16  0  7 43.0000000  0 11G03G04G08G14G16G18G21G26G27G31G32   -0.000217472
  24343484.844 4    162006.063 4    113853.98847  24343484.85947
  22587451.648 6  -1020838.141 6   -748118.53147  22587449.59447
  23597755.063 4  -1220053.672 4   -921438.71948  23597755.30948
  21918346.672 6    568918.930 6    422785.53947  21918343.02347
  20575116.523 6   -271637.020 6   -203349.20348  20575112.90648
  24805963.797 2   -409452.621 2   -300637.86745  24805963.11745
  24325058.953 4   -289035.563 4   -210281.99646  24325056.23446
  21071366.656 6    149648.914 6    111699.30149  21071366.32449
  21280745.945 6  -1149905.273 6   -854444.14549  21280744.53149
  21708253.414 6    -14055.867 6    -20818.24649  21708250.16449
  23995561.578 4    699758.691 4    526845.88346  23995562.08646
 20  5 16  0  7 44.0000000  0 11G03G04G08G14G16G18G21G26G27G31G32   -0.000218096
  24343596.313 4    162593.391 4    114311.64547  24343596.88747
  22586761.883 5  -1024465.012 5   -750944.66447  22586759.63347
  23596863.758 4  -1224737.590 4   -925088.52748  23596863.78548
  21918715.664 6    570859.395 6    424297.58647  21918712.43447
  20574949.594 6   -272514.797 6   -204033.18048  20574945.79748
  24805606.648 2   -411328.219 2   -302099.37145  24805606.16045
  24324795.102 4   -290425.207 4   -211364.83646  24324791.43846
  21071463.281 6    150153.594 6    112092.55949  21071462.80549
  21280023.859 6  -1153695.586 6   -857397.63749  21280022.84449
  21708238.563 6    -14134.734 6    -20879.69149  21708235.30549
  23996074.891 4    702453.906 4    528946.03946  23996074.66846
 20  5 16  0  7 45.0000000  0 11G03G04G08G14G16G18G21G26G27G31G32   -0.000218721
  24343708.883 4    163180.895 4    114769.43047  24343708.83647
  22586071.438 5  -1028091.496 5   -753770.49647  22586069.47747
  23595972.125 4  -1229421.383 4   -928738.23848  23595972.74648
  21919084.984 6    572800.219 6    425809.91847  21919081.71547
  20574782.758 6   -273392.254 6   -204716.91448  20574778.52748
  24805250.086 2   -413203.496 2   -303560.61345  24805249.33645
  24324530.461 4   -291814.508 4   -212447.41846  24324526.88746
  21071558.750 6    150658.375 6    112485.89549  21071558.77349
  21279302.703 6  -1157485.461 6   -860350.78949  21279302.13349
  21708223.867 6    -14213.395 6    -20940.98849  21708220.19149
  23996587.352 4    705149.172 4    531046.23846  23996587.77046
 20  5 16  0  7 46.0000000  0 11G03G04G08G14G16G18G21G26G27G31G32   -0.000219345
  24343820.156 4    163768.676 4    115227.44547  24343820.62547
  22585381.195 5  -1031717.531 5   -756595.98047  22585379.57047
  23595080.563 4  -1234105.008 4   -932387.81648  23595081.42248
  21919454.695 6    574741.449 6    427322.56347  21919451.28947
  20574615.758 6   -274269.305 6   -205400.33648  20574611.44948
  24804892.594 2   -415078.406 2   -305021.58645  24804892.75845
  24324266.203 4   -293203.496 4   -213529.75046  24324262.80146
  21071655.133 6    151163.328 6    112879.36349  21071654.76649
  21278581.875 6  -1161274.848 6   -863303.55549  21278580.96549
  21708208.500 6    -14291.824 6    -21002.10949  21708205.00449
  23997099.398 4    707844.590 4    533146.56346  23997100.52746
 20  5 16  0  7 47.0000000  0 11G03G04G08G14G16G18G21G26G27G31G32   -0.000219969
  24343932.367 4    164356.578 4    115685.54747  24343932.46547
  22584691.445 5  -1035343.273 5   -759421.23447  22584689.66447
  23594189.672 4  -1238788.535 4   -936037.31348  23594189.99648
  21919823.906 6    576683.016 6    428835.47347  21919820.24247
  20574448.852 6   -275146.063 6   -206083.52348  20574444.57848
  24804535.539 2   -416952.949 2   -306482.25045  24804535.92245
  24324001.852 4   -294592.090 4   -214611.77346  24323998.44546
  21071751.117 6    151668.371 6    113272.90249  21071751.13749
  21277860.828 6  -1165063.824 6   -866256.00849  21277859.97349
  21708193.531 6    -14370.074 6    -21063.08649  21708190.07049
  23997612.391 4    710540.023 4    535246.89146  23997613.34846
 20  5 16  0  7 48.0000000  0 11G03G04G08G14G16G18G21G26G27G31G32   -0.000220594
  24344044.234 4    164944.672 4    116143.79747  24344043.88347
  22584001.641 5  -1038968.652 5   -762246.20347  22583999.45347
  23593297.961 4  -1243472.000 4   -939686.76248  23593298.52348
  21920193.805 6    578624.879 6    430348.61747  21920189.70347
  20574282.000 6   -276022.535 6   -206766.49248  20574278.17648
  24804180.063 2   -418827.375 2   -307942.83245  24804179.37145
  24323737.883 4   -295980.461 4   -215693.60946  24323733.89146
  21071846.977 6    152173.477 6    113666.48449  21071847.02049
  21277140.258 6  -1168852.418 6   -869208.16049  21277138.92249
  21708178.711 6    -14448.180 6    -21123.94949  21708175.57049
  23998126.039 4    713235.457 4    537347.22346  23998126.44146
 20  5 16  0  7 49.0000000  0 11G03G04G08G14G16G18G21G26G27G31G32   -0.000221218
  24344156.336 4    165532.820 4    116602.09847  24344156.37147
  22583311.914 6  -1042593.758 6   -765070.96547  22583310.02347
  23592407.453 4  -1248155.402 4   -943336.16448  23592407.61348
  21920563.148 6    580566.996 6    431861.95747  21920559.67647
  20574115.500 6   -276898.746 6   -207449.25848  20574110.96148
  24803822.758 2   -420701.449 2   -309403.14845  24803822.71545
  24323473.633 4   -297368.570 4   -216775.25846  24323470.46146
  21071943.344 6    152678.594 6    114060.08249  21071943.31649
  21276419.117 6  -1172640.652 6   -872160.03149  21276417.71549
  21708164.484 6    -14526.191 6    -21184.73449  21708161.01249
  23998639.016 4    715930.906 4    539447.56346  23998639.57446
 20  5 16  0  7 50.0000000  0 11G03G04G08G14G16G18G21G26G27G31G32   -0.000221844
  24344268.422 4    166121.043 4    117060.44947  24344268.35947
  22582622.164 6  -1046218.609 6   -767895.52747  22582620.10947
  23591515.883 4  -1252838.824 4   -946985.57848  23591516.40648
  21920932.844 6    582509.391 6    433375.50447  21920929.41447
  20573948.906 6   -277774.723 6   -208131.83648  20573944.91448
  24803467.078 2   -422575.340 2   -310863.32445  24803466.28945
  24323209.594 4   -298756.492 4   -217856.77346  24323205.68846
  21072039.375 6    153183.738 6    114453.70349  21072039.49649
  21275698.375 6  -1176428.547 6   -875111.64149  21275697.20349
  21708149.320 6    -14604.098 6    -21245.44549  21708145.71549
  23999151.875 4    718626.285 4    541547.86746  23999152.55946
 20  5 16  0  7 51.0000000  0 11G03G04G08G14G16G18G21G26G27G31G32   -0.000222467
  24344380.242 4    166709.473 4    117518.96147  24344380.39547
  22581932.320 6  -1049843.117 6   -770719.81647  22581929.77747
  23590625.070 4  -1257522.160 4   -950634.93448  23590625.10248
  21921302.398 6    584452.090 6    434889.29347  21921299.00847
  20573782.227 6   -278650.426 6   -208814.19948  20573778.27748
  24803110.148 2   -424448.992 2   -312323.31645  24803109.94545
  24322945.430 4   -300144.102 4   -218938.01646  24322942.24246
  21072135.383 6    153688.949 6    114847.37549  21072135.34049
  21274977.805 6  -1180216.059 6   -878062.94949  21274976.33249
  21708134.609 6    -14681.855 6    -21306.03549  21708131.05149
  23999664.289 4    721321.742 4    543648.23046  23999665.18446
 20  5 16  0  7 52.0000000  0 11G03G04G08G14G16G18G21G26G27G31G32   -0.000223093
  24344492.211 4    167298.016 4    117977.56647  24344492.18447
  22581242.688 6  -1053467.293 6   -773543.85247  22581240.47347
  23589733.820 4  -1262205.359 4   -954284.18448  23589733.90248
  21921672.422 6    586395.102 6    436403.32447  21921668.87547
  20573615.555 6   -279525.805 6   -209496.31648  20573611.61748
  24802752.945 2   -426322.313 2   -313783.06645  24802753.43445
  24322681.406 5   -301531.445 5   -220019.04746  24322677.92646
  21072231.516 6    154194.242 6    115241.11349  21072231.56349
  21274256.609 6  -1184003.172 6   -881013.94149  21274255.76249
  21708119.664 6    -14759.461 6    -21366.50449  21708116.38349
  24000177.563 4    724017.176 4    545748.56646  24000178.19146
 20  5 16  0  7 53.0000000  0 11G03G04G08G14G16G18G21G26G27G31G32   -0.000223717
  24344603.906 4    167886.684 4    118436.27347  24344604.53947
  22580553.328 6  -1057091.188 6   -776367.66047  22580551.10547
  23588842.523 4  -1266888.539 4   -957933.41848  23588842.73448
  21922042.188 6    588338.359 6    437917.55547  21922038.73047
  20573448.969 6   -280400.961 6   -210178.25448  20573444.89848
  24802396.711 2   -428195.426 2   -315242.64145  24802397.28945
  24322417.563 4   -302918.512 4   -221099.87546  24322414.18846
  21072327.711 6    154699.547 6    115634.85549  21072327.79349
  21273536.039 6  -1187789.930 6   -883964.66449  21273534.84449
  21708105.094 6    -14836.941 6    -21426.87949  21708101.73049
  24000689.969 4    726712.609 4    547848.89146  24000691.32846
 20  5 16  0  7 54.0000000  0 11G03G04G08G14G16G18G21G26G27G31G32   -0.000224342
  24344716.773 4    168475.469 4    118895.06347  24344716.32847
  22579863.945 6  -1060714.754 6   -779191.21547  22579861.38347
  23587951.258 4  -1271571.645 4   -961582.59048  23587951.53948
  21922412.000 6    590281.938 6    439432.03147  21922408.59447
  20573282.578 6   -281275.801 6   -210859.95348  20573278.57848
  24802040.195 2   -430068.262 2   -316701.98045  24802040.89145
  24322153.352 4   -304305.352 4   -222180.53146  24322150.20346
  21072423.734 6    155204.941 6    116028.66049  21072424.07849
  21272815.938 6  -1191576.266 6   -886915.05949  21272814.79349
  21708090.047 6    -14914.289 6    -21487.14849  21708086.54749
  24001202.930 4    729408.090 4    549949.26646  24001203.73846
 20  5 16  0  7 55.0000000  0 11G03G04G08G14G16G18G21G26G27G31G32   -0.000224966
  24344828.820 4    169064.480 4    119354.03147  24344828.39547
  22579173.797 6  -1064337.938 6   -782014.47747  22579172.09847
  23587060.063 4  -1276254.605 4   -965231.64548  23587060.70748
  21922781.500 6    592225.898 6    440946.81347  21922778.58247
  20573115.820 6   -282150.313 6   -211541.39148  20573112.42648
  24801684.680 2   -431940.773 2   -318161.08645  24801684.18045
  24321889.172 4   -305691.785 4   -223260.87146  24321886.77046
  21072520.523 6    155710.438 6    116422.55549  21072520.57849
  21272095.195 6  -1195362.176 6   -889865.11749  21272093.90249
  21708075.734 6    -14991.426 6    -21547.26249  21708072.22349
  24001716.438 4    732103.625 4    552049.68846  24001717.32846
 20  5 16  0  7 56.0000000  0 11G03G04G08G14G16G18G21G26G27G31G32   -0.000225592
  24344940.266 4    169653.703 4    119813.16447  24344940.80547
  22578484.969 6  -1067960.703 6   -784837.41447  22578482.90247
  23586168.578 4  -1280937.387 4   -968880.56348  23586169.56348
  21923151.914 6    594170.238 6    442461.88747  21923148.77747
  20572949.672 6   -283024.434 6   -212222.52048  20572945.69148
  24801327.813 2   -433812.953 2   -319619.89545  24801327.58645
  24321626.555 4   -307077.852 4   -224340.92246  24321622.76646
  21072616.352 6    156216.129 6    116816.60249  21072616.64149
  21271374.961 6  -1199147.609 6   -892814.80549  21271373.57049
  21708060.695 6    -15068.324 6    -21607.18049  21708057.20349
  24002228.781 4    734799.266 4    554150.18046  24002229.67246
 20  5 16  0  7 57.0000000  0 11G03G04G08G14G16G18G21G26G27G31G32   -0.000226215
  24345052.383 4    170243.016 4    120272.35947  24345052.59047
  22577795.273 6  -1071583.219 6   -787660.16047  22577793.43447
  23585277.891 4  -1285620.184 4   -972529.48848  23585278.05948
  21923521.867 6    596114.824 6    443977.13747  21923518.73047
  20572783.523 6   -283898.344 6   -212903.48848  20572779.49248
  24800971.648 2   -435684.863 2   -321078.54345  24800971.98445
  24321362.391 4   -308463.781 4   -225420.86746  24321359.47746
  21072712.563 6    156721.762 6    117210.60249  21072712.69949
  21270655.000 6  -1202932.719 6   -895764.23849  21270653.45349
  21708046.555 6    -15145.152 6    -21667.05149  21708042.93849
  24002741.320 4    737494.891 4    556250.66846  24002742.78946
 20  5 16  0  7 58.0000000  0 11G03G04G08G14G16G18G21G26G27G31G32   -0.000226841
  24345164.344 4    170832.414 4    120731.63747  24345164.62547
  22577105.672 6  -1075205.441 6   -790482.66847  22577104.08247
  23584386.305 4  -1290302.934 4   -976178.38348  23584386.73448
  21923892.164 6    598059.664 6    445492.59847  21923889.18447
  20572617.500 6   -284772.000 6   -213584.26648  20572613.64848
  24800615.492 2   -437556.578 2   -322537.02345  24800615.73445
  24321098.039 4   -309849.414 4   -226500.57446  24321095.20346
  21072808.992 6    157227.453 6    117604.64549  21072808.83649
  21269934.188 6  -1206717.465 6   -898713.39549  21269933.40249
  21708031.977 6    -15221.855 6    -21726.82049  21708028.05549
  24003254.406 4    740190.461 4    558351.09846  24003255.73046
 20  5 16  0  7 59.0000000  0 11G03G04G08G14G16G18G21G26G27G31G32   -0.000227467
  24345277.375 4    171421.910 4    121190.98047  24345277.30547
  22576416.836 6  -1078827.410 6   -793304.98847  22576415.00447
  23583495.508 4  -1294985.680 4   -979827.26648  23583496.07048
  21924262.070 6    600004.742 6    447008.23847  21924259.25047
  20572450.633 6   -285645.457 6   -214264.88348  20572446.94148
  24800259.070 2   -439428.109 2   -323995.36345  24800259.78545
  24320834.305 4   -311234.828 4   -227580.12146  24320832.04346
  21072905.000 6    157733.152 6    117998.69949  21072904.78949
  21269214.445 6  -1210501.895 6   -901662.30149  21269212.87549
  21708017.383 6    -15298.484 6    -21786.53149  21708014.24249
  24003768.086 4    742886.008 4    560451.51246  24003769.14846
 20  5 16  0  8  0.0000000  0 11G03G04G08G14G16G18G21G26G27G31G32   -0.000228090
  24345388.961 4    172011.570 4    121650.45347  24345389.63347
  22575727.703 6  -1082449.035 6   -796127.03147  22575725.99647
  23582605.063 3  -1299668.301 3   -983476.06648  23582604.84848
  21924632.664 6    601950.184 6    448524.16047  21924629.10547
  20572284.813 6   -286518.555 6   -214945.21948  20572280.76648
  24799903.422 2   -441299.238 2   -325453.36345  24799903.07845
  24320571.555 4   -312619.945 4   -228659.44146  24320568.77746
  21073001.047 6    158238.941 6    118392.81649  21073001.41049
  21268494.203 6  -1214285.883 6   -904610.86349  21268492.90249
  21708002.711 6    -15374.898 6    -21846.07049  21707999.04749
  24004280.719 4    745581.609 4    562551.98446  24004281.65646
 20  5 16  0  8  1.0000000  0 11G03G04G08G14G16G18G21G26G27G31G32   -0.000228716
  24345501.000 4    172601.402 4    122110.06647  24345501.67647
  22575038.750 6  -1086070.297 6   -798948.78947  22575036.66047
  23581714.211 3  -1304350.840 3   -987124.80148  23581713.62148
  21925002.992 6    603895.914 6    450040.31647  21924999.47747
  20572118.852 6   -287391.391 6   -215625.34848  20572114.70748
  24799547.938 2   -443170.207 2   -326911.25045  24799547.59045
  24320307.102 4   -314004.777 4   -229738.54346  24320304.82446
  21073097.656 6    158744.797 6    118786.98849  21073097.52749
  21267774.492 6  -1218069.488 6   -907559.12549  21267773.03949
  21707988.063 6    -15451.207 6    -21905.53549  21707984.57849
  24004793.820 3    748277.246 3    564652.48046  24004794.89546
 20  5 16  0  8  2.0000000  0 11G03G04G08G14G16G18G21G26G27G31G32   -0.000229342
  24345613.828 3    173191.395 3    122569.80147  24345613.76247
  22574349.688 6  -1089691.195 6   -801770.27347  22574347.91047
  23580822.367 4  -1309033.234 4   -990773.41448  23580822.49648
  21925373.336 6    605842.020 6    451556.75447  21925369.58247
  20571952.734 6   -288263.855 6   -216305.19148  20571948.69948
  24799191.227 2   -445040.777 2   -328368.83245  24799191.26245
  24320044.117 4   -315389.281 4   -230817.37946  24320042.03946
  21073193.648 6    159250.785 6    119181.26649  21073194.04749
  21267054.484 6  -1221852.621 6   -910507.02049  21267053.03549
  21707973.797 6    -15527.289 6    -21964.82049  21707970.08649
  24005306.320 3    750972.918 3    566753.00846  24005307.21946
 20  5 16  0  8  3.0000000  0 11G03G04G08G14G16G18G21G26G27G31G32   -0.000229967
  24345725.648 4    173781.555 4    123029.66047  24345726.28947
  22573660.672 6  -1093311.738 6   -804591.47347  22573658.50447
  23579931.883 3  -1313715.516 3   -994421.94548  23579931.85548
  21925743.250 6    607788.410 6    453073.42647  21925740.42647
  20571786.883 6   -289136.043 6   -216984.82048  20571782.46548
  24798835.273 2   -446911.145 2   -329826.28145  24798835.49645
  24319780.563 5   -316773.484 5   -231895.95746  24319778.14546
  21073290.563 6    159756.836 6    119575.58649  21073290.30149
  21266334.680 6  -1225635.391 6   -913454.63349  21266333.30949
  21707959.383 6    -15603.250 6    -22024.01249  21707955.83249
  24005819.234 3    753668.645 3    568853.56346  24005820.49646
 20  5 16  0  8  4.0000000  0 11G03G04G08G14G16G18G21G26G27G31G32   -0.000230593
  24345838.461 3    174371.742 3    123489.53947  24345838.64147
  22572971.805 6  -1096932.078 6   -807412.52047  22572969.98447
  23579040.797 4  -1318397.871 4   -998070.53548  23579040.59848
  21926113.750 6    609735.027 6    454590.27047  21926110.70747
  20571620.938 6   -290008.039 6   -217664.30148  20571616.69948
  24798478.828 2   -448781.313 2   -331283.53145  24798479.78145
  24319517.844 4   -318157.500 4   -232974.41446  24319514.96146
  21073386.664 6    160262.863 6    119969.89149  21073386.71149
  21265614.844 6  -1229417.844 6   -916401.99649  21265613.36749
  21707945.195 6    -15679.148 6    -22083.15249  21707941.19149
  24006332.188 3    756364.289 3    570954.06346  24006333.75046
 20  5 16  0  8  5.0000000  0 11G03G04G08G14G16G18G21G26G27G31G32   -0.000231216
  24345950.258 3    174962.094 3    123949.55147  24345950.98447
  22572282.367 6  -1100552.090 6   -810233.30547  22572280.91847
  23578149.336 4  -1323080.121 4  -1001719.03948  23578149.50448
  21926484.086 6    611681.973 6    456107.37147  21926481.44947
  20571455.406 6   -290879.715 6   -218343.52748  20571451.37548
  24798124.063 2   -450651.168 2   -332740.55945  24798123.69945
  24319253.547 4   -319541.219 4   -234052.63746  24319251.42246
  21073482.938 6    160768.969 6    120364.25849  21073482.79349
  21264894.719 6  -1233199.887 6   -919349.04749  21264893.85549
  21707930.398 6    -15754.855 6    -22142.14849  21707927.07049
  24006844.891 3    759059.965 3    573054.56646  24006846.68846
 20  5 16  0  8  6.0000000  0 11G03G04G08G14G16G18G21G26G27G31G32   -0.000231842
  24346062.164 3    175552.676 3    124409.75047  24346063.30147
  22571593.414 6  -1104171.637 6   -813053.72747  22571591.77347
  23577258.164 4  -1327762.219 4  -1005367.43048  23577258.89848
  21926854.633 6    613629.344 6    457624.80147  21926851.97347
  20571289.117 6   -291751.008 6   -219022.46148  20571284.88748
  24797768.797 2   -452520.633 2   -334197.32445  24797768.02345
  24318990.523 4   -320924.590 4   -235130.59446  24318988.47346
  21073578.836 6    161275.234 6    120758.74649  21073579.19149
  21264175.688 6  -1236981.445 6   -922295.71549  21264174.21149
  21707915.984 6    -15830.328 6    -22200.96149  21707912.21949
  24007357.766 3    761755.793 3    575155.20746  24007359.77346
 20  5 16  0  8  7.0000000  0 11G03G04G08G14G16G18G21G26G27G31G32   -0.000232468
  24346175.031 3    176143.504 3    124870.14147  24346175.78547
  22570905.227 6  -1107790.828 6   -815873.87947  22570903.08247
  23576367.078 4  -1332444.191 4  -1009015.72748  23576367.40248
  21927225.438 6    615577.047 6    459142.48847  21927222.48847
  20571123.484 6   -292621.977 6   -219701.13748  20571119.51648
  24797412.445 2   -454389.785 2   -335653.81645  24797412.21545
  24318727.313 4   -322307.586 4   -236208.24246  24318725.05146
  21073675.609 6    161781.633 6    121153.34449  21073676.21149
  21263455.789 6  -1240762.566 6   -925242.03949  21263454.77349
  21707902.203 6    -15905.598 6    -22259.62149  21707898.21149
  24007871.188 3    764451.641 3    577255.88346  24007872.57846
 20  5 16  0  8  8.0000000  0 11G03G04G08G14G16G18G21G26G27G31G32   -0.000233093
  24346287.992 3    176734.391 3    125330.56647  24346288.19547
  22570216.719 6  -1111409.730 6   -818693.80947  22570214.56347
  23575476.039 3  -1337126.141 3  -1012663.99648  23575476.93448
  21927595.836 6    617525.012 6    460660.38347  21927592.91047
  20570957.516 6   -293492.676 6   -220379.60248  20570953.45348
  24797056.781 1   -456258.758 1   -337110.16845  24797056.54745
  24318464.383 4   -323690.371 4   -237285.74246  24318462.09446
  21073772.008 6    162288.035 6    121547.94149  21073771.94949
  21262736.438 6  -1244543.320 6   -928188.08649  21262735.07849
  21707887.492 6    -15980.797 6    -22318.21549  21707883.84849
  24008384.438 3    767147.508 3    579356.58246  24008385.84446
 20  5 16  0  8  9.0000000  0 11G03G04G08G14G16G18G21G26G27G31G32   -0.000233719
  24346399.789 3    177325.563 3    125791.21547  24346400.80547
  22569527.914 6  -1115028.180 6   -821513.37947  22569525.87547
  23574585.195 4  -1341807.840 4  -1016312.07448  23574586.47748
  21927966.930 6    619473.422 6    462178.61747  21927963.86347
  20570792.133 6   -294362.980 6   -221057.76248  20570788.28148
  24796701.586 1   -458127.250 1   -338566.14545  24796701.03945
  24318201.906 4   -325072.719 4   -238362.90646  24318199.13746
  21073868.250 6    162794.664 6    121942.71549  21073868.32449
  21262017.445 6  -1248323.563 6   -931133.72749  21262016.09849
  21707873.359 6    -16055.664 6    -22376.55549  21707869.93449
  24008897.391 3    769843.488 3    581457.32446  24008899.01646
 20  5 16  0  8 10.0000000  0 11G03G04G08G14G16G18G21G26G27G31G32   -0.000234344
  24346511.797 3    177916.750 3    126251.87547  24346512.86747
  22568839.227 6  -1118646.418 6   -824332.78547  22568837.38747
  23573694.938 3  -1346489.598 3  -1019960.19148  23573695.22348
  21928337.539 6    621421.992 6    463696.98847  21928334.45347
  20570626.813 6   -295233.113 6   -221735.78948  20570622.64548
  24796346.234 1   -459995.672 1   -340022.02745  24796345.73845
  24317938.508 4   -326454.930 4   -239439.93846  24317936.10246
  21073964.813 6    163301.188 6    122337.40649  21073965.06649
  21261297.758 6  -1252103.527 6   -934079.15649  21261296.53549
  21707858.898 6    -16130.559 6    -22434.91049  21707855.37549
  24009410.328 3    772539.395 3    583558.02346  24009411.55146
 20  5 16  0  8 11.0000000  0 11G03G04G08G14G16G18G21G26G27G31G32   -0.000234970
  24346625.078 3    178508.117 3    126712.68447  24346625.68447
  22568151.023 5  -1122264.242 5   -827151.87147  22568148.84847
  23572803.469 3  -1351171.156 3  -1023608.15648  23572803.96548
  21928708.336 6    623370.969 6    465215.66847  21928704.87147
  20570461.414 6   -296102.855 6   -222413.52048  20570457.05548
  24795990.102 2   -461863.695 2   -341477.60245  24795990.09445
  24317675.383 4   -327836.727 4   -240516.66046  24317673.07846
  21074061.195 6    163807.887 6    122732.24249  21074061.30949
  21260578.438 6  -1255883.023 6   -937024.21949  21260577.20749
  21707844.273 6    -16205.188 6    -22493.06349  21707841.09049
  24009922.977 3    775235.414 3    585658.80146  24009924.46146
 20  5 16  0  8 12.0000000  0 11G03G04G08G14G16G18G21G26G27G31G32   -0.000235596
  24346738.023 3    179099.672 3    127173.62947  24346738.30947
  22567462.789 5  -1125881.774 5   -829970.72547  22567460.68447
  23571912.844 3  -1355852.680 3  -1027256.09048  23571913.04748
  21929079.625 6    625320.215 6    466734.55947  21929076.34047
  20570295.445 6   -296972.371 6   -223091.05948  20570291.46148
  24795634.789 2   -463731.488 2   -342933.03545  24795634.28145
  24317412.523 4   -329218.305 4   -241593.21946  24317410.19946
  21074157.742 6    164314.621 6    123127.09849  21074157.80149
  21259859.539 6  -1259662.133 6   -939968.98049  21259858.60249
  21707830.422 6    -16279.715 6    -22551.14149  21707827.09049
  24010436.469 3    777931.402 3    587759.57046  24010438.02046
 20  5 16  0  8 13.0000000  0 11G03G04G08G14G16G18G21G26G27G31G32   -0.000236221
  24346850.672 3    179691.289 3    127634.62547  24346851.10247
  22566774.266 5  -1129499.043 5   -832789.38347  22566772.36747
  23571021.906 3  -1360534.152 3  -1030903.98848  23571022.48448
  21929450.156 6    627269.750 6    468253.67647  21929447.25847
  20570130.469 6   -297841.602 6   -223768.37948  20570126.43848
  24795279.914 2   -465599.039 2   -344388.27045  24795279.52045
  24317150.195 4   -330599.605 4   -242669.55946  24317147.44546
  21074254.203 6    164821.406 6    123521.99249  21074254.45349
  21259140.258 6  -1263440.891 6   -942913.46949  21259139.05149
  21707816.453 6    -16354.117 6    -22609.11349  21707813.00049
  24010948.914 3    780627.367 3    589860.32446  24010951.06646
 20  5 16  0  8 14.0000000  0 11G03G04G08G14G16G18G21G26G27G31G32   -0.000236847
  24346963.344 3    180283.070 3    128095.75047  24346963.40247
  22566085.844 5  -1133115.906 5   -835607.72347  22566084.01247
  23570131.078 3  -1365215.520 3  -1034551.80548  23570131.96148
  21929821.117 6    629219.621 6    469773.05547  21929818.13747
  20569964.789 6   -298710.527 6   -224445.46948  20569960.76648
  24794923.914 2   -467466.270 2   -345843.26245  24794923.77745
  24316887.180 4   -331980.617 4   -243745.67646  24316884.71146
  21074350.625 6    165328.289 6    123916.96949  21074350.60249
  21258421.297 6  -1267219.207 6   -945857.61749  21258420.24249
  21707802.234 6    -16428.324 6    -22666.94149  21707799.14549
  24011462.531 3    783323.434 3    591961.15246  24011464.02746
 20  5 16  0  8 15.0000000  0 11G03G04G08G14G16G18G21G26G27G31G32   -0.000237473
  24347075.578 3    180875.059 3    128557.03947  24347076.31647
  22565398.000 6  -1136732.422 6   -838425.78547  22565395.98447
  23569240.648 3  -1369896.781 3  -1038199.54348  23569241.16048
  21930192.094 6    631169.832 6    471292.69547  21930189.43447
  20569799.547 6   -299579.133 6   -225122.30148  20569795.37948
  24794569.508 2   -469333.180 2   -347298.00845  24794569.03545
  24316624.445 3   -333361.277 3   -244821.52046  24316621.94546
  21074446.758 6    165835.250 6    124311.99649  21074447.21149
  21257702.406 7  -1270997.117 7   -948801.44149  21257701.57049
  21707788.039 6    -16502.371 6    -22724.64149  21707784.84849
  24011975.570 3    786019.555 3    594062.02046  24011976.56646
 20  5 16  0  8 16.0000000  0 11G03G04G08G14G16G18G21G26G27G31G32   -0.000238098
  24347187.922 3    181466.996 3    129018.29347  24347188.75847
  22564709.461 6  -1140348.809 6   -841243.74647  22564707.39547
  23568350.000 4  -1374578.125 4  -1041847.33648  23568350.32048
  21930563.570 6    633120.129 6    472812.41047  21930560.44547
  20569634.289 6   -300447.629 6   -225799.05548  20569630.18448
  24794213.141 2   -471200.109 2   -348752.76645  24794213.79745
  24316361.633 4   -334741.887 4   -245897.31346  24316359.25046
  21074543.336 6    166342.086 6    124706.94149  21074543.36349
  21256983.672 6  -1274774.824 6   -951745.10949  21256982.39549
  21707773.586 6    -16576.445 6    -22782.35949  21707770.84049
  24012488.836 3    788715.434 3    596162.71546  24012489.98046
 20  5 16  0  8 17.0000000  0 10G03G04G08G14G16G21G26G27G31G32      -0.000238724
  24347301.305 3    182059.164 3    129479.72347  24347301.74247
  22564021.445 6  -1143964.727 6   -844061.35247  22564019.88347
  23567458.648 3  -1379259.285 3  -1045494.98848  23567459.36348
  21930934.961 6    635070.883 6    474332.47747  21930931.79347
  20569469.320 6   -301315.734 6   -226475.50048  20569465.05148
  24316098.469 4   -336122.105 4   -246972.80946  24316096.90646
  21074639.859 6    166849.121 6    125102.03149  21074639.87149
  21256264.945 7  -1278552.012 7   -954688.37149  21256263.78549
  21707759.648 6    -16650.254 6    -22839.86749  21707756.56649
  24013001.320 3    791411.516 3    598263.55946  24013002.94546
 20  5 16  0  8 18.0000000  0 10G03G04G08G14G16G21G26G27G31G32      -0.000239349
  24347413.664 3    182651.453 3    129941.24647  24347414.51647
  22563333.508 6  -1147580.402 6   -846878.75847  22563331.65647
  23566567.789 4  -1383940.441 4  -1049142.64148  23566568.62548
  21931306.266 6    637021.863 6    475852.72747  21931302.60547
  20569304.016 6   -302183.594 6   -227151.75448  20569299.89848
  24315836.047 4   -337502.063 4   -248048.10246  24315834.08246
  21074736.297 6    167356.160 6    125497.12549  21074736.68049
  21255546.383 7  -1282328.863 7   -957631.37149  21255545.05149
  21707745.992 6    -16723.965 6    -22897.30949  21707742.62549
  24013514.531 3    794107.484 3    600364.29746  24013516.12146
 20  5 16  0  8 19.0000000  0 10G03G04G08G14G16G21G26G27G31G32      -0.000239975
  24347526.367 3    183243.852 3    130402.85547  24347526.90247
  22562645.875 5  -1151195.734 5   -849695.89547  22562643.68847
  23565677.227 3  -1388621.500 3  -1052790.21948  23565677.80948
  21931677.906 6    638973.180 6    477373.22347  21931674.12147
  20569139.039 6   -303051.164 6   -227827.78548  20569135.03148
  24315573.234 4   -338881.742 4   -249123.17646  24315571.71146
  21074832.914 6    167863.266 6    125892.26649  21074833.03549
  21254827.352 7  -1286105.301 7   -960574.05149  21254826.46549
  21707731.945 6    -16797.539 6    -22954.64149  21707728.42249
  24014027.914 3    796803.582 3    602465.14146  24014029.13346
 20  5 16  0  8 20.0000000  0 10G03G04G08G14G16G21G26G27G31G32      -0.000240601
  24347639.398 3    183836.453 3    130864.62547  24347639.71147
  22561957.305 5  -1154810.730 5   -852512.77347  22561955.80147
  23564786.500 4  -1393302.480 4  -1056437.73448  23564786.89148
  21932049.063 6    640924.816 6    478893.98447  21932045.00847
  20568973.984 6   -303918.414 6   -228503.56348  20568969.98848
  24315310.867 4   -340261.160 4   -250198.05946  24315309.12146
  21074929.250 6    168370.484 6    126287.50449  21074929.34049
  21254108.883 7  -1289881.336 7   -963516.41849  21254107.87949
  21707717.781 6    -16870.930 6    -23011.82449  21707714.81649
  24014540.633 3    799499.652 3    604565.98046  24014542.00846
 20  5 16  0  8 21.0000000  0 10G03G04G08G14G16G21G26G27G31G32      -0.000241228
  24347751.906 3    184429.172 3    131326.48047  24347752.50047
  22561269.758 5  -1158425.348 5   -855329.36747  22561267.75447
  23563895.750 4  -1397983.332 4  -1060085.15648  23563896.03548
  21932420.367 6    642876.773 6    480414.98447  21932417.22347
  20568809.188 6   -304785.363 6   -229179.11348  20568804.95348
  24315048.422 4   -341640.242 4   -251272.66046  24315046.90246
  21075025.891 6    168877.758 6    126682.77749  21075026.24649
  21253390.461 6  -1293656.949 6   -966458.45749  21253389.39849
  21707703.797 6    -16944.133 6    -23068.86749  21707700.82849
  24015053.398 3    802195.758 3    606666.82046  24015055.17646
 20  5 16  0  8 22.0000000  0 10G03G04G08G14G16G21G26G27G31G32      -0.000241854
  24347864.516 3    185022.145 3    131788.53147  24347865.34047
  22560582.055 5  -1162039.543 5   -858145.62147  22560579.98447
  23563005.367 4  -1402664.016 4  -1063732.44948  23563005.34048
  21932792.008 6    644829.125 6    481936.29347  21932788.29347
  20568643.906 6   -305651.934 6   -229854.36748  20568640.17248
  24314785.789 4   -343018.926 4   -252346.97746  24314784.21546
  21075122.648 6    169385.199 6    127078.18849  21075122.66049
  21252672.219 6  -1297432.070 6   -969400.11349  21252671.12549
  21707690.047 6    -17017.090 6    -23125.71949  21707686.60549
  24015567.398 3    804892.043 3    608767.82846  24015568.21546
 20  5 16  0  8 23.0000000  0 10G03G04G08G14G16G21G26G27G31G32      -0.000242479
  24347977.938 3    185615.250 3    132250.69947  24347978.25847
  22559894.695 5  -1165653.461 5   -860961.66047  22559892.77347
  23562114.063 4  -1407344.680 4  -1067379.72348  23562114.82448
  21933163.250 6    646781.754 6    483457.82847  21933160.02347
  20568479.109 6   -306518.254 6   -230529.41448  20568475.12148
  24314523.750 4   -344397.410 4   -253421.10946  24314522.19546
  21075218.797 6    169892.672 6    127473.62549  21075219.02349
  21251953.969 6  -1301206.828 6   -972341.48049  21251953.02749
  21707676.516 6    -17089.949 6    -23182.49249  21707672.78149
  24016080.211 4    807588.250 4    610868.76646  24016081.48046
 20  5 16  0  8 24.0000000  0 10G03G04G08G14G16G21G26G27G31G32      -0.000243105
  24348091.102 3    186208.637 3    132713.06647  24348090.84447
  22559206.930 5  -1169266.887 5   -863777.31647  22559205.20747
  23561224.109 3  -1412025.031 3  -1071026.75048  23561224.28948
  21933534.922 6    648734.852 6    484979.72347  21933531.80547
  20568314.672 6   -307384.102 6   -231204.10548  20568310.55948
  24314261.734 3   -345775.418 3   -254494.89146  24314260.08646
  21075315.172 6    170400.395 6    127869.24649  21075315.41449
  21251235.461 6  -1304981.039 6   -975282.42649  21251234.58249
  21707661.867 6    -17162.477 6    -23239.00849  21707658.84049
  24016593.016 3    810284.668 3    612969.87146  24016594.86346
 20  5 16  0  8 25.0000000  0 10G03G04G08G14G16G21G26G27G31G32      -0.000243731
  24348203.531 3    186802.141 3    133175.53947  24348204.32047
  22558519.234 5  -1172879.988 5   -866592.71947  22558517.73447
  23560333.023 3  -1416705.379 3  -1074673.76648  23560333.61348
  21933906.719 6    650688.227 6    486501.83247  21933903.37547
  20568149.781 6   -308249.703 6   -231878.60548  20568145.46948
  24313999.344 4   -347153.168 4   -255568.46546  24313997.64146
  21075412.273 6    170908.152 6    128264.90249  21075412.15649
  21250517.188 6  -1308754.875 6   -978223.07449  21250516.41449
  21707648.563 6    -17234.895 6    -23295.44149  21707645.30149
  24017106.563 3    812981.094 3    615070.99246  24017107.41046
 20  5 16  0  8 26.0000000  0 10G03G04G08G14G16G21G26G27G31G32      -0.000244358
  24348315.898 3    187395.797 3    133638.12947  24348317.01247
  22557831.898 5  -1176492.754 5   -869407.86347  22557829.85247
  23559442.695 4  -1421385.621 4  -1078320.71148  23559442.69948
  21934278.742 6    652641.945 6    488024.19947  21934275.32847
  20567985.031 6   -309114.980 6   -232552.84848  20567981.14148
  24313736.719 4   -348530.605 4   -256641.79746  24313735.48446
  21075508.859 6    171415.980 6    128660.61349  21075509.09849
  21249799.016 6  -1312528.277 6   -981163.38349  21249798.30149
  21707635.180 6    -17307.125 6    -23351.73049  21707631.90649
  24017619.570 3    815677.547 3    617172.12546  24017620.90246
 20  5 16  0  8 27.0000000  0 10G03G04G08G14G16G21G26G27G31G32      -0.000244984
  24348428.719 3    187989.543 3    134100.79347  24348430.25047
  22557144.016 5  -1180105.266 5   -872222.80547  22557142.84447
  23558552.148 3  -1426065.816 3  -1081967.61748  23558552.15248
  21934650.438 6    654595.895 6    489546.76247  21934646.98047
  20567820.359 6   -309980.059 6   -233226.93448  20567816.35948
  24313474.711 4   -349907.824 4   -257714.95346  24313473.91046
  21075605.578 6    171923.832 6    129056.34449  21075605.58649
  21249081.039 6  -1316301.336 6   -984103.43049  21249080.18449
  21707621.227 6    -17379.285 6    -23407.95749  21707617.77749
  24018132.477 4    818373.941 4    619273.18446  24018134.23846
 20  5 16  0  8 28.0000000  0 10G03G04G08G14G16G21G26G27G31G32      -0.000245609
  24348542.320 3    188583.516 3    134563.62947  24348543.03947
  22556456.938 5  -1183717.340 5   -875037.40647  22556454.93047
  23557661.453 3  -1430745.844 3  -1085614.39148  23557661.27048
  21935022.477 6    656550.230 6    491069.61747  21935018.74647
  20567656.070 6   -310844.762 6   -233900.72748  20567652.37148
  24313213.141 4   -351284.699 4   -258787.85246  24313211.32446
  21075702.477 6    172431.820 6    129452.17649  21075702.15649
  21248363.305 6  -1320073.953 6   -987043.13349  21248362.38349
  21707607.750 6    -17451.215 6    -23464.00849  21707604.37549
  24018645.492 3    821070.445 3    621374.35546  24018646.99246
 20  5 16  0  8 29.0000000  0 10G03G04G08G14G16G21G26G27G31G32      -0.000246237
  24348655.563 3    189177.594 3    135026.54747  24348656.24247
  22555769.586 6  -1187329.137 6   -877851.78547  22555767.91447
  23556770.047 3  -1435425.828 3  -1089261.12948  23556771.27748
  21935394.359 6    658504.840 6    492592.69147  21935391.03547
  20567491.328 6   -311709.180 6   -234574.30148  20567487.25048
  24312950.938 4   -352661.313 4   -259860.54746  24312949.75846
  21075799.375 6    172939.844 6    129848.03149  21075798.96149
  21247645.438 6  -1323846.184 6   -989982.53549  21247644.68449
  21707593.406 6    -17523.004 6    -23519.94149  21707590.30149
  24019159.031 3    823766.965 3    623475.53946  24019159.78546
 20  5 16  0  8 30.0000000  0 10G03G04G08G14G16G21G26G27G31G32      -0.000246862
  24348768.188 3    189771.902 3    135489.64147  24348769.48447
  22555082.594 5  -1190940.496 5   -880665.83647  22555080.78947
  23555879.586 3  -1440105.645 3  -1092907.73048  23555880.58648
  21935765.898 6    660459.840 6    494116.07047  21935763.13347
  20567327.016 6   -312573.246 6   -235247.60248  20567322.76648
  24312688.484 3   -354037.555 3   -260932.94946  24312687.95346
  21075895.813 6    173448.016 6    130244.01249  21075895.86749
  21246927.586 6  -1327617.926 6   -992921.55549  21246926.67649
  21707580.094 6    -17594.555 6    -23575.69949  21707577.02749
  24019671.914 4    826463.563 4    625576.77746  24019673.16046
 20  5 16  0  8 31.0000000  0 10G03G04G08G14G16G21G26G27G31G32      -0.000247488
  24348881.102 3    190366.340 3    135952.84047  24348881.91447
  22554394.563 6  -1194551.582 6   -883479.66447  22554393.33247
  23554989.523 3  -1444785.449 3  -1096554.32848  23554990.12948
  21936138.219 6    662415.102 6    495639.64547  21936135.38747
  20567162.430 6   -313437.055 6   -235920.70348  20567158.50848
  24312426.688 4   -355413.570 4   -262005.16446  24312425.96146
  21075992.398 6    173956.219 6    130640.01249  21075992.55549
  21246210.078 6  -1331389.313 6   -995860.29749  21246209.17249
  21707566.953 6    -17666.012 6    -23631.38349  21707563.07049
  24020184.695 4    829160.164 4    627678.02046  24020186.43046
 20  5 16  0  8 32.0000000  0 10G03G04G08G14G16G21G26G27G31G32      -0.000248116
  24348994.742 3    190960.906 3    136416.12947  24348995.46147
  22553708.180 6  -1198162.281 6   -886293.20347  22553706.49647
  23554099.281 3  -1449465.066 3  -1100200.78148  23554099.76648
  21936510.719 6    664370.750 6    497163.53547  21936507.14847
  20566998.359 6   -314300.520 6   -236593.53148  20566994.32048
  24312165.367 4   -356789.234 4   -263077.10246  24312164.05546
  21076089.266 6    174464.563 6    131036.12549  21076089.23849
  21245492.344 6  -1335160.250 6   -998798.68849  21245491.41049
  21707553.469 6    -17737.270 6    -23686.90249  21707550.18449
  24020698.078 4    831856.840 4    629779.31646  24020699.53146
 20  5 16  0  8 33.0000000  0 10G03G04G08G14G16G21G26G27G31G32      -0.000248741
  24349108.148 3    191555.641 3    136879.55547  24349108.71547
  22553021.031 5  -1201772.660 5   -889106.48447  22553019.30947
  23553208.867 3  -1454144.637 3  -1103847.19148  23553209.38748
  21936882.906 6    666326.637 6    498687.59447  21936879.48047
  20566834.445 6   -315163.723 6   -237266.16048  20566830.02048
  24311904.008 4   -358164.668 4   -264148.87546  24311902.34046
  21076185.539 6    174972.906 6    131432.23449  21076185.84449
  21244774.906 6  -1338930.828 6  -1001736.79749  21244774.03549
  21707539.633 6    -17808.395 6    -23742.32849  21707536.49649
  24021211.180 3    834553.457 3    631880.57046  24021212.53546
 20  5 16  0  8 34.0000000  0 10G03G04G08G14G16G21G26G27G31G32      -0.000249367
  24349220.680 3    192150.535 3    137343.10247  24349221.86347
  22552333.656 6  -1205382.707 6   -891919.51647  22552332.32847
  23552318.055 3  -1458824.121 3  -1107493.54348  23552319.00448
  21937254.523 6    668282.863 6    500211.92647  21937251.72747
  20566669.742 6   -316026.613 6   -237938.54348  20566665.96148
  24311642.211 4   -359539.750 4   -265220.37146  24311640.39546
  21076282.273 6    175481.367 6    131828.44149  21076282.41449
  21244057.680 6  -1342700.980 6  -1004674.57849  21244056.62949
  21707525.898 6    -17879.355 6    -23797.62149  21707522.95349
  24021724.906 4    837250.137 4    633981.87546  24021726.57446
 20  5 16  0  8 35.0000000  0 10G03G04G08G14G16G21G26G27G31G32      -0.000249994
  24349334.758 4    192745.441 4    137806.66447  24349334.93047
  22551647.156 5  -1208992.516 5   -894732.35247  22551645.55547
  23551427.438 3  -1463503.633 3  -1111139.91448  23551428.18048
  21937626.906 6    670239.289 6    501736.41047  21937623.66047
  20566505.945 6   -316889.316 6   -238610.77748  20566501.87148
  24311380.453 4   -360914.699 4   -266291.77046  24311379.07846
  21076379.391 6    175989.777 6    132224.60949  21076379.21149
  21243340.352 6  -1346470.828 6  -1007612.12149  21243339.62949
  21707512.281 6    -17950.266 6    -23852.87549  21707509.39549
  24022237.969 4    839946.742 4    636083.10946  24022239.16046
 20  5 16  0  8 36.0000000  0 10G03G04G08G14G16G21G26G27G31G32      -0.000250620
  24349448.070 4    193340.520 4    138270.35947  24349448.07847
  22550960.227 5  -1212601.949 5   -897544.89547  22550958.23447
  23550537.078 3  -1468182.953 3  -1114786.13748  23550537.39148
  21937999.539 6    672196.098 6    503261.19147  21937996.51247
  20566341.555 6   -317751.680 6   -239282.75448  20566337.43448
  24311119.078 4   -362289.285 4   -267362.87946  24311117.69946
  21076475.961 6    176498.309 6    132620.85949  21076475.79749
  21242622.914 6  -1350240.242 6  -1010549.32849  21242622.03949
  21707498.992 6    -18020.957 6    -23907.96149  21707495.74649
  24022751.125 4    842643.426 4    638184.44546  24022752.41846
 20  5 16  0  8 37.0000000  0 10G03G04G08G14G16G21G26G27G31G32      -0.000251247
  24349561.313 4    193935.895 4    138734.29347  24349561.52747
  22550273.617 5  -1216210.934 5   -900357.09047  22550271.63747
  23549647.172 3  -1472862.145 3  -1118432.26248  23549646.88348
  21938372.531 6    674153.277 6    504786.27047  21938368.81347
  20566177.539 6   -318613.668 6   -239954.43448  20566173.57048
  24310857.031 4   -363663.484 4   -268433.68446  24310856.12146
  21076572.906 6    177007.012 6    133017.25049  21076572.58649
  21241905.656 6  -1354009.129 6  -1013486.12549  21241904.73049
  21707485.813 6    -18091.406 6    -23962.85549  21707482.55149
  24023264.156 4    845340.258 4    640285.87546  24023265.59446
 20  5 16  0  8 38.0000000  0 10G03G04G08G14G16G21G26G27G31G32      -0.000251873
  24349674.750 4    194531.418 4    139198.34047  24349674.91447
  22549587.055 6  -1219819.516 6   -903168.97747  22549585.35247
  23548756.570 3  -1477541.184 3  -1122078.26248  23548756.46548
  21938744.563 6    676110.836 6    506311.63347  21938741.34047
  20566013.594 6   -319475.285 6   -240625.82048  20566009.72348
  24310596.492 4   -365037.336 4   -269504.20746  24310594.55146
  21076669.969 6    177515.840 6    133413.73849  21076669.54349
  21241188.719 6  -1357777.574 6  -1016422.57849  21241187.76649
  21707472.180 6    -18161.652 6    -24017.59049  21707469.02749
  24023777.922 4    848037.117 4    642387.32846  24023778.84846
 20  5 16  0  8 39.0000000  0 10G03G04G08G14G16G21G26G27G31G32      -0.000252501
  24349787.984 3    195127.117 3    139662.52747  24349788.32447
  22548899.898 6  -1223427.805 6   -905980.63747  22548898.22747
  23547865.867 3  -1482220.109 3  -1125724.17648  23547866.50848
  21939116.961 6    678068.680 6    507837.23447  21939113.90247
  20565849.383 6   -320336.641 6   -241297.00848  20565845.69548
  24310334.742 4   -366410.914 4   -270574.52046  24310333.32046
  21076766.930 6    178024.711 6    133810.26649  21076766.42649
  21240471.906 6  -1361545.621 6  -1019358.72349  21240470.74249
  21707458.852 6    -18231.758 6    -24072.22349  21707455.60549
  24024290.508 4    850733.977 4    644488.77046  24024292.13346
 20  5 16  0  8 40.0000000  0 10G03G04G08G14G16G21G26G27G31G32      -0.000253126
  24349901.063 3    195723.000 3    140126.84847  24349901.25047
  22548213.539 6  -1227035.688 6   -908791.96947  22548212.17247
  23546976.195 3  -1486898.914 3  -1129370.00448  23546975.90648
  21939489.820 6    680026.922 6    509363.13347  21939486.76647
  20565685.906 6   -321197.633 6   -241967.91448  20565681.79348
  24310073.820 4   -367784.102 4   -271644.54746  24310071.81646
  21076863.539 6    178533.754 6    134206.92649  21076863.11349
  21239754.930 7  -1365313.195 7  -1022294.49249  21239753.83649
  21707445.891 6    -18301.637 6    -24126.67249  21707442.89849
  24024803.453 4    853430.980 4    646590.32046  24024805.30946
 20  5 16  0  8 41.0000000  0 10G03G04G08G14G16G21G26G27G31G32      -0.000253754
  24350014.367 3    196319.141 3    140591.37147  24350014.89847
  22547526.969 6  -1230643.145 6   -911602.97347  22547525.04747
  23546085.656 3  -1491577.563 3  -1133015.70348  23546085.23048
  21939862.867 6    681985.551 6    510889.34047  21939859.18847
  20565522.195 6   -322058.258 6   -242638.52748  20565517.99648
  24309811.680 4   -369156.957 4   -272714.29746  24309810.64546
  21076960.391 6    179042.926 6    134603.68049  21076960.11749
  21239037.711 6  -1369080.313 6  -1025229.91049  21239036.60949
  21707432.664 6    -18371.266 6    -24180.93049  21707429.44549
  24025316.945 4    856128.051 4    648691.93446  24025318.63346
 20  5 16  0  8 42.0000000  0 10G03G04G08G14G16G21G26G27G31G32      -0.000254379
  24350127.758 3    196915.391 3    141055.97747  24350128.61747
  22546841.086 6  -1234250.258 6   -914413.70747  22546839.03547
  23545194.922 3  -1496256.090 3  -1136661.30948  23545194.65248
  21940235.125 6    683944.461 6    512415.75847  21940232.09447
  20565358.500 6   -322918.586 6   -243308.91448  20565354.39148
  24309551.133 4   -370529.539 4   -273783.84846  24309549.70346
  21077057.234 6    179552.164 6    135000.48849  21077057.07049
  21238320.891 7  -1372847.004 7  -1028164.99249  21238319.90649
  21707419.258 6    -18440.746 6    -24235.07449  21707416.04749
  24025830.641 4    858825.180 4    650793.57846  24025832.25046
 20  5 16  0  8 43.0000000  0 10G03G04G08G14G16G21G26G27G31G32      -0.000255007
  24350241.227 2    197511.813 2    141520.71947  24350242.18047
  22546154.313 6  -1237857.055 6   -917224.19947  22546152.65247
  23544304.492 3  -1500934.547 3  -1140306.85948  23544304.82848
  21940608.594 6    685903.695 6    513942.43847  21940604.72347
  20565194.742 6   -323778.605 6   -243979.05948  20565190.44948
  24309290.367 4   -371901.773 4   -274853.10946  24309288.02046
  21077154.406 6    180061.477 6    135397.35249  21077153.98849
  21237604.570 6  -1376613.281 6  -1031099.75849  21237603.48049
  21707406.070 6    -18510.090 6    -24289.10949  21707402.90249
  24026343.820 4    861522.324 4    652895.24246  24026345.35546
 20  5 16  0  8 44.0000000  0 10G03G04G08G14G16G21G26G27G31G32      -0.000255634
  24350354.719 2    198108.324 2    141985.53147  24350355.91447
  22545468.359 6  -1241463.516 6   -920034.42647  22545466.59847
  23543414.953 3  -1505612.938 3  -1143952.35548  23543414.27748
  21940981.438 6    687863.215 6    515469.33647  21940977.94947
  20565030.969 6   -324638.359 6   -244649.00448  20565027.27348
  24309029.117 4   -373273.820 4   -275922.23846  24309027.43446
  21077250.938 6    180570.840 6    135794.25849  21077250.78149
  21236887.500 7  -1380379.207 7  -1034034.24249  21236886.73449
  21707392.711 6    -18579.270 6    -24343.01649  21707389.88349
  24026856.445 4    864219.453 4    654996.90646  24026858.28146
 20  5 16  0  8 45.0000000  0 10G03G04G08G14G16G21G26G27G31G32      -0.000256260
  24350468.383 2    198705.039 2    142450.50447  24350469.02747
  22544782.008 5  -1245069.613 5   -922844.37147  22544779.93047
  23542524.508 4  -1510291.191 4  -1147597.74648  23542524.09448
  21941354.031 6    689823.094 6    516996.51647  21941350.92247
  20564867.656 6   -325497.785 6   -245318.68448  20564863.51648
  24308767.891 4   -374645.469 4   -276991.05146  24308765.95346
  21077348.375 6    181080.340 6    136191.27349  21077347.83649
  21236171.000 6  -1384144.668 6  -1036968.36749  21236170.06649
  21707379.781 6    -18648.266 6    -24396.78149  21707376.60949
  24027370.000 4    866916.652 4    657098.60946  24027371.64146
 20  5 16  0  8 46.0000000  0 10G03G04G08G14G16G21G26G27G31G32      -0.000256887
  24350582.086 2    199301.875 2    142915.57447  24350582.71947
  22544095.961 5  -1248675.441 5   -925654.11347  22544094.18447
  23541633.992 4  -1514969.387 4  -1151243.09448  23541633.80948
  21941727.297 6    691783.238 6    518523.89847  21941723.67647
  20564704.047 6   -326356.969 6   -245988.17248  20564700.22748
  24308507.273 4   -376016.895 4   -278059.71546  24308505.24646
  21077445.234 6    181589.824 6    136588.27049  21077444.93049
  21235454.883 6  -1387909.777 6  -1039902.22349  21235453.50049
  21707366.430 6    -18717.148 6    -24450.45749  21707363.68049
  24027882.875 4    869613.828 4    659200.28946  24027885.28146
 20  5 16  0  8 47.0000000  0 10G03G04G08G14G16G21G26G27G31G32      -0.000257513
  24350695.953 2    199898.773 2    143380.68847  24350696.13347
  22543409.383 5  -1252280.977 5   -928463.62147  22543408.28147
  23540744.531 4  -1519647.555 4  -1154888.42648  23540744.00848
  21942100.188 6    693743.602 6    520051.44947  21942096.85947
  20564540.773 6   -327215.930 6   -246657.49648  20564536.82448
  24308246.016 4   -377388.102 4   -279128.18846  24308244.05146
  21077542.133 6    182099.313 6    136985.27349  21077541.72349
  21234738.570 6  -1391674.566 6  -1042835.82449  21234737.18049
  21707353.750 6    -18785.973 6    -24504.08649  21707350.72749
  24028396.938 5    872310.969 5    661301.95746  24028397.93846
 20  5 16  0  8 48.0000000  0 10G03G04G08G14G16G21G26G27G31G32      -0.000258141
  24350809.078 2    200495.844 2    143845.93847  24350810.12547
  22542723.461 6  -1255886.152 6   -931272.84847  22542721.89147
  23539854.469 4  -1524325.590 4  -1158533.64848  23539853.72348
  21942473.297 6    695704.324 6    521579.28547  21942470.15647
  20564376.930 6   -328074.559 6   -247326.55948  20564373.22748
  24307985.359 4   -378759.004 4   -280196.40645  24307982.78545
  21077638.547 6    182608.926 6    137382.37149  21077638.73849
  21234022.102 6  -1395438.863 6  -1045769.04349  21234021.02049
  21707340.563 6    -18854.570 6    -24557.53949  21707337.46149
  24028910.383 4    875008.137 4    663403.65646  24028911.42246
 20  5 16  0  8 49.0000000  0 10G03G04G08G14G16G21G26G27G31G32      -0.000258768
  24350923.469 2    201093.008 2    144311.25447  24350923.46947
  22542037.719 5  -1259491.004 5   -934081.81647  22542036.11347
  23538963.063 4  -1529003.594 4  -1162178.85248  23538963.71148
  21942846.531 6    697665.309 6    523107.32447  21942843.28147
  20564213.852 6   -328932.949 6   -247995.43848  20564209.83248
  24307724.664 4   -380129.621 4   -281264.43045  24307722.03545
  21077735.750 6    183118.559 6    137779.48849  21077735.87549
  21233305.977 6  -1399202.867 6  -1048702.03549  21233304.68449
  21707327.422 6    -18923.066 6    -24610.91849  21707324.37149
  24029422.797 4    877705.313 4    665505.34846  24029424.71946
 20  5 16  0  8 50.0000000  0 10G03G04G08G14G16G21G26G27G31G32      -0.000259394
  24351036.422 2    201690.281 2    144776.65647  24351037.23447
  22541350.766 5  -1263095.555 5   -936890.56347  22541350.11347
  23538072.555 4  -1533681.523 4  -1165823.98448  23538073.59848
  21943219.867 6    699626.578 6    524635.59047  21943216.22747
  20564051.016 6   -329791.035 6   -248664.07848  20564046.79748
  24307464.117 4   -381499.984 4   -282332.24245  24307461.53145
  21077832.938 6    183628.250 6    138176.65249  21077832.82849
  21232589.539 6  -1402966.441 6  -1051634.68849  21232588.37949
  21707314.617 6    -18991.422 6    -24664.17649  21707311.11349
  24029936.008 4    880402.512 4    667607.05146  24029937.90246
 20  5 16  0  8 51.0000000  0 10G03G04G08G14G16G21G26G27G31G32      -0.000260021
  24351150.289 3    202287.750 3    145242.21947  24351150.66847
  22540665.492 5  -1266699.734 5   -939699.00847  22540664.45347
  23537182.992 4  -1538359.332 4  -1169469.03148  23537183.11748
  21943592.789 6    701588.199 6    526164.12947  21943589.63747
  20563887.133 6   -330648.816 6   -249332.47748  20563883.73048
  24307202.813 4   -382870.043 4   -283399.82845  24307200.44145
  21077929.570 6    184138.031 6    138573.88749  21077929.88749
  21231873.484 6  -1406729.598 6  -1054567.01649  21231872.30549
  21707301.500 6    -19059.617 6    -24717.31649  21707298.56349
  24030449.695 5    883099.715 5    669708.78946  24030451.14546
 20  5 16  0  8 52.0000000  0 10G03G04G08G14G16G21G26G27G31G32      -0.000260649
  24351264.711 2    202885.477 2    145707.98047  24351264.30147
  22539980.273 5  -1270303.500 5   -942507.14547  22539978.27047
  23536293.508 4  -1543036.945 4  -1173113.92248  23536293.22348
  21943966.250 6    703550.219 6    527692.96947  21943962.83647
  20563724.289 6   -331506.223 6   -250000.57848  20563720.40248
  24306942.328 4   -384239.719 4   -284467.10246  24306939.68846
  21078026.750 6    184647.977 6    138971.24649  21078026.91049
  21231157.195 6  -1410492.266 6  -1057498.96549  21231156.53149
  21707288.758 6    -19127.543 6    -24770.24649  21707285.46549
  24030962.672 4    885797.059 4    671810.60546  24030964.30546
 20  5 16  0  8 53.0000000  0 10G03G04G08G14G16G21G26G27G31G32      -0.000261276
  24351378.297 3    203483.422 3    146173.91447  24351378.10947
  22539294.367 5  -1273906.805 5   -945314.91847  22539292.52747
  23535403.219 4  -1547714.379 4  -1176758.68048  23535403.32448
  21944339.883 6    705512.641 6    529222.12147  21944336.55947
  20563561.063 6   -332363.203 6   -250668.36348  20563557.02748
  24306681.305 3   -385608.977 3   -285534.05946  24306679.04346
  21078124.375 6    185158.102 6    139368.74249  21078124.06349
  21230441.281 6  -1414254.402 6  -1060430.50049  21230440.52049
  21707275.719 6    -19195.203 6    -24822.96949  21707272.61349
  24031476.359 4    888494.496 4    673912.47746  24031477.80546
 20  5 16  0  8 54.0000000  0 10G03G04G08G14G16G21G26G27G31G32      -0.000261902
  24351491.906 3    204081.328 3    146639.81347  24351492.17647
  22538608.727 5  -1277509.984 5   -948122.59447  22538606.87147
  23534512.461 4  -1552391.910 4  -1180403.51248  23534513.63748
  21944712.914 6    707475.191 6    530751.38747  21944710.04347
  20563397.992 6   -333220.105 6   -251336.07848  20563394.15248
  24306421.234 3   -386978.148 3   -286600.94546  24306418.81646
  21078221.094 6    185668.078 6    139766.13349  21078221.10249
  21229725.586 6  -1418016.363 6  -1063361.90249  21229724.75449
  21707263.164 6    -19262.938 6    -24875.75049  21707259.89549
  24031989.602 4    891191.820 4    676014.28546  24031990.79346
 20  5 16  0  8 55.0000000  0 10G03G04G08G14G16G21G26G27G31G32      -0.000262529
  24351605.875 3    204679.309 3    147105.76647  24351605.74247
  22537923.398 5  -1281112.844 5   -950930.01247  22537921.16447
  23533622.633 4  -1557069.438 4  -1184048.33248  23533623.45748
  21945086.445 6    709438.004 6    532280.84447  21945083.59047
  20563235.227 6   -334076.758 6   -252003.60548  20563230.96148
  24306160.523 3   -388347.074 3   -287667.65646  24306157.83646
  21078318.172 6    186178.137 6    140163.57449  21078318.07049
  21229009.414 6  -1421777.906 6  -1066292.98049  21229008.64149
  21707249.867 6    -19330.484 6    -24928.38349  21707247.30949
  24032502.570 4    893889.078 4    678116.06346  24032504.38346
 20  5 16  0  8 56.0000000  0 10G03G04G08G14G16G21G26G27G31G32      -0.000263157
  24351719.383 3    205277.617 3    147571.98447  24351719.51647
  22537237.531 6  -1284715.230 6   -953737.06647  22537235.55147
  23532732.594 4  -1561746.723 4  -1187692.96548  23532733.18848
  21945459.922 6    711401.258 6    533810.65247  21945456.94947
  20563072.172 6   -334932.961 6   -252670.77048  20563068.20748
  24305900.430 3   -389715.551 3   -288733.99646  24305897.64846
  21078414.875 6    186688.363 6    140561.15649  21078415.14849
  21228294.195 6  -1425538.930 6  -1069223.64549  21228292.87949
  21707237.594 6    -19397.785 6    -24980.82449  21707233.98449
  24033015.547 4    896586.551 4    680217.98046  24033017.35246
 20  5 16  0  8 57.0000000  0 10G03G04G08G14G16G21G26G27G31G32      -0.000263784
  24351833.570 3    205876.070 3    148038.31347  24351833.17647
  22536552.375 5  -1288317.250 5   -956543.83647  22536550.04347
  23531842.664 4  -1566423.891 4  -1191337.50448  23531843.18448
  21945833.602 6    713364.855 6    535340.72347  21945831.18447
  20562909.180 6   -335788.863 6   -253337.70748  20562905.32848
  24305639.461 3   -391083.711 3   -289800.08646  24305636.90646
  21078512.266 6    187198.676 6    140958.80149  21078512.53149
  21227578.641 6  -1429299.539 6  -1072153.98849  21227577.43049
  21707224.469 6    -19464.906 6    -25033.13349  21707221.47349
  24033528.906 4    899284.020 4    682319.90246  24033530.71146
 20  5 16  0  8 58.0000000  0 10G03G04G08G14G16G21G26G27G31G32      -0.000264412
  24351948.180 3    206474.656 3    148504.73447  24351947.19547
  22535867.258 6  -1291918.977 6   -959350.37547  22535865.14147
  23530952.383 4  -1571100.988 4  -1194981.99248  23530953.32448
  21946207.688 6    715328.727 6    536871.00847  21946204.33647
  20562746.320 6   -336644.496 6   -254004.43448  20562742.48448
  24305379.945 3   -392451.617 3   -290865.97746  24305377.16446
  21078609.156 6    187709.066 6    141356.50449  21078609.27749
  21226863.219 6  -1433059.746 6  -1075084.02349  21226861.82849
  21707211.539 6    -19531.863 6    -25085.30949  21707208.63749
  24034043.094 4    901981.512 4    684421.83646  24034044.18846
 20  5 16  0  8 59.0000000  0 10G03G04G08G14G16G21G26G27G31G32      -0.000265039
  24352061.313 3    207073.371 3    148971.25847  24352061.14147
  22535181.328 5  -1295520.336 5   -962156.62947  22535179.28547
  23530062.656 4  -1575778.031 4  -1198626.44148  23530063.01648
  21946581.383 6    717292.922 6    538401.55147  21946578.52347
  20562583.727 6   -337499.832 6   -254670.93448  20562579.83248
  24305119.344 4   -393819.223 4   -291931.64146  24305116.43846
  21078706.703 6    188219.547 6    141754.28149  21078706.35949
  21226147.547 6  -1436819.551 6  -1078013.73449  21226146.30149
  21707198.984 6    -19598.695 6    -25137.38749  21707195.98449
  24034556.102 4    904679.031 4    686523.78946  24034557.63346
 20  5 16  0  9  0.0000000  0 10G03G04G08G14G16G21G26G27G31G32      -0.000265667
  24352174.547 3    207672.160 3    149437.84047  24352174.98847
  22534495.867 6  -1299121.434 6   -964962.68047  22534493.80147
  23529172.516 4  -1580454.957 4  -1202270.80148  23529172.96548
  21946955.016 6    719257.363 6    539932.28547  21946951.93447
  20562421.180 6   -338354.922 6   -255337.24248  20562416.95748
  24304859.078 3   -395186.605 3   -292997.12146  24304856.03146
  21078803.648 6    188730.016 6    142152.05149  21078803.33249
  21225432.273 6  -1440579.012 6  -1080943.18849  21225431.11749
  21707186.422 6    -19665.410 6    -25189.37149  21707183.32049
  24035069.773 4    907376.543 4    688625.75046  24035071.22346
 20  5 16  0  9  1.0000000  0 10G03G04G08G14G16G21G26G27G31G32      -0.000266294
  24352288.734 3    208271.133 3    149904.57047  24352289.11747
  22533810.883 6  -1302722.195 6   -967768.46947  22533808.66847
  23528282.477 4  -1585131.852 4  -1205915.13348  23528282.82448
  21947328.539 6    721222.113 6    541463.25847  21947325.91047
  20562258.219 6   -339209.719 6   -256003.31648  20562254.12148
  24304599.031 3   -396553.703 3   -294062.39546  24304596.15246
  21078900.664 6    189240.543 6    142549.85949  21078900.68849
  21224716.656 6  -1444338.047 6  -1083872.30149  21224715.66449
  21707173.563 6    -19731.961 6    -25241.23049  21707170.82449
  24035582.625 4    910074.000 4    690727.65246  24035584.11746
 20  5 16  0  9  2.0000000  0 10G03G04G08G14G16G21G26G27G31G32      -0.000266922
  24352403.680 3    208870.219 3    150371.39147  24352403.07847
  22533125.484 6  -1306322.641 6   -970574.00847  22533123.94147
  23527392.898 4  -1589808.625 4  -1209559.37148  23527392.85948
  21947702.914 6    723187.148 6    542994.45347  21947699.79347
  20562095.594 6   -340064.230 6   -256669.16848  20562091.67248
  24304338.586 3   -397920.512 3   -295127.44546  24304335.73046
  21078997.898 6    189751.145 6    142947.73049  21078998.28149
  21224001.469 6  -1448096.711 6  -1086801.13349  21224000.48849
  21707161.125 6    -19798.375 6    -25292.98449  21707157.90649
  24036096.477 4    912771.512 4    692829.60546  24036097.54746
 20  5 16  0  9  3.0000000  0 10G03G04G08G14G16G21G26G27G31G32      -0.000267550
  24352517.172 3    209469.387 3    150838.27747  24352516.87947
  22532440.805 6  -1309922.762 6   -973379.29747  22532438.63747
  23526502.703 4  -1594485.395 4  -1213203.61348  23526503.28548
  21948076.609 6    725152.461 6    544525.85947  21948073.93447
  20561933.484 6   -340918.508 6   -257334.83648  20561929.60248
  24304078.313 3   -399287.105 3   -296192.32846  24304075.72346
  21079095.297 6    190261.762 6    143345.60549  21079095.43849
  21223286.406 6  -1451855.016 6  -1089729.68449  21223285.10249
  21707148.242 6    -19864.684 6    -25344.65649  21707144.84049
  24036609.406 4    915469.004 4    694931.55546  24036610.84846
 20  5 16  0  9  4.0000000  0 10G03G04G08G14G16G21G26G27G31G32      -0.000268177
  24352631.328 3    210068.785 3    151305.34847  24352630.99247
  22531755.477 6  -1313522.504 6   -976184.28547  22531753.40647
  23525613.258 4  -1599162.016 4  -1216847.73048  23525613.41448
  21948450.805 6    727118.121 6    546057.54747  21948448.00447
  20561770.617 6   -341772.426 6   -258000.23048  20561766.77048
  24303818.336 3   -400653.336 3   -297256.93046  24303815.83646
  21079192.180 6    190772.496 6    143743.58649  21079191.96949
  21222571.305 6  -1455612.840 6  -1092657.85249  21222570.36749
  21707135.930 6    -19930.758 6    -25396.14149  21707132.71149
  24037122.617 4    918166.559 4    697033.52746  24037123.91046
 20  5 16  0  9  5.0000000  0 10G03G04G08G14G16G21G26G27G31G32      -0.000268805
  24352745.797 3    210668.371 3    151772.55147  24352745.31647
  22531071.023 6  -1317121.816 6   -978988.95347  22531068.65247
  23524723.289 4  -1603838.465 4  -1220491.71948  23524723.78948
  21948824.648 6    729084.199 6    547589.55547  21948821.62947
  20561608.258 6   -342625.980 6   -258665.34048  20561604.73048
  24303557.461 4   -402019.141 4   -298321.20346  24303555.75446
  21079289.430 6    191283.395 6    144141.68449  21079289.25849
  21221856.055 6  -1459370.191 6  -1095585.66049  21221855.06349
  21707123.188 6    -19996.621 6    -25447.46949  21707120.32049
  24037636.273 4    920864.223 4    699135.60946  24037637.53546
 20  5 16  0  9  6.0000000  0 10G03G04G08G14G16G21G26G27G31G32      -0.000269432
  24352859.305 3    211268.141 3    152239.89847  24352859.64847
  22530386.203 5  -1320720.738 5   -981793.30947  22530383.67247
  23523832.578 4  -1608514.730 4  -1224135.56348  23523833.70748
  21949199.320 6    731050.633 6    549121.84447  21949196.16847
  20561446.000 6   -343479.172 6   -259330.16448  20561441.67648
  24303298.797 4   -403384.648 4   -299385.23845  24303295.89545
  21079386.656 6    191794.441 6    144539.90249  21079386.38749
  21221141.484 6  -1463127.059 6  -1098513.09049  21221140.43049
  21707111.227 6    -20062.250 6    -25498.60949  21707107.78549
  24038149.320 4    923561.953 4    701237.74646  24038151.14146
 20  5 16  0  9  7.0000000  0 10G03G04G08G14G16G21G26G27G31G32      -0.000270060
  24352973.828 3    211868.086 3    152707.38347  24352973.65647
  22529701.148 6  -1324319.344 6   -984597.41847  22529698.97347
  23522943.109 4  -1613190.953 4  -1227779.36748  23522944.03148
  21949573.727 6    733017.340 6    550654.33247  21949570.40647
  20561283.945 7   -344332.102 7   -259994.78548  20561279.60248
  24303038.797 3   -404749.863 3   -300449.03145  24303036.50845
  21079483.930 6    192305.508 6    144938.13349  21079484.09049
  21220426.750 6  -1466883.563 6  -1101440.23849  21220425.59849
  21707098.586 6    -20127.734 6    -25549.63749  21707095.12549
  24038662.500 4    926259.738 4    703339.91446  24038664.43846
 20  5 16  0  9  8.0000000  0 10G03G04G08G14G16G21G26G27G31G32      -0.000270687
  24353087.813 3    212468.102 3    153174.91847  24353087.66847
  22529016.523 6  -1327917.652 6   -987401.29347  22529014.00047
  23522054.094 4  -1617867.121 4  -1231423.13748  23522054.08648
  21949947.539 6    734984.313 6    552187.03147  21949944.48047
  20561121.023 7   -345184.809 7   -260659.23848  20561117.27048
  24302779.500 4   -406114.859 4   -301512.66046  24302776.22346
  21079581.164 6    192816.594 6    145336.37949  21079581.48049
  21219711.836 6  -1470639.707 6  -1104367.09849  21219710.49649
  21707085.867 6    -20193.137 6    -25600.60249  21707083.11749
  24039176.305 4    928957.449 4    705442.02746  24039177.56346
 20  5 16  0  9  9.0000000  0 10G03G04G08G14G16G21G26G27G31G32      -0.000271315
  24353202.086 3    213068.359 3    153642.65647  24353201.57847
  22528331.695 6  -1331515.508 6   -990204.82047  22528329.53147
  23521164.219 4  -1622543.055 4  -1235066.71548  23521164.36348
  21950322.258 6    736951.695 6    553720.05147  21950318.97747
  20560958.813 7   -346037.086 7   -261323.34848  20560955.21948
  24302519.875 4   -407479.430 4   -302575.99246  24302517.14546
  21079678.258 6    193327.887 6    145734.78949  21079678.64849
  21218996.891 6  -1474395.324 6  -1107293.55549  21218995.87949
  21707073.508 6    -20258.258 6    -25651.34849  21707070.61749
  24039689.750 4    931655.313 4    707544.23846  24039690.78946
 20  5 16  0  9 10.0000000  0 10G03G04G08G14G16G21G26G27G31G32      -0.000271942
  24353316.172 3    213668.809 3    154110.53547  24353315.74247
  22527646.867 6  -1335113.004 6   -993008.06347  22527645.04747
  23520273.266 4  -1627218.871 4  -1238710.20348  23520274.34848
  21950696.797 6    738919.441 6    555253.37547  21950693.03947
  20560796.797 6   -346889.055 6   -261987.22748  20560792.81348
  24302259.891 3   -408843.695 3   -303639.07045  24302257.39845
  21079775.875 6    193839.254 6    146133.25449  21079775.90249
  21218282.398 6  -1478150.504 6  -1110219.66849  21218281.20349
  21707061.094 6    -20323.164 6    -25701.91849  21707058.17249
  24040203.180 4    934353.259 4    709646.53146  24040204.18846
 20  5 16  0  9 11.0000000  0 10G03G04G08G14G16G21G26G27G31G32      -0.000272570
  24353430.219 3    214269.379 3    154578.51647  24353430.08647
  22526962.531 6  -1338710.180 6   -995811.05947  22526960.70747
  23519383.445 4  -1631894.594 4  -1242353.62948  23519384.52748
  21951071.617 6    740887.441 6    556786.87147  21951067.89547
  20560634.891 6   -347740.742 6   -262650.87148  20560630.97348
  24302000.609 4   -410207.676 4   -304701.91045  24301997.46545
  21079872.992 6    194350.676 6    146531.76249  21079873.33249
  21217567.969 6  -1481905.309 6  -1113145.48849  21217566.79349
  21707049.180 6    -20387.965 6    -25752.41449  21707045.68049
  24040715.258 4    937051.148 4    711748.78146  24040717.38746
 20  5 16  0  9 12.0000000  0 10G03G04G08G14G16G21G26G27G31G32      -0.000273197
  24353545.016 3    214870.172 3    155046.66047  24353544.58647
  22526278.500 6  -1342306.941 6   -998613.72747  22526276.25847
  23518494.063 4  -1636570.227 4  -1245996.98448  23518495.16048
  21951446.070 6    742855.848 6    558320.69147  21951442.77747
  20560472.922 6   -348592.066 6   -263314.24248  20560468.66448
  24301741.016 4   -411571.305 4   -305764.47345  24301738.18045
  21079970.305 6    194862.238 6    146930.37949  21079970.33249
  21216853.570 6  -1485659.637 6  -1116070.93849  21216852.22349
  21707036.523 6    -20452.531 6    -25802.72749  21707033.26649
  24041229.563 4    939749.113 4    713851.08646  24041231.04746
 20  5 16  0  9 13.0000000  0 10G03G04G08G14G16G21G26G27G31G32      -0.000273827
  24353659.508 2    215471.078 2    155514.89847  24353658.79747
  22525593.555 6  -1345903.375 6  -1001416.14147  22525591.87147
  23517604.328 3  -1641245.738 3  -1249640.23448  23517604.73048
  21951820.695 6    744824.539 6    559854.73047  21951817.16047
  20560311.063 6   -349443.129 6   -263977.40648  20560306.94148
  24301482.078 4   -412934.668 4   -306826.82846  24301478.80146
  21080067.883 6    195373.836 6    147329.03549  21080068.00449
  21216138.898 7  -1489413.570 7  -1118996.08649  21216138.11349
  21707024.352 6    -20516.973 6    -25852.93849  21707021.39149
  24041743.336 4    942447.109 4    715953.43046  24041744.27746
 20  5 16  0  9 14.0000000  0 10G03G04G08G14G16G21G26G27G31G32      -0.000274454
  24353772.875 2    216072.168 2    155983.28147  24353773.22347
  22524909.469 6  -1349499.441 6  -1004218.27747  22524907.42247
  23516714.734 4  -1645921.148 4  -1253283.40248  23516715.21948
  21952195.234 6    746793.582 6    561389.05547  21952191.96547
  20560149.039 6   -350293.844 6   -264640.30948  20560144.99648
  24301222.211 3   -414297.645 3   -307888.88346  24301219.51646
  21080165.227 6    195885.570 6    147727.78949  21080165.42249
  21215425.047 7  -1493167.047 7  -1121920.87149  21215423.61749
  21707011.852 6    -20581.195 6    -25902.98449  21707009.09449
  24042256.508 4    945145.199 4    718055.82846  24042257.54746
 20  5 16  0  9 15.0000000  0 10G03G04G08G14G16G21G26G27G31G32      -0.000275082
  24353887.977 2    216673.340 2    156451.72747  24353887.67647
  22524225.664 6  -1353095.215 6  -1007020.17647  22524223.09047
  23515825.617 4  -1650596.527 4  -1256926.54748  23515825.49248
  21952570.000 6    748762.898 6    562923.58247  21952566.31647
  20559987.281 6   -351144.328 6   -265303.02348  20559982.90248
  24300963.547 4   -415660.453 4   -308950.78946  24300960.38346
  21080262.688 6    196397.320 6    148126.55149  21080262.72749
  21214710.758 6  -1496920.176 6  -1124845.39149  21214709.37949
  21707000.047 6    -20645.309 6    -25952.94549  21706996.83649
  24042770.086 4    947843.223 4    720158.18446  24042770.90246
 20  5 16  0  9 16.0000000  0 10G03G04G08G14G16G21G26G27G31G32      -0.000275709
  24354002.938 2    217274.723 2    156920.33247  24354001.95347
  22523540.828 6  -1356690.559 6  -1009821.74647  22523539.10247
  23514935.234 4  -1655271.691 4  -1260569.52748  23514936.03948
  21952945.016 6    750732.586 6    564458.40647  21952941.51647
  20559825.328 6   -351994.441 6   -265965.44148  20559821.18048
  24300703.813 4   -417022.859 4   -310012.41046  24300701.23846
  21080359.945 6    196909.195 6    148525.41449  21080360.04749
  21213996.602 7  -1500672.820 7  -1127769.53149  21213995.51249
  21706988.008 6    -20709.184 6    -26002.72349  21706984.60549
  24043284.000 4    950541.355 4    722260.64546  24043284.73446
 20  5 16  0  9 17.0000000  0 10G03G04G08G14G16G21G26G27G31G32      -0.000276337
  24354116.586 2    217876.332 2    157389.11747  24354116.42647
  22522856.953 6  -1360285.500 6  -1012622.99247  22522855.16847
  23514045.719 4  -1659946.703 4  -1264212.39548  23514045.84048
  21953319.656 6    752702.664 6    565993.52747  21953316.12547
  20559663.391 6   -352844.184 6   -266627.58248  20559659.53948
  24300444.664 3   -418384.898 3   -311073.75446  24300441.87546
  21080457.203 6    197421.227 6    148924.40249  21080457.48849
  21213282.391 6  -1504424.977 6  -1130693.28949  21213281.35549
  21706975.461 6    -20772.832 6    -26052.31649  21706972.66049
  24043797.039 4    953239.566 4    724363.15246  24043798.21946
 20  5 16  0  9 18.0000000  0 10G03G04G08G14G16G21G26G27G31G32      -0.000276964
  24354231.539 2    218478.172 2    157858.08247  24354230.86747
  22522172.938 6  -1363879.996 6  -1015423.89547  22522171.05147
  23513156.219 4  -1664621.563 4  -1267855.14548  23513156.35948
  21953695.023 6    754673.117 6    567528.94947  21953691.38347
  20559502.250 6   -353693.559 6   -267289.43448  20559498.01248
  24300185.281 4   -419746.559 4   -312134.78946  24300182.64546
  21080555.063 6    197933.406 6    149323.49649  21080555.09849
  21212568.766 6  -1508176.637 6  -1133616.66049  21212567.75049
  21706963.570 6    -20836.242 6    -26101.73049  21706960.12549
  24044310.734 4    955937.906 4    726465.73446  24044311.64846
 20  5 16  0  9 19.0000000  0 10G03G04G08G14G16G21G26G27G31G32      -0.000277594
  24354346.227 3    219080.117 3    158327.12547  24354345.81347
  22521489.008 6  -1367474.223 6  -1018224.59847  22521487.46547
  23512267.180 4  -1669296.336 4  -1271497.83248  23512266.78548
  21954069.586 6    756643.836 6    569064.57047  21954065.93447
  20559340.406 6   -354542.664 6   -267951.07848  20559336.23048
  24299926.313 4   -421107.961 4   -313195.61746  24299923.69146
  21080652.602 6    198445.617 6    149722.62549  21080652.54749
  21211855.102 6  -1511927.934 6  -1136539.75049  21211853.94149
  21706951.328 6    -20899.539 6    -26151.05549  21706948.44949
  24044823.867 4    958636.223 4    728568.31646  24044824.84046
 20  5 16  0  9 20.0000000  0 10G03G04G08G14G16G21G26G27G31G32      -0.000278221
  24354460.609 2    219682.316 2    158796.37547  24354460.12947
  22520804.602 6  -1371067.988 6  -1021024.93847  22520803.16047
  23511376.875 4  -1673970.895 4  -1275140.34448  23511377.50048
  21954444.820 6    758614.977 6    570600.52347  21954441.55147
  20559179.211 6   -355391.371 6   -268612.40648  20559175.09048
  24299666.898 4   -422468.980 4   -314256.16446  24299665.00846
  21080750.039 6    198958.039 6    150121.91449  21080749.84049
  21211141.406 6  -1515678.695 6  -1139462.41849  21211140.28549
  21706939.469 6    -20962.531 6    -26200.13749  21706936.45349
  24045337.438 4    961334.703 4    730671.02346  24045338.38346
 20  5 16  0  9 21.0000000  0 10G03G04G08G14G16G21G26G27G31G32      -0.000278849
  24354574.859 3    220284.613 3    159265.69147  24354574.87947
  22520121.141 6  -1374661.414 6  -1023825.01247  22520119.08647
  23510487.594 4  -1678645.414 4  -1278782.82848  23510487.66448
  21954819.750 6    760586.395 6    572136.69547  21954816.29347
  20559017.516 6   -356239.805 6   -269273.52748  20559013.61748
  24299408.703 4   -423829.684 4   -315316.45346  24299406.02346
  21080847.477 6    199470.492 6    150521.22749  21080847.82449
  21210427.406 6  -1519429.102 6  -1142384.82449  21210426.10549
  21706927.203 6    -21025.422 6    -26249.14849  21706924.69549
  24045850.711 4    964033.164 4    732773.71546  24045852.14546
 20  5 16  0  9 22.0000000  0 10G03G04G08G14G16G21G26G27G31G32      -0.000279476
  24354691.078 2    220887.102 2    159735.16047  24354689.59847
  22519437.938 6  -1378254.516 6  -1026624.83247  22519435.68447
  23509597.688 4  -1683319.836 4  -1282425.24248  23509598.18848
  21955195.141 6    762558.137 6    573673.11347  21955191.57447
  20558856.375 6   -357087.953 6   -269934.41848  20558852.00848
  24299149.008 4   -425190.156 4   -316376.55546  24299146.82846
  21080945.438 6    199983.012 6    150920.59049  21080945.27349
  21209713.859 6  -1523179.086 6  -1145306.88349  21209713.00449
  21706915.820 6    -21088.152 6    -26298.02349  21706912.71549
  24046364.250 4    966731.613 4    734876.39846  24046365.24246
 20  5 16  0  9 23.0000000  0 10G03G04G08G14G16G21G26G27G31G32      -0.000280106
  24354804.742 2    221489.566 2    160204.60547  24354803.91047
  22518754.039 6  -1381847.371 6  -1029424.45747  22518751.81647
  23508708.445 3  -1687994.273 3  -1286067.66448  23508708.93448
  21955570.289 6    764530.063 6    575209.68447  21955566.59447
  20558694.570 6   -357935.918 6   -270595.17648  20558690.88748
  24298890.641 4   -426550.430 4   -317436.50446  24298888.18846
  21081042.625 6    200495.496 6    151319.92649  21081042.75049
  21209000.031 6  -1526928.766 6  -1148228.71149  21208999.11749
  21706904.070 6    -21150.828 6    -26346.86349  21706900.52749
  24046877.984 4    969429.996 4    736979.03546  24046879.07446
 20  5 16  0  9 24.0000000  0 10G03G04G08G14G16G21G26G27G31G32      -0.000280733
  24354919.289 3    222092.266 3    160674.24247  24354919.09047
  22518070.625 6  -1385439.805 6  -1032223.75447  22518068.02747
  23507818.570 4  -1692668.469 4  -1289709.89848  23507819.01248
  21955945.563 6    766502.402 6    576746.57047  21955942.00447
  20558533.602 6   -358783.492 6   -271255.61748  20558529.53948
  24298632.039 4   -427910.266 4   -318496.12546  24298629.28546
  21081139.953 6    201008.145 6    151719.39549  21081140.19149
  21208286.672 6  -1530677.922 6  -1151150.13349  21208285.59449
  21706892.055 6    -21213.223 6    -26395.48049  21706888.88349
  24047391.266 4    972128.488 4    739081.75846  24047392.59046
 20  5 16  0  9 25.0000000  0 10G03G04G08G14G16G21G26G27G31G32      -0.000281361
  24355034.422 2    222695.184 2    161144.03947  24355033.81347
  22517386.531 5  -1389031.863 5  -1035022.75847  22517384.64147
  23506929.156 3  -1697342.629 3  -1293352.09048  23506930.17248
  21956321.234 6    768475.051 6    578283.69547  21956317.39847
  20558372.266 6   -359630.766 6   -271915.83648  20558368.18048
  24298373.156 4   -429269.848 4   -319555.55546  24298370.76646
  21081237.750 6    201520.871 6    152118.91449  21081237.77049
  21207573.555 6  -1534426.676 6  -1154071.24649  21207572.36749
  21706879.875 6    -21275.480 6    -26444.00049  21706876.69949
  24047904.617 4    974827.004 4    741184.48846  24047906.03946
 20  5 16  0  9 26.0000000  0 10G03G04G08G14G16G21G26G27G31G32      -0.000281990
  24355148.977 2    223298.219 2    161613.93847  24355148.68447
  22516703.008 5  -1392623.574 5  -1037821.49647  22516700.89847
  23506040.133 3  -1702016.617 3  -1296994.15648  23506040.52048
  21956696.266 6    770448.070 6    579821.12147  21956692.71147
  20558211.320 6   -360477.703 6   -272575.78948  20558206.98048
  24298115.094 4   -430629.051 4   -320614.66446  24298111.93846
  21081335.078 6    202033.699 6    152518.52349  21081335.16049
  21206859.750 6  -1538174.969 6  -1156991.99249  21206859.19149
  21706868.164 6    -21337.516 6    -26492.34449  21706865.02049
  24048418.383 4    977525.609 4    743287.30146  24048419.53546
 20  5 16  0  9 27.0000000  0 10G03G04G08G14G16G21G26G27G31G32      -0.000282618
  24355263.219 3    223901.402 3    162083.95747  24355263.01647
  22516019.758 5  -1396214.938 5  -1040619.96547  22516017.65647
  23505150.148 3  -1706690.547 3  -1300636.17248  23505151.42648
  21957071.852 6    772421.316 6    581358.71547  21957068.07847
  20558050.031 6   -361324.391 6   -273235.54748  20558045.89848
  24297856.016 4   -431987.996 4   -321673.57446  24297853.44146
  21081432.727 6    202546.590 6    152918.17249  21081432.71949
  21206146.531 6  -1541922.914 6  -1159912.46149  21206146.07449
  21706856.445 6    -21399.434 6    -26540.58649  21706853.41049
  24048931.852 4    980224.207 4    745390.10546  24048933.27346
 20  5 16  0  9 28.0000000  0 10G03G04G08G14G16G21G26G27G31G32      -0.000283245
  24355377.719 3    224504.695 3    162554.06347  24355378.16447
  22515336.281 5  -1399805.980 5  -1043418.18447  22515334.39147
  23504260.750 3  -1711364.410 3  -1304278.14148  23504262.41048
  21957447.539 6    774394.867 6    582896.55147  21957443.96147
  20557888.938 6   -362170.801 6   -273895.08248  20557885.11348
  24297597.281 4   -433346.691 4   -322732.28946  24297594.98846
  21081530.492 6    203059.516 6    153317.85549  21081530.71549
  21205433.867 6  -1545670.445 6  -1162832.62149  21205432.91849
  21706844.391 6    -21461.223 6    -26588.73449  21706841.41049
  24049445.086 4    982922.770 4    747492.88746  24049446.37546
 20  5 16  0  9 29.0000000  0 10G03G04G08G14G16G21G26G27G31G32      -0.000283875
  24355493.125 3    225108.121 3    163024.26247  24355492.98047
  22514653.203 5  -1403396.746 5  -1046216.18447  22514650.83247
  23503371.156 3  -1716038.234 3  -1307920.07448  23503372.82448
  21957823.047 6    776368.691 6    584434.59847  21957819.85547
  20557727.875 6   -363016.957 6   -274554.43048  20557724.00848
  24297339.523 4   -434705.117 4   -323790.78546  24297336.42646
  21081628.516 6    203572.484 6    153717.57049  21081627.95749
  21204720.945 6  -1549417.613 6  -1165752.48849  21204719.63349
  21706832.539 6    -21522.871 6    -26636.77349  21706829.82049
  24049959.398 3    985621.371 3    749595.67245  24049959.89845
 20  5 16  0  9 30.0000000  0 10G03G04G08G14G16G21G26G27G31G32      -0.000284502
  24355608.570 3    225711.688 3    163494.55947  24355607.90647
  22513969.656 5  -1406987.125 5  -1049013.87547  22513968.02047
  23502482.750 4  -1720711.891 4  -1311561.88348  23502483.59848
  21958198.422 6    778342.859 6    585972.91047  21958194.89547
  20557567.211 6   -363862.801 6   -275213.52348  20557562.96148
  24297081.039 4   -436063.227 4   -324849.05946  24297077.91046
  21081725.664 6    204085.547 6    154117.35949  21081725.78149
  21204007.383 6  -1553164.332 6  -1168672.00849  21204006.64149
  21706821.133 6    -21584.363 6    -26684.68849  21706818.13749
  24050472.258 3    988319.980 3    751698.47746  24050473.73846
 20  5 16  0  9 31.0000000  0 10G03G04G08G14G16G21G26G27G31G32      -0.000285131
  24355722.617 3    226315.457 3    163965.03147  24355722.67647
  22513286.781 5  -1410577.078 5  -1051811.24647  22513284.39847
  23501593.117 4  -1725385.395 4  -1315203.56648  23501593.89148
  21958574.430 6    780317.406 6    587511.52347  21958571.11747
  20557406.023 6   -364708.258 6   -275872.32048  20557402.10548
  24296822.375 4   -437420.957 4   -325907.03946  24296819.85546
  21081823.586 6    204598.738 6    154517.24649  21081823.34049
  21203294.930 6  -1556910.586 6  -1171591.17249  21203294.04349
  21706809.156 6    -21645.598 6    -26732.40249  21706806.63349
  24050985.898 3    991018.699 3    753801.37946  24050987.07846
 20  5 16  0  9 32.0000000  0 10G03G04G08G14G16G21G26G27G31G32      -0.000285759
  24355837.438 3    226919.371 3    164435.60947  24355837.93447
  22512603.641 5  -1414166.703 5  -1054608.36747  22512601.69947
  23500704.125 3  -1730058.863 3  -1318845.22748  23500704.52348
  21958950.141 6    782292.246 6    589050.34847  21958946.52347
  20557245.000 6   -365553.430 6   -276530.90248  20557241.17248
  24296563.961 4   -438778.395 4   -326964.81346  24296561.70746
  21081921.258 6    205112.023 6    154917.20749  21081920.81649
  21202581.984 6  -1560656.402 6  -1174509.98849  21202581.06349
  21706797.781 6    -21706.676 6    -26780.00049  21706794.60249
  24051499.234 4    993717.445 4    755904.29746  24051500.62146
 20  5 16  0  9 33.0000000  0 10G03G04G08G14G16G21G26G27G31G32      -0.000286388
  24355952.016 3    227523.508 3    164906.37147  24355952.91847
  22511920.461 5  -1417755.910 5  -1057405.14846  22511918.40646
  23499814.844 4  -1734732.070 4  -1322486.68848  23499814.98448
  21959326.445 6    784267.461 6    590589.47347  21959322.77747
  20557084.523 6   -366398.254 6   -277189.20748  20557080.65648
  24296305.438 4   -440135.469 4   -328022.27046  24296303.71946
  21082019.180 6    205625.426 6    155317.26649  21082018.70349
  21201869.484 6  -1564401.770 6  -1177428.45349  21201868.28949
  21706786.266 6    -21767.508 6    -26827.40249  21706783.34849
  24052013.242 4    996416.254 4    758007.25446  24052013.88746
 20  5 16  0  9 34.0000000  0 10G03G04G08G14G16G21G26G27G31G32      -0.000287016
  24356067.086 3    228127.766 3    165377.21947  24356068.02047
  22511238.094 5  -1421344.801 5  -1060201.69147  22511235.90247
  23498925.000 4  -1739405.195 4  -1326128.08648  23498925.52048
  21959702.125 6    786242.980 6    592128.83647  21959698.66847
  20556923.633 6   -367242.793 6   -277847.28548  20556919.78548
  24296047.484 4   -441492.246 4   -329079.50046  24296045.43446
  21082116.234 6    206138.902 6    155717.37549  21082116.51649
  21201156.492 6  -1568146.723 6  -1180346.60249  21201155.72749
  21706774.758 6    -21828.215 6    -26874.70749  21706771.66449
  24052525.984 4    999115.117 4    760110.27346  24052527.65646
 20  5 16  0  9 35.0000000  0 10G03G04G08G14G16G21G26G27G31G32      -0.000287645
  24356182.609 3    228732.375 3    165848.33247  24356182.83647
  22510554.875 5  -1424933.168 5  -1062997.82047  22510552.75047
  23498036.250 4  -1744078.113 4  -1329769.32448  23498036.51248
  21960078.156 6    788218.930 6    593668.53147  21960074.18847
  20556763.055 6   -368086.906 6   -278505.03948  20556759.07048
  24295789.461 4   -442848.605 4   -330136.39846  24295787.38346
  21082214.391 6    206652.559 6    156117.62549  21082214.59849
  21200444.164 6  -1571891.141 6  -1183264.32449  21200442.90249
  21706763.227 6    -21888.637 6    -26921.78949  21706760.29749
  24053040.266 3   1001814.070 3    762213.35946  24053041.33246
 20  5 16  0  9 36.0000000  0 10G03G04G08G14G16G21G26G27G31G32      -0.000288273
  24356297.672 3    229337.039 3    166319.49247  24356297.71947
  22509871.766 5  -1428521.195 5  -1065793.68047  22509870.20347
  23497147.031 4  -1748750.891 4  -1333410.44548  23497147.10248
  21960454.313 6    790195.242 6    595208.51647  21960450.96147
  20556602.602 6   -368930.672 6   -279162.52748  20556598.20348
  24295531.781 4   -444204.586 4   -331193.01146  24295529.37946
  21082311.984 6    207166.363 6    156517.98849  21082311.89549
  21199731.820 6  -1575635.070 6  -1186181.67649  21199730.87549
  21706751.758 6    -21948.836 6    -26968.70749  21706748.78549
  24053553.750 3   1004513.176 3    764316.53946  24053555.43446
 20  5 16  0  9 37.0000000  0 10G03G04G08G14G16G21G26G27G31G32      -0.000288902
  24356411.938 3    229941.910 3    166790.81647  24356412.69947
  22509189.242 5  -1432108.844 5  -1068589.25847  22509187.68847
  23496257.555 3  -1753423.590 3  -1337051.51248  23496257.94948
  21960830.273 6    792171.844 6    596748.72347  21960826.98847
  20556441.891 6   -369774.176 6   -279819.80148  20556438.21548
  24295273.047 4   -445560.367 4   -332249.46146  24295271.77346
  21082409.938 6    207680.207 6    156918.38749  21082410.07049
  21199019.383 6  -1579378.609 6  -1189098.71549  21199018.50049
  21706740.078 6    -22008.871 6    -27015.48449  21706737.15249
  24054067.438 3   1007212.219 3    766419.67646  24054068.45746
 20  5 16  0  9 38.0000000  0 10G03G04G08G14G16G21G26G27G31G32      -0.000289530
  24356527.586 3    230546.949 3    167262.27747  24356528.34447
  22508506.328 5  -1435696.145 5  -1071384.55147  22508504.91447
  23495368.563 3  -1758096.172 3  -1340692.48448  23495369.30148
  21961206.797 6    794148.789 6    598289.19947  21961203.04747
  20556281.609 6   -370617.340 6   -280476.80548  20556277.50048
  24295015.813 4   -446915.746 4   -333305.60246  24295013.55146
  21082507.578 6    208194.160 6    157318.87149  21082507.44949
  21198307.469 6  -1583121.707 6  -1192015.41849  21198306.16449
  21706728.617 6    -22068.730 6    -27062.13349  21706725.48449
  24054581.391 3   1009911.328 3    768522.88346  24054582.21546
 20  5 16  0  9 39.0000000  0 10G03G04G08G14G16G21G26G27G31G32      -0.000290159
  24356643.063 3    231152.164 3    167733.87147  24356643.46947
  22507824.078 5  -1439283.047 5  -1074179.53947  22507822.28547
  23494478.813 4  -1762768.594 4  -1344333.33248  23494479.40648
  21961582.703 6    796126.070 6    599829.93847  21961578.96547
  20556121.273 6   -371460.188 6   -281133.57448  20556117.30948
  24294757.500 4   -448270.852 4   -334361.52346  24294755.87946
  21082605.375 6    208708.227 6    157719.44149  21082605.43049
  21197595.086 6  -1586864.367 6  -1194931.77049  21197593.60249
  21706717.352 6    -22128.367 6    -27108.60549  21706714.71149
  24055094.430 3   1012610.504 3    770626.13346  24055095.95746
 20  5 16  0  9 40.0000000  0 10G03G04G08G14G16G21G26G27G31G32      -0.000290787
  24356757.992 2    231757.504 2    168205.56347  24356758.77047
  22507141.641 5  -1442869.707 5  -1076974.33647  22507139.79347
  23493590.234 4  -1767440.977 4  -1347974.15248  23493590.51648
  21961958.852 6    798103.617 6    601370.88347  21961955.64547
  20555960.914 6   -372302.789 6   -281790.14848  20555957.12548
  24294500.031 4   -449625.684 4   -335417.24246  24294497.76646
  21082703.094 6    209222.309 6    158120.02049  21082703.57449
  21196882.867 6  -1590606.656 6  -1197847.84049  21196881.55149
  21706706.016 6    -22187.922 6    -27155.00849  21706703.30949
  24055608.203 3   1015309.676 3    772729.38746  24055609.94146
 20  5 16  0  9 41.0000000  0 10G03G04G08G14G16G21G26G27G31G32      -0.000291416
  24356873.828 3    232362.949 3    168677.34047  24356873.78147
  22506459.094 5  -1446455.914 5  -1079768.78147  22506457.06647
  23492701.344 3  -1772113.230 3  -1351614.86348  23492701.67648
  21962335.273 6    800081.473 6    602912.07447  21962332.00447
  20555800.758 6   -373145.074 6   -282446.47348  20555796.83648
  24294242.555 4   -450980.168 4   -336472.67646  24294240.05946
  21082801.344 6    209736.484 6    158520.67249  21082800.87549
  21196171.164 6  -1594348.512 6  -1200763.57449  21196169.53949
  21706694.320 6    -22247.277 6    -27201.25849  21706691.92649
  24056122.492 3   1018008.859 3    774832.64146  24056123.09046
 20  5 16  0  9 42.0000000  0 10G03G04G08G14G16G21G26G27G31G32      -0.000292044
  24356989.133 2    232968.652 2    169149.31347  24356989.63347
  22505777.156 6  -1450041.762 6  -1082562.94947  22505775.02747
  23491812.594 4  -1776785.313 4  -1355255.44148  23491812.69948
  21962711.508 6    802059.727 6    604453.56647  21962708.27047
  20555640.625 6   -373987.004 6   -283102.52048  20555636.05548
  24293984.836 4   -452334.332 4   -337527.87246  24293982.53146
  21082898.875 6    210250.781 6    158921.42649  21082899.16849
  21195458.727 6  -1598089.875 6  -1203678.92249  21195457.64549
  21706683.469 6    -22306.438 6    -27247.35949  21706680.87549
  24056635.281 3   1020708.172 3    776936.00846  24056636.75046
 20  5 16  0  9 43.0000000  0 10G03G04G08G14G16G21G26G27G31G32      -0.000292673
  24357104.320 3    233574.488 3    169621.39547  24357104.45347
  22505095.000 6  -1453627.242 6  -1085356.82447  22505092.76647
  23490923.102 4  -1781457.301 4  -1358895.94948  23490923.42648
  21963088.273 6    804038.273 6    605995.28547  21963084.80947
  20555480.477 6   -374828.625 6   -283758.32848  20555476.35248
  24293726.914 4   -453688.184 4   -338582.82846  24293724.83646
  21082996.328 6    210765.184 6    159322.26249  21082997.07849
  21194747.039 6  -1601830.813 6  -1206593.94149  21194745.53949
  21706672.555 6    -22365.379 6    -27293.29349  21706669.57449
  24057149.289 3   1023407.480 3    779039.37146  24057150.16046
 20  5 16  0  9 44.0000000  0 10G03G04G08G14G16G21G26G27G31G32      -0.000293301
  24357219.383 3    234180.523 3    170093.63346  24357219.94546
  22504411.922 6  -1457212.340 6  -1088150.41446  22504410.22346
  23490034.094 4  -1786129.141 4  -1362536.33648  23490034.52748
  21963465.133 6    806017.199 6    607537.30147  21963461.55147
  20555320.047 6   -375669.895 6   -284413.87148  20555316.11748
  24293469.578 4   -455041.688 4   -339637.52046  24293467.14146
  21083095.109 6    211279.703 6    159723.18449  21083094.93049
  21194035.195 6  -1605571.313 6  -1209508.61749  21194034.14849
  21706661.656 6    -22424.137 6    -27339.07849  21706658.69549
  24057663.461 3   1026106.855 3    781142.76646  24057664.06346
 20  5 16  0  9 45.0000000  0 10G03G04G08G14G16G21G26G27G31G32      -0.000293930
  24357334.531 3    234786.645 3    170565.92647  24357334.99647
  22503730.313 6  -1460797.094 6  -1090943.73447  22503728.12947
  23489145.477 4  -1790800.941 4  -1366176.70348  23489145.37548
  21963841.695 6    807996.414 6    609079.54747  21963838.10547
  20555160.148 6   -376510.895 6   -285069.19548  20555156.21948
  24293211.789 4   -456394.895 4   -340691.95746  24293209.74646
  21083192.469 6    211794.258 6    160124.13749  21083192.97749
  21193323.531 6  -1609311.426 6  -1212422.98849  21193322.18049
  21706650.109 6    -22482.754 6    -27384.75449  21706647.05949
  24058176.320 3   1028806.215 3    783246.14146  24058178.15646
 20  5 16  0  9 46.0000000  0 10G03G04G08G14G16G21G26G27G31G32      -0.000294559
  24357450.055 3    235392.898 3    171038.32447  24357450.39547
  22503047.984 6  -1464381.539 6  -1093736.80947  22503046.02047
  23488256.563 4  -1795472.605 4  -1369816.95348  23488256.40648
  21964218.430 6    809975.902 6    610622.01247  21964214.94147
  20555000.188 6   -377351.633 6   -285724.31348  20554996.55148
  24292954.555 4   -457747.848 4   -341746.19946  24292952.05146
  21083290.484 6    212308.875 6    160525.14149  21083290.67249
  21192611.750 6  -1613051.121 6  -1215337.03949  21192610.32449
  21706638.547 6    -22541.242 6    -27430.32849  21706636.16849
  24058689.875 3   1031505.617 3    785349.57046  24058691.31346
 20  5 16  0  9 47.0000000  0 10G03G04G08G14G16G21G26G27G31G32      -0.000295187
  24357565.188 2    235999.281 2    171510.83247  24357566.19947
  22502366.336 6  -1467965.648 6  -1096529.60947  22502364.35547
  23487367.117 4  -1800144.230 4  -1373457.18848  23487367.44948
  21964594.852 6    811955.684 6    612164.69147  21964591.54747
  20554840.180 6   -378192.098 6   -286379.21948  20554836.00048
  24292697.609 4   -459100.523 4   -342800.23446  24292695.24246
  21083388.586 6    212823.523 6    160926.16449  21083388.77749
  21191900.180 6  -1616790.441 6  -1218250.80149  21191899.01249
  21706627.742 6    -22599.574 6    -27475.78149  21706625.07449
  24059203.773 3   1034205.027 3    787453.01646  24059205.26646
 20  5 16  0  9 48.0000000  0 10G03G04G08G14G16G21G26G27G31G32      -0.000295816
  24357680.719 3    236606.004 3    171983.60247  24357681.49247
  22501683.617 6  -1471549.254 6  -1099322.03947  22501682.16447
  23486478.180 4  -1804815.551 4  -1377097.17648  23486478.46548
  21964971.672 6    813935.949 6    613707.75047  21964968.64547
  20554680.172 6   -379032.070 6   -287033.74648  20554676.52348
  24292439.547 4   -460452.723 4   -343853.89846  24292437.72346
  21083486.320 6    213338.445 6    161327.39849  21083486.59449
  21191188.898 6  -1620529.176 6  -1221164.09849  21191187.49249
  21706616.617 6    -22657.551 6    -27520.95749  21706614.16849
  24059717.539 3   1036904.578 3    789556.54346  24059719.07446
 20  5 16  0  9 49.0000000  0 10G03G04G08G14G16G21G26G27G31G32      -0.000296446
  24357797.070 3    237212.879 3    172456.49247  24357797.14547
  22501002.180 6  -1475132.488 6  -1102114.16847  22501000.63747
  23485589.445 4  -1809486.754 4  -1380737.07848  23485589.59448
  21965348.984 6    815916.516 6    615251.04747  21965345.37547
  20554520.227 6   -379871.777 6   -287688.06348  20554516.66048
  24292182.664 5   -461804.617 5   -344907.31646  24292180.25046
  21083584.602 6    213853.430 6    161728.68849  21083584.75449
  21190477.242 6  -1624267.457 6  -1224077.03949  21190476.26649
  21706605.766 6    -22715.383 6    -27566.02349  21706602.77349
  24060230.953 3   1039604.207 3    791660.13346  24060232.93046
 20  5 16  0  9 50.0000000  0 10G03G04G08G14G16G21G26G27G31G32      -0.000297073
  24357912.617 2    237819.703 2    172929.33647  24357912.89847
  22500320.680 6  -1478715.488 6  -1104906.12147  22500318.25047
  23484700.547 4  -1814157.965 4  -1384376.98048  23484700.53548
  21965725.586 6    817897.289 6    616794.51247  21965722.52047
  20554360.633 6   -380711.270 6   -288342.21948  20554356.58648
  24291925.125 5   -463156.309 5   -345960.57046  24291923.26646
  21083682.383 6    214368.383 6    162129.94549  21083682.61349
  21189765.961 6  -1628005.449 6  -1226989.76649  21189765.00449
  21706594.609 6    -22773.152 6    -27611.03549  21706591.52349
  24060744.523 3   1042303.703 3    793763.66046  24060746.43446
 20  5 16  0  9 51.0000000  0 10G03G04G08G14G16G21G26G27G31G32      -0.000297703
  24358027.344 2    238426.836 2    173402.43447  24358028.31347
  22499638.258 5  -1482298.086 5  -1107697.76247  22499636.99647
  23483811.195 4  -1818829.063 4  -1388016.80148  23483811.80148
  21966102.883 6    819878.422 6    618338.25047  21966099.44147
  20554200.758 6   -381550.426 6   -288996.10548  20554196.64148
  24291668.891 5   -464507.664 5   -347013.58246  24291666.43446
  21083780.539 6    214883.461 6    162531.30549  21083780.67649
  21189054.625 6  -1631742.977 6  -1229902.12149  21189053.69949
  21706583.594 6    -22830.719 6    -27655.89149  21706581.03149
  24061258.820 3   1045003.355 3    795867.28146  24061260.24646
 20  5 16  0  9 52.0000000  0 10G03G04G08G14G16G21G26G27G31G32      -0.000298332
  24358142.750 2    239034.102 2    173875.62147  24358143.98847
  22498957.125 5  -1485880.230 5  -1110489.03947  22498954.90247
  23482922.938 4  -1823499.961 4  -1391656.46148  23482922.55548
  21966479.523 6    821859.922 6    619882.28147  21966476.50447
  20554041.305 6   -382389.211 6   -289649.71148  20554037.43848
  24291411.070 5   -465858.594 5   -348066.27746  24291409.00446
  21083878.586 6    215398.668 6    162932.76249  21083878.80949
  21188343.805 6  -1635480.020 6  -1232814.10249  21188342.79749
  21706572.781 6    -22888.016 6    -27700.53549  21706569.87149
  24061772.766 3   1047703.035 3    797970.92246  24061773.96946
 20  5 16  0  9 53.0000000  0 10G03G04G08G14G16G21G26G27G31G32      -0.000298960
  24358258.320 2    239641.609 2    174349.00447  24358259.57447
  22498275.414 5  -1489462.031 5  -1113280.04747  22498273.98047
  23482033.516 4  -1828170.719 4  -1395296.00848  23482033.96948
  21966856.914 6    823841.813 6    621426.61347  21966853.70347
  20553882.117 6   -383227.648 6   -290303.03948  20553878.42248
  24291153.617 5   -467209.227 5   -349118.72346  24291152.49646
  21083976.672 6    215914.027 6    163334.34049  21083976.76649
  21187632.508 6  -1639216.578 6  -1235725.71149  21187631.55949
  21706561.758 6    -22945.102 6    -27745.02349  21706558.80149
  24062286.273 3   1050402.809 3    800074.62546  24062287.55546
 20  5 16  0  9 54.0000000  0 10G03G04G08G14G16G21G26G27G31G32      -0.000299589
  24358374.367 2    240249.184 2    174822.43847  24358375.19147
  22497593.734 5  -1493043.473 5  -1116070.78547  22497592.07447
  23481145.289 4  -1832841.406 4  -1398935.51248  23481145.10948
  21967234.398 6    825823.984 6    622971.16047  21967230.95347
  20553722.328 6   -384065.836 6   -290956.17248  20553718.28548
  24290897.125 5   -468559.578 5   -350170.93446  24290895.39146
  21084075.078 6    216429.398 6    163735.93449  21084074.75049
  21186921.148 6  -1642952.770 6  -1238637.02749  21186920.76649
  21706551.125 6    -23002.102 6    -27789.44549  21706548.32449
  24062799.484 3   1053102.598 3    802178.36345  24062801.05945
 20  5 16  0  9 55.0000000  0 10G03G04G08G14G16G21G26G27G31G32      -0.000300219
  24358489.914 2    240857.055 2    175296.10246  24358490.71546
  22496912.500 5  -1496624.480 5  -1118861.18047  22496910.68047
  23480256.383 4  -1837511.871 4  -1402574.83248  23480256.39148
  21967611.422 6    827806.535 6    624516.00847  21967607.92647
  20553562.984 6   -384903.625 6   -291608.99248  20553559.19148
  24290640.398 5   -469909.527 5   -351222.84846  24290638.39546
  21084173.000 6    216944.977 6    164137.68049  21084172.74249
  21186210.711 6  -1646688.422 6  -1241547.92649  21186209.79349
  21706540.391 6    -23058.777 6    -27833.60949  21706537.43449
  24063313.625 3   1055802.484 3    804282.17245  24063315.08645
 20  5 16  0  9 56.0000000  0 10G03G04G08G14G16G21G26G27G31G32      -0.000300848
  24358605.414 2    241464.980 2    175769.81647  24358606.39147
  22496230.453 5  -1500205.156 5  -1121651.31347  22496229.26247
  23479367.633 4  -1842182.293 4  -1406214.12148  23479367.91448
  21967988.578 6    829789.379 6    626061.07447  21967985.55147
  20553403.773 6   -385741.145 6   -292261.61348  20553399.53948
  24290383.844 4   -471259.230 4   -352274.56346  24290381.61746
  21084270.953 6    217460.555 6    164539.43849  21084271.13349
  21185499.813 6  -1650423.711 6  -1244458.54349  21185498.87149
  21706529.586 6    -23115.363 6    -27877.70349  21706526.57449
  24063827.398 3   1058502.355 3    806385.94945  24063829.13745
 20  5 16  0  9 57.0000000  0 10G03G04G08G14G16G21G26G27G31G32      -0.000301477
  24358721.656 2    242073.078 2    176243.65646  24358722.15646
  22495549.656 6  -1503785.531 6  -1124441.20747  22495548.21147
  23478479.078 4  -1846852.590 4  -1409853.31648  23478478.86348
  21968366.336 6    831772.488 6    627606.34047  21968362.88747
  20553244.078 6   -386578.391 6   -292914.00848  20553240.31348
  24290126.961 4   -472608.637 4   -353326.04746  24290125.27346
  21084369.172 6    217976.230 6    164941.25449  21084368.64549
  21184788.789 6  -1654158.586 6  -1247368.83649  21184788.43449
  21706518.922 6    -23171.766 6    -27921.65649  21706516.01249
  24064341.672 3   1061202.223 3    808489.73445  24064342.78545
 20  5 16  0  9 58.0000000  0 10G03G04G08G14G16G21G26G27G31G32      -0.000302105
  24358836.570 2    242681.301 2    176717.59447  24358837.84847
  22494868.758 6  -1507365.578 6  -1127230.86747  22494866.91447
  23477589.938 4  -1851522.852 4  -1413492.47748  23477589.98448
  21968743.555 6    833755.891 6    629151.85547  21968740.03547
  20553084.914 6   -387415.383 6   -293566.20348  20553081.15648
  24289869.859 4   -473957.766 4   -354377.31346  24289868.23446
  21084466.883 6    218491.922 6    165343.09049  21084467.05549
  21184078.773 6  -1657893.102 6  -1250278.84849  21184077.65649
  21706508.352 6    -23228.066 6    -27965.52349  21706505.46549
  24064855.445 3   1063902.125 3    810593.54745  24064856.84445
 20  5 16  0  9 59.0000000  0 10G03G04G08G14G16G21G26G27G31G32      -0.000302734
  24358952.273 3    243289.660 3    177191.63747  24358953.46147
  22494187.945 6  -1510945.234 6  -1130020.20747  22494185.73047
  23476700.992 4  -1856192.977 4  -1417131.53548  23476701.48848
  21969120.414 6    835739.625 6    630697.61347  21969117.50847
  20552926.039 6   -388252.043 6   -294218.14848  20552921.67248
  24289612.563 4   -475306.586 4   -355428.32446  24289611.39546
  21084565.055 6    219007.723 6    165745.02049  21084565.19549
  21183367.922 6  -1661627.141 6  -1253188.48849  21183367.07849
  21706497.930 6    -23284.152 6    -28009.22749  21706494.87549
  24065369.227 3   1066602.059 3    812697.39145  24065370.05145
 20  5 16  0 10  0.0000000  0 10G03G04G08G14G16G21G26G27G31G32      -0.000303364
  24359068.094 3    243898.055 3    177665.71147  24359069.71147
  22493505.813 5  -1514524.637 5  -1132809.35247  22493504.43447
  23475812.328 4  -1860863.063 4  -1420770.56648  23475812.80948
  21969498.602 6    837723.586 6    632243.55147  21969495.42647
  20552766.797 6   -389088.469 6   -294869.90248  20552762.74648
  24289356.867 4   -476655.137 4   -356479.14846  24289354.66046
  21084663.586 6    219523.500 6    166146.91849  21084663.35249
  21182657.391 6  -1665360.875 6  -1256097.89149  21182655.93849
  21706486.742 6    -23340.172 6    -28052.88349  21706483.92649
  24065882.578 3   1069301.902 3    814801.16446  24065884.19146
 20  5 16  0 10  1.0000000  0 10G03G04G08G14G16G21G26G27G31G32      -0.000303993
  24359184.117 3    244506.680 3    178139.97747  24359185.01247
  22492824.766 5  -1518103.633 5  -1135598.18447  22492823.14847
  23474924.078 4  -1865533.008 4  -1424409.48048  23474924.24648
  21969875.789 6    839707.914 6    633789.79347  21969873.02347
  20552607.438 6   -389924.582 6   -295521.42248  20552603.57048
  24289100.188 4   -478003.379 4   -357529.73846  24289098.04746
  21084761.563 6    220039.406 6    166548.92649  21084761.51249
  21181946.961 6  -1669094.117 6  -1259006.90649  21181945.79749
  21706476.508 6    -23395.988 6    -28096.37549  21706473.40249
  24066396.797 3   1072001.832 3    816905.00046  24066397.91046
 20  5 16  0 10  2.0000000  0 10G03G04G08G14G16G21G26G27G31G32      -0.000304623
  24359300.594 2    245115.398 2    178614.29747  24359300.98447
  22492143.813 5  -1521682.238 5  -1138386.70747  22492142.32047
  23474036.203 4  -1870202.859 4  -1428048.32848  23474035.44548
  21970253.883 6    841692.551 6    635336.26247  21970250.25047
  20552448.984 6   -390760.359 6   -296172.67648  20552444.36348
  24288844.227 5   -479351.270 5   -358580.05146  24288841.45346
  21084859.891 6    220555.418 6    166951.00849  21084859.70349
  21181236.555 6  -1672826.953 6  -1261915.60549  21181235.95749
  21706465.625 6    -23451.609 6    -28139.71549  21706462.60549
  24066910.398 3   1074701.820 3    819008.87546  24066911.63346
 20  5 16  0 10  3.0000000  0 10G03G04G08G14G16G21G26G27G31G32      -0.000305252
  24359416.234 3    245724.359 3    179088.81647  24359417.11747
  22491463.242 5  -1525260.539 5  -1141175.00047  22491461.45347
  23473146.734 4  -1874872.555 4  -1431687.04748  23473146.93848
  21970631.195 6    843677.520 6    636882.98847  21970627.84447
  20552289.406 6   -391595.852 6   -296823.71948  20552285.60248
  24288587.203 5   -480698.855 5   -359630.11346  24288584.98846
  21084958.141 6    221071.465 6    167353.11749  21084957.96949
  21180526.773 6  -1676559.344 6  -1264823.96549  21180525.40249
  21706454.961 6    -23507.070 6    -28182.93849  21706452.22349
  24067424.227 2   1077401.789 2    821112.73446  24067425.66446
 20  5 16  0 10  4.0000000  0 10G03G04G08G14G16G21G26G27G31G32      -0.000305882
  24359531.703 3    246333.367 3    179563.37547  24359532.80547
  22490782.344 6  -1528838.488 6  -1143963.01247  22490780.40247
  23472258.008 4  -1879542.180 4  -1435325.71548  23472258.48048
  21971009.211 6    845662.770 6    638429.94547  21971005.75047
  20552130.391 6   -392431.094 6   -297474.55948  20552126.66448
  24288331.813 4   -482046.172 4   -360679.95746  24288328.55146
  21085056.461 6    221587.594 6    167755.29749  21085056.44949
  21179816.109 6  -1680291.344 6  -1267732.02049  21179815.48449
  21706444.875 6    -23562.379 6    -28226.03149  21706441.77049
  24067937.563 3   1080101.789 3    823216.62946  24067939.47746
 20  5 16  0 10  5.0000000  0 10G03G04G08G14G16G21G26G27G31G32      -0.000306511
  24359647.750 3    246942.598 3    180038.08647  24359648.68847
  22490101.117 5  -1532416.039 5  -1146750.71947  22490099.67247
  23471369.438 4  -1884211.711 4  -1438964.30948  23471369.89848
  21971387.406 6    847648.316 6    639977.12147  21971383.76247
  20551971.641 6   -393265.992 6   -298125.12948  20551967.69948
  24288074.789 4   -483393.145 4   -361729.55546  24288072.62546
  21085154.469 6    222103.801 6    168157.53549  21085153.98049
  21179106.258 6  -1684022.918 6  -1270639.73849  21179105.17649
  21706434.258 6    -23617.508 6    -28268.99649  21706431.52749
  24068450.953 2   1082801.855 2    825320.56646  24068452.99646
 20  5 16  0 10  6.0000000  0 10G03G04G08G14G16G21G26G27G31G32      -0.000307140
  24359763.539 3    247551.984 3    180512.93447  24359764.27747
  22489420.891 6  -1535993.254 6  -1149538.14547  22489418.59847
  23470481.305 4  -1888881.074 4  -1442602.77348  23470481.19148
  21971765.117 6    849634.258 6    641524.60947  21971761.60247
  20551812.852 6   -394100.551 6   -298775.43848  20551808.81348
  24287817.766 4   -484739.835 4   -362778.91946  24287815.67246
  21085252.891 6    222620.137 6    168559.88349  21085253.02749
  21178396.375 6  -1687754.008 6  -1273547.08249  21178395.08249
  21706423.578 6    -23672.422 6    -28311.78949  21706420.37949
  24068964.820 3   1085501.980 3    827424.54746  24068966.64846
 20  5 16  0 10  7.0000000  0 10G03G04G08G14G16G21G26G27G31G32      -0.000307770
  24359880.039 3    248161.566 3    180987.93047  24359880.98847
  22488739.984 5  -1539570.031 5  -1152325.24647  22488738.37947
  23469592.188 4  -1893550.266 4  -1446241.10948  23469592.58248
  21972143.258 6    851620.543 6    643072.36347  21972139.41847
  20551653.984 6   -394934.777 6   -299425.48048  20551649.81348
  24287561.938 5   -486086.102 5   -363827.94946  24287559.27746
  21085350.797 6    223136.578 6    168962.30149  21085350.42249
  21177686.375 6  -1691484.633 6  -1276454.06349  21177685.72349
  21706413.609 6    -23727.133 6    -28354.42249  21706410.18849
  24069479.352 3   1088202.156 3    829528.59046  24069480.88346
 20  5 16  0 10  8.0000000  0 10G03G04G08G14G16G21G26G27G31G32      -0.000308399
  24359995.406 3    248771.266 3    181463.02047  24359997.14147
  22488059.148 6  -1543146.477 6  -1155112.08247  22488057.93047
  23468704.219 4  -1898219.379 4  -1449879.38348  23468704.21148
  21972521.047 6    853607.133 6    644620.35547  21972517.54747
  20551495.375 6   -395768.730 6   -300075.31348  20551491.37548
  24287305.906 5   -487432.090 5   -364876.77346  24287303.79346
  21085449.195 6    223653.117 6    169364.80149  21085449.08649
  21176976.570 6  -1695214.867 6  -1279360.73449  21176975.46949
  21706402.680 6    -23781.691 6    -28396.93049  21706400.11749
  24069993.000 3   1090902.340 3    831632.59846  24069994.39846
 20  5 16  0 10  9.0000000  0 10G03G04G08G14G16G21G26G27G31G32      -0.000309029
  24360111.180 3    249381.203 3    181938.29347  24360112.94547
  22487379.094 6  -1546722.508 6  -1157898.59847  22487377.30947
  23467815.828 4  -1902888.336 4  -1453517.52348  23467815.84048
  21972899.047 6    855594.098 6    646168.62947  21972896.03147
  20551336.898 6   -396602.297 6   -300724.84448  20551333.10548
  24287050.117 5   -488777.711 5   -365925.30946  24287047.26646
  21085548.000 6    224169.738 6    169767.36349  21085547.58249
  21176266.570 6  -1698944.594 6  -1282267.01649  21176265.67249
  21706392.461 6    -23835.992 6    -28439.23449  21706389.51649
  24070507.320 3   1093602.621 3    833736.72346  24070508.30146
 20  5 16  0 10 10.0000000  0 10G03G04G08G14G16G21G26G27G31G32      -0.000309658
  24360227.289 2    249991.313 2    182413.70347  24360228.75847
  22486698.117 5  -1550298.098 5  -1160684.76647  22486696.86747
  23466926.945 4  -1907557.121 4  -1457155.53948  23466927.41848
  21973277.516 6    857581.445 6    647717.20347  21973273.69547
  20551177.938 6   -397435.512 6   -301374.10248  20551173.94948
  24286794.133 5   -490122.992 5   -366973.57046  24286791.02346
  21085646.336 6    224686.563 6    170170.07849  21085646.16449
  21175557.328 6  -1702673.855 6  -1285172.93049  21175556.35549
  21706382.164 6    -23890.070 6    -28481.37549  21706379.57049
  24071020.641 3   1096302.988 3    835840.90646  24071022.10246
 20  5 16  0 10 11.0000000  0 10G03G04G08G14G16G21G26G27G31G32      -0.000310287
  24360344.789 3    250601.563 3    182889.22747  24360344.97347
  22486018.227 5  -1553873.387 5  -1163470.71147  22486016.49247
  23466038.781 4  -1912225.813 4  -1460793.47748  23466038.75048
  21973655.688 6    859569.039 6    649265.98447  21973651.83647
  20551019.609 6   -398268.480 6   -302023.16848  20551015.74648
  24286538.188 5   -491467.992 5   -368021.62146  24286535.16846
  21085744.438 6    225203.379 6    170572.78149  21085744.34049
  21174847.570 6  -1706402.738 6  -1288078.55549  21174846.41449
  21706371.672 6    -23944.008 6    -28523.40649  21706368.96949
  24071535.344 3   1099003.336 3    837945.06346  24071535.80546
 20  5 16  0 10 12.0000000  0 10G03G04G08G14G16G21G26G27G31G32      -0.000310917
  24360460.453 2    251211.852 2    183364.77347  24360461.08647
  22485338.711 5  -1557448.402 5  -1166256.43847  22485336.48847
  23465150.570 4  -1916894.516 4  -1464431.42648  23465150.47748
  21974033.820 6    861556.844 6    650814.92647  21974030.34447
  20550861.484 6   -399101.254 6   -302672.09448  20550857.31348
  24286281.836 4   -492812.813 4   -369069.55146  24286279.37546
  21085842.852 6    225720.180 6    170975.48449  21085842.69149
  21174138.109 6  -1710131.289 6  -1290983.91849  21174136.77049
  21706361.898 6    -23997.930 6    -28565.42249  21706358.93049
  24072048.273 3   1101703.609 3    840049.17646  24072049.95746
 20  5 16  0 10 13.0000000  0 10G03G04G08G14G16G21G26G27G31G32      -0.000311546
  24360576.664 2    251822.258 2    183840.41447  24360577.38747
  22484658.008 5  -1561023.117 5  -1169041.94147  22484655.96947
  23464262.055 4  -1921563.129 4  -1468069.30948  23464261.94148
  21974412.109 6    863545.000 6    652364.14147  21974408.85247
  20550702.711 6   -399933.703 6   -303320.75048  20550699.26648
  24286025.883 4   -494157.289 4   -370117.20346  24286023.05546
  21085941.180 6    226237.082 6    171378.27049  21085941.00449
  21173428.586 6  -1713859.391 6  -1293888.93449  21173427.50849
  21706351.711 6    -24051.613 6    -28607.25849  21706348.78149
  24072561.781 3   1104403.938 3    842153.33246  24072563.24646
 20  5 16  0 10 14.0000000  0 10G03G04G08G14G16G21G26G27G31G32      -0.000312176
  24360693.203 3    252432.883 3    184316.23447  24360693.71147
  22483977.641 6  -1564597.355 6  -1171827.06647  22483976.03147
  23463373.945 4  -1926231.559 4  -1471707.04348  23463373.89848
  21974790.773 6    865533.480 6    653913.60947  21974787.07847
  20550544.180 6   -400765.793 6   -303969.13748  20550540.54748
  24285770.180 4   -495501.406 4   -371164.55946  24285767.39146
  21086039.219 6    226754.086 6    171781.12949  21086039.61349
  21172719.219 6  -1717587.023 6  -1296793.57849  21172718.28149
  21706341.258 6    -24105.098 6    -28648.93449  21706338.27749
  24073075.664 3   1107104.328 3    844257.52346  24073077.78546
 20  5 16  0 10 15.0000000  0 10G03G04G08G14G16G21G26G27G31G32      -0.000312805
  24360809.547 3    253043.703 3    184792.19947  24360809.77347
  22483298.164 6  -1568171.238 6  -1174611.91047  22483295.69947
  23462485.188 4  -1930899.848 4  -1475344.67248  23462485.27348
  21975169.133 6    867522.336 6    655463.36347  21975165.42647
  20550386.180 6   -401597.578 6   -304617.28148  20550381.99248
  24285514.250 4   -496845.195 4   -372211.66846  24285511.63346
  21086138.180 6    227271.203 6    172184.07449  21086137.97349
  21172009.906 6  -1721314.223 6  -1299697.89149  21172009.11749
  21706331.375 6    -24158.379 6    -28690.44949  21706328.30549
  24073590.359 3   1109804.762 3    846361.74646  24073591.45346
 20  5 16  0 10 16.0000000  0 10G03G04G08G14G16G21G26G27G31G32      -0.000313435
  24360925.633 3    253654.695 3    185268.28547  24360926.00447
  22482617.633 6  -1571744.758 6  -1177396.46547  22482616.17647
  23461597.063 4  -1935568.043 4  -1478982.22748  23461596.96148
  21975547.891 6    869511.500 6    657013.36347  21975544.12547
  20550227.922 6   -402429.027 6   -305265.16048  20550223.82848
  24285258.961 5   -498188.676 5   -373258.52346  24285256.48846
  21086236.266 6    227788.414 6    172587.09849  21086236.09849
  21171300.719 6  -1725040.969 6  -1302601.85549  21171299.79349
  21706321.023 6    -24211.477 6    -28731.82849  21706318.50449
  24074104.156 3   1112505.289 3    848466.04746  24074105.28546
 20  5 16  0 10 17.0000000  0 10G03G04G08G14G16G21G26G27G31G32      -0.000314064
  24361041.469 3    254265.832 3    185744.49247  24361042.06647
  22481937.711 6  -1575317.875 6  -1180180.71547  22481936.09447
  23460708.430 4  -1940236.023 4  -1482619.61748  23460708.54748
  21975926.383 6    871501.047 6    658563.66047  21975922.64547
  20550070.047 6   -403260.133 6   -305912.77348  20550065.87548
  24285003.016 5   -499531.813 5   -374305.12146  24285000.59846
  21086334.773 6    228305.742 6    172990.21949  21086334.66049
  21170591.641 6  -1728767.262 6  -1305505.45349  21170591.10949
  21706310.969 6    -24264.379 6    -28773.05549  21706308.23049
  24074617.539 3   1115205.781 3    850570.32846  24074618.97346
 20  5 16  0 10 18.0000000  0 10G03G04G08G14G16G21G26G27G31G32      -0.000314693
  24361157.648 2    254877.203 2    186220.87947  24361158.21547
  22481258.008 6  -1578890.539 6  -1182964.60547  22481256.42247
  23459819.859 4  -1944903.828 4  -1486256.87148  23459820.34048
  21976304.453 6    873490.973 6    660114.25047  21976300.91047
  20549911.625 6   -404090.859 6   -306560.09848  20549907.84448
  24284747.430 4   -500874.539 4   -375351.39546  24284744.70346
  21086433.461 6    228823.250 6    173393.46949  21086432.96549
  21169882.727 6  -1732493.031 6  -1308408.65649  21169881.45749
  21706300.969 6    -24316.996 6    -28814.05549  21706298.18449
  24075131.555 3   1117906.512 3    852674.78946  24075132.79746
 20  5 16  0 10 19.0000000  0 10G03G04G08G14G16G21G26G27G31G32      -0.000315323
  24361274.828 3    255488.863 3    186697.50847  24361274.80947
  22480578.305 6  -1582462.773 6  -1185748.16847  22480576.59447
  23458932.016 4  -1949571.473 4  -1489894.00048  23458932.38348
  21976683.766 6    875481.305 6    661665.15247  21976680.01247
  20549753.555 6   -404921.219 6   -307207.13748  20549749.65248
  24284492.227 4   -502216.859 4   -376397.36746  24284489.30546
  21086531.625 6    229340.914 6    173796.84449  21086531.72349
  21169173.828 6  -1736218.309 6  -1311311.46949  21169172.82449
  21706291.242 6    -24369.375 6    -28854.87149  21706288.08649
  24075645.758 3   1120607.270 3    854779.27345  24075646.75045
 20  5 16  0 10 20.0000000  0 10G03G04G08G14G16G21G26G27G31G32      -0.000315952
  24361391.320 3    256100.527 3    187174.12547  24361391.15647
  22479898.109 6  -1586034.734 6  -1188531.52047  22479896.56347
  23458043.055 4  -1954239.070 4  -1493531.08648  23458044.05948
  21977062.219 6    877471.871 6    663216.23847  21977058.82847
  20549595.742 6   -405751.367 6   -307853.99648  20549591.95348
  24284237.141 4   -503558.965 4   -377443.16446  24284234.10246
  21086630.414 6    229858.527 6    174200.17249  21086630.39849
  21168465.094 6  -1739943.242 6  -1314214.01649  21168464.22749
  21706281.164 6    -24421.680 6    -28895.62949  21706277.75849
  24076159.766 3   1123307.984 3    856883.71146  24076160.85246
 20  5 16  0 10 21.0000000  0 10G03G04G08G14G16G21G26G27G31G32      -0.000316582
  24361507.391 3    256712.344 3    187650.86747  24361507.55547
  22479218.906 5  -1589606.324 5  -1191314.57447  22479217.03147
  23457156.016 4  -1958906.551 4  -1497168.08248  23457156.02748
  21977441.313 6    879462.711 6    664767.53947  21977437.45347
  20549437.469 6   -406581.199 6   -308500.62148  20549433.52048
  24283981.023 4   -504900.801 4   -378488.75046  24283978.71146
  21086728.391 6    230376.258 6    174603.60549  21086728.74249
  21167756.109 6  -1743667.730 6  -1317116.21549  21167755.41449
  21706271.664 6    -24473.805 6    -28936.25449  21706268.07049
  24076673.547 3   1126008.715 3    858988.18446  24076674.84446
 20  5 16  0 10 22.0000000  0 10G03G04G08G14G16G21G26G27G31G32      -0.000317213
  24361623.719 3    257324.344 3    188127.75047  24361623.95347
  22478539.305 6  -1593177.570 6  -1194097.36347  22478537.65247
  23456267.688 5  -1963573.910 5  -1500804.98048  23456267.54348
  21977820.180 6    881453.910 6    666319.12147  21977816.60247
  20549280.117 6   -407410.734 6   -309147.02048  20549276.10948
  24283726.266 4   -506242.258 4   -379534.02746  24283723.27746
  21086826.922 6    230894.090 6    175007.10549  21086827.35249
  21167047.617 6  -1747391.801 6  -1320018.08649  21167046.66849
  21706261.281 6    -24525.719 6    -28976.70749  21706258.50849
  24077187.930 3   1128709.480 3    861092.67646  24077188.61346
 20  5 16  0 10 23.0000000  0 10G03G04G08G14G16G21G26G27G31G32      -0.000317842
  24361739.891 3    257936.543 3    188604.78547  24361740.17247
  22477859.492 6  -1596748.363 6  -1196879.79347  22477857.84447
  23455379.180 4  -1968241.055 4  -1504441.70748  23455379.94148
  21978199.016 6    883445.473 6    667870.98847  21978195.48847
  20549122.180 6   -408239.887 6   -309793.11348  20549118.04748
  24283470.234 4   -507583.379 4   -380579.06646  24283468.49646
  21086926.125 6    231412.035 6    175410.69149  21086925.87949
  21166339.086 6  -1751115.375 6  -1322919.57449  21166337.82849
  21706251.656 6    -24577.395 6    -29016.97349  21706248.43449
  24077701.297 3   1131410.367 3    863197.25846  24077702.64146
 20  5 16  0 10 24.0000000  0 10G03G04G08G14G16G21G26G27G31G32      -0.000318472
  24361856.734 3    258548.957 3    189081.98847  24361856.84447
  22477180.273 6  -1600318.742 6  -1199661.91047  22477178.21147
  23454491.664 4  -1972908.047 4  -1508078.32448  23454491.67248
  21978577.922 6    885437.441 6    669423.17247  21978574.66447
  20548964.547 6   -409068.684 6   -310438.92248  20548960.36748
  24283216.047 4   -508924.109 4   -381623.80146  24283213.37146
  21087024.695 6    231930.145 6    175814.41449  21087024.68449
  21165630.563 6  -1754838.438 6  -1325820.65249  21165629.44149
  21706242.016 6    -24628.855 6    -29057.06649  21706238.71549
  24078215.594 4   1134111.371 4    865301.93446  24078216.41046
 20  5 16  0 10 25.0000000  0 10G03G04G08G14G16G21G26G27G31G32      -0.000319101
  24361973.813 3    259161.508 3    189559.30147  24361973.70347
  22476500.914 6  -1603888.711 6  -1202443.70747  22476499.22347
  23453603.813 4  -1977574.891 4  -1511714.83248  23453603.56648
  21978957.320 6    887429.750 6    670975.61747  21978953.82047
  20548806.609 6   -409897.145 6   -311084.48048  20548802.92648
  24282961.086 4   -510264.508 4   -382668.27346  24282958.27046
  21087123.367 6    232448.379 6    176218.23449  21087123.10949
  21164922.563 6  -1758561.043 6  -1328721.38349  21164920.91449
  21706232.039 6    -24680.078 6    -29096.98049  21706228.70349
  24078729.750 3   1136812.387 3    867406.60946  24078730.42246
 20  5 16  0 10 26.0000000  0 10G03G04G08G14G16G21G26G27G31G32      -0.000319731
  24362089.953 3    259774.344 3    190036.83247  24362089.93447
  22475821.195 6  -1607458.309 6  -1205225.20747  22475819.89147
  23452715.633 4  -1982241.621 4  -1515351.24248  23452715.62148
  21979336.359 6    889422.387 6    672528.32047  21979333.23447
  20548649.023 6   -410725.285 6   -311729.78948  20548644.96948
  24282706.063 4   -511604.535 4   -383712.44946  24282703.09846
  21087221.453 6    232966.691 6    176622.10949  21087221.46149
  21164214.078 6  -1762283.207 6  -1331621.77349  21164212.52349
  21706222.266 6    -24731.109 6    -29136.74649  21706219.26649
  24079242.953 3   1139513.488 3    869511.35946  24079244.52346
 20  5 16  0 10 27.0000000  0 10G03G04G08G14G16G21G26G27G31G32      -0.000320362
  24362206.875 3    260387.211 3    190514.39547  24362206.66447
  22475142.055 6  -1611027.547 6  -1208006.43447  22475140.58647
  23451827.070 5  -1986908.211 5  -1518987.55148  23451827.31648
  21979715.641 6    891415.324 6    674081.26247  21979711.96147
  20548491.547 6   -411553.145 6   -312374.87148  20548487.81348
  24282450.094 4   -512944.324 4   -384756.43846  24282448.37546
  21087320.344 6    233485.070 6    177026.03949  21087320.49649
  21163505.227 6  -1766004.957 6  -1334521.84049  21163504.53949
  21706212.750 6    -24782.008 6    -29176.41049  21706209.28149
  24079756.820 3   1142214.570 3    871616.10246  24079758.51646
 20  5 16  0 10 28.0000000  0 10G03G04G08G14G16G21G26G27G31G32      -0.000320992
  24362323.398 3    261000.234 3    190992.07047  24362323.33647
  22474463.289 6  -1614596.445 6  -1210787.39547  22474461.60247
  23450939.352 4  -1991574.699 4  -1522623.77748  23450939.45748
  21980095.313 6    893408.547 6    675634.41447  21980091.45347
  20548334.156 6   -412380.711 6   -313019.72748  20548330.32448
  24282196.297 5   -514283.781 5   -385800.16446  24282193.73446
  21087418.672 6    234003.531 6    177430.03949  21087419.04349
  21162797.219 6  -1769726.281 6  -1337421.57449  21162796.21549
  21706202.617 6    -24832.734 6    -29215.93849  21706199.93449
  24080271.484 3   1144915.711 3    873720.90246  24080272.31646
 20  5 16  0 10 29.0000000  0 10G03G04G08G14G16G21G26G27G31G32      -0.000321621
  24362440.008 3    261613.406 3    191469.86347  24362440.21547
  22473784.008 6  -1618165.051 6  -1213568.11347  22473782.34847
  23450051.453 4  -1996241.125 4  -1526259.95348  23450051.29348
  21980474.469 6    895402.070 6    677187.80147  21980471.42247
  20548176.578 6   -413207.996 6   -313664.36748  20548172.55948
  24281940.570 5   -515622.930 5   -386843.66846  24281938.51646
  21087517.672 6    234522.031 6    177834.06649  21087517.99249
  21162089.078 6  -1773447.230 6  -1340321.01249  21162088.31649
  21706193.359 6    -24883.316 6    -29255.35949  21706190.43449
  24080785.906 3   1147616.789 3    875825.64546  24080786.43046
 20  5 16  0 10 30.0000000  0 10G03G04G08G14G16G21G26G27G31G32      -0.000322250
  24362556.281 3    262226.688 3    191947.75047  24362556.87547
  22473105.273 6  -1621733.234 6  -1216348.52747  22473103.34447
  23449163.227 4  -2000907.469 4  -1529896.06648  23449163.21548
  21980853.883 6    897395.879 6    678741.42647  21980850.53147
  20548019.266 6   -414035.012 6   -314308.79348  20548015.52048
  24281686.266 5   -516961.840 5   -387886.98046  24281683.68846
  21087616.523 6    235040.605 6    178238.14849  21087616.36749
  21161381.055 6  -1777167.730 6  -1343220.10249  21161380.50449
  21706184.102 6    -24933.738 6    -29294.64849  21706181.10949
  24081299.391 3   1150317.910 3    877930.40646  24081300.83646
