     2.10           OBSERVATION DATA    GPS(GPS)            RINEX VERSION / TYPE
cnvtToRINEX 3.07.0  convertToRINEX OPR  19-May-20 12:31 UTC PGM / RUN BY / DATE 
----------------------------------------------------------- COMMENT             
GI02                                                        MARKER NAME         
GI02                                                        MARKER NUMBER       
GNSS Observer       Trimble                                 OBSERVER / AGENCY   
0220365401          5700                2.32                REC # / TYPE / VERS 
                    UNKNOWN EXT                             ANT # / TYPE        
 -3050428.3870  4927746.8498  2654390.8130                  APPROX POSITION XYZ 
        0.0000        0.0000        0.0000                  ANTENNA: DELTA H/E/N
     1     1     0                                          WAVELENGTH FACT L1/2
     4    C1    L1    L2    P2                              # / TYPES OF OBSERV 
  2020     5    16     3    10   39.0000000     GPS         TIME OF FIRST OBS   
  2020     5    16     5     0   25.0000000     GPS         TIME OF LAST OBS    
     0                                                      RCV CLOCK OFFS APPL 
    18                                                      LEAP SECONDS        
    13                                                      # OF SATELLITES     
   G01  6587  6587  6587  6587                              PRN / # OF OBS      
   G03  1152  1152  1152  1152                              PRN / # OF OBS      
   G04  2206  2206  2206  2206                              PRN / # OF OBS      
   G07  6576  6576  6576  6576                              PRN / # OF OBS      
   G08  6558  6558  6558  6558                              PRN / # OF OBS      
   G09  3537  3537  3537  3537                              PRN / # OF OBS      
   G11  6587  6587  6587  6587                              PRN / # OF OBS      
   G16  5247  5247  5210  5210                              PRN / # OF OBS      
   G17   192   192   192   192                              PRN / # OF OBS      
   G22  3792  3792  3787  3787                              PRN / # OF OBS      
   G27  4887  4887  4887  4887                              PRN / # OF OBS      
   G28  1002  1002  1002  1002                              PRN / # OF OBS      
   G30  5322  5322  5322  5322                              PRN / # OF OBS      
CARRIER PHASE MEASUREMENTS: PHASE SHIFTS REMOVED            COMMENT             
                                                            END OF HEADER       
 20  5 16  3 10 39.0000000  0  5G01G09G11G16G27                      0.000204130
  22682446.08615    -64662.59015     -1307.87559  22682446.95359
  23246845.13316      7533.89116      2700.35958  23246843.67258
  20682129.79716    -36667.82416    -10345.97358  20682126.37558
  22954550.25015      9959.59415       221.77757  22954547.21957
  22081140.23416     21682.55516      9001.80959  22081139.52359
 20  5 16  3 10 40.0000000  0  5G01G09G11G16G27                      0.000203590
  22681614.273 5    -69032.762 5     -4713.19949  22681615.19549
  23246965.031 6      8165.723 6      3192.69148  23246964.29748
  20681664.148 6    -39116.191 6    -12253.77748  20681660.26648
  22954673.633 5     10609.273 5       728.01247  22954670.98447
  22081481.250 6     23470.508 6     10395.01249  22081479.93849
 20  5 16  3 10 41.0000000  0  5G01G09G11G16G27                      0.000203051
  22680782.797 6    -73405.004 6     -8120.14849  22680783.55149
  23247084.586 6      8795.703 6      3683.57448  23247083.78948
  20681198.063 6    -41566.281 6    -14162.94148  20681194.43048
  22954797.195 5     11256.793 5      1232.56647  22954794.20747
  22081821.008 6     25256.340 6     11786.56649  22081819.96149
 20  5 16  3 10 42.0000000  0  5G01G09G11G16G27                      0.000202507
  22679949.727 6    -77779.309 6    -11528.69549  22679951.00049
  23247204.102 6      9423.684 6      4172.91848  23247203.99648
  20680731.023 6    -44018.141 6    -16073.48448  20680727.48848
  22954919.781 5     11902.074 5      1735.38747  22954916.94947
  22082160.727 6     27039.984 6     13176.42649  22082159.34049
 20  5 16  3 10 43.0000000  0  5G01G09G11G16G27                      0.000201963
  22679117.773 6    -82155.645 6    -14938.81649  22679117.87549
  23247323.156 6     10049.832 6      4660.83248  23247322.83648
  20680264.063 6    -46471.723 6    -17985.37548  20680261.02048
  22955042.836 5     12545.223 5      2236.54747  22955039.41047
  22082499.391 6     28821.543 6     14564.65649  22082498.50449
 20  5 16  3 10 44.0000000  0  5G01G09G11G16G27                      0.000201420
  22678284.086 6    -86534.043 6    -18350.54749  22678284.61749
  23247442.063 6     10674.035 6      5147.22748  23247441.59048
  20679797.336 6    -48927.020 6    -19898.59448  20679793.05548
  22955163.961 5     13186.145 5      2735.96147  22955161.27347
  22082837.656 6     30600.906 6     15951.17249  22082836.87549
 20  5 16  3 10 45.0000000  0  5G01G09G11G16G27                      0.000200872
  22677450.688 5    -90914.434 5    -21763.84049  22677451.56349
  23247560.180 6     11296.367 6      5632.15248  23247559.83648
  20679329.586 6    -51384.031 6    -21813.14148  20679326.03148
  22955286.406 5     13824.949 5      3233.73046  22955282.94946
  22083176.234 6     32378.199 6     17336.06649  22083174.73849
 20  5 16  3 10 46.0000000  0  5G01G09G11G16G27                      0.000200325
  22676616.375 5    -95296.770 5    -25178.65249  22676617.24249
  23247678.688 6     11916.883 6      6115.66448  23247678.15248
  20678861.820 6    -53842.664 6    -23728.96548  20678857.94948
  22955407.617 5     14461.633 5      3729.84047  22955404.00447
  22083514.297 6     34153.445 6     18719.37149  22083513.14149
 20  5 16  3 10 47.0000000  0  5G01G09G11G16G27                      0.000199776
  22675782.508 5    -99681.012 5    -28594.94949  22675783.33649
  23247796.305 6     12535.668 6      6597.83648  23247795.77048
  20678393.906 6    -56302.875 6    -25646.00848  20678389.76648
  22955528.203 5     15096.332 5      4224.41447  22955525.07447
  22083851.406 6     35926.719 6     20101.14549  22083850.15649
 20  5 16  3 10 48.0000000  0  5G01G09G11G16G27                      0.000199224
  22674947.563 5   -104066.922 5    -32012.53949  22674948.50849
  23247913.984 6     13152.910 6      7078.80548  23247913.27048
  20677925.195 6    -58764.445 6    -27564.11748  20677921.60248
  22955648.703 5     15729.215 5      4717.56647  22955645.07847
  22084189.000 6     37698.215 6     21481.52749  22084187.49249
 20  5 16  3 10 49.0000000  0  5G01G09G11G16G27                      0.000198673
  22674112.781 6   -108454.352 6    -35431.32049  22674113.60249
  23248031.063 6     13768.738 6      7558.66448  23248030.69148
  20677456.344 6    -61227.254 6    -29483.18848  20677452.98848
  22955768.531 5     16360.336 5      5209.35247  22955765.36747
  22084525.117 6     39468.055 6     22860.62549  22084524.03149
 20  5 16  3 10 50.0000000  0  7G01G04G07G09G11G16G27                0.000198120
  22673277.203 6   -112843.301 6    -38851.28149  22673278.00849
  23349440.60915     41224.33215     15244.50857  23349440.19557
  22625591.38316    -99871.77016    -49038.52059  22625588.21559
  23248147.977 6     14383.195 6      8037.46148  23248147.23448
  20676987.477 6    -63691.219 6    -31403.15648  20676984.02048
  22955888.539 5     16989.895 5      5699.91447  22955885.31647
  22084861.523 6     41236.355 6     24238.52049  22084860.58649
 20  5 16  3 10 51.0000000  0  7G01G04G07G09G11G16G27                0.000197567
  22672442.164 6   -117233.750 6    -42272.40249  22672442.56649
  23349770.250 5     42954.168 5     16592.43047  23349769.25447
  22624857.070 6   -103730.016 6    -52044.94549  22624853.45749
  23248264.703 6     14996.309 6      8515.21548  23248264.60248
  20676518.703 6    -66156.387 6    -33324.06648  20676514.87948
  22956007.336 5     17617.793 5      6189.19547  22956004.83647
  22085197.820 6     43003.016 6     25615.13749  22085196.92249
 20  5 16  3 10 52.0000000  0  7G01G04G07G09G11G16G27                0.000197012
  22671606.055 6   -121625.602 6    -45694.62149  22671606.91049
  23350099.281 5     44682.465 5     17939.14847  23350098.44547
  22624123.117 6   -107589.617 6    -55052.43449  22624119.42649
  23248380.641 6     15608.184 6      8992.00448  23248380.74648
  20676049.016 6    -68622.629 6    -35245.82048  20676045.49248
  22956126.867 5     18244.172 5      6677.28147  22956124.21547
  22085533.711 6     44768.207 6     26990.61349  22085533.00049
 20  5 16  3 10 53.0000000  0  7G01G04G07G09G11G16G27                0.000196455
  22670770.492 6   -126018.742 6    -49117.84449  22670771.22749
  23350427.461 5     46409.344 5     19284.76647  23350426.80147
  22623388.523 6   -111450.445 6    -58060.87149  22623384.57449
  23248497.094 6     16218.828 6      9467.83248  23248497.04348
  20675579.813 6    -71089.883 6    -37168.35548  20675575.94148
  22956245.453 5     18869.082 5      7164.21947  22956242.97347
  22085869.742 6     46531.992 6     28364.98849  22085868.28549
 20  5 16  3 10 54.0000000  0  7G01G04G07G09G11G16G27                0.000195898
  22669934.055 6   -130413.211 6    -52542.10249  22669934.85249
  23350755.719 5     48134.754 5     20629.24247  23350755.27347
  22622652.992 6   -115312.598 6    -61070.34449  22622649.65249
  23248613.133 6     16828.309 6      9942.75048  23248612.55548
  20675110.352 6    -73558.160 6    -39091.68848  20675106.09448
  22956363.969 5     19492.543 5      7650.03547  22956361.92647
  22086205.063 6     48294.352 6     29738.26249  22086203.85949
 20  5 16  3 10 55.0000000  0  7G01G04G07G09G11G16G27                0.000195341
  22669097.453 6   -134808.852 6    -55967.27748  22669098.38348
  23351083.438 5     49858.898 5     21972.71947  23351083.07447
  22621918.336 6   -119175.840 6    -64080.66449  22621914.56349
  23248729.203 6     17436.801 6     10416.89848  23248728.77748
  20674640.250 6    -76027.273 6    -41015.67248  20674636.44548
  22956482.852 5     20114.672 5      8134.81647  22956480.25447
  22086539.797 6     50055.465 6     31110.55949  22086538.86349
 20  5 16  3 10 56.0000000  0  7G01G04G07G09G11G16G27                0.000194782
  22668261.125 6   -139205.633 6    -59393.34048  22668261.48848
  23351411.430 5     51581.785 5     23315.22347  23351410.88347
  22621183.031 6   -123040.133 6    -67091.80549  22621179.06649
  23248844.297 5     18044.254 5     10890.23448  23248844.28948
  20674170.266 6    -78497.184 6    -42940.27048  20674166.19948
  22956600.477 5     20735.547 5      8618.60947  22956598.07847
  22086875.047 6     51815.359 6     32481.90249  22086873.08649
 20  5 16  3 10 57.0000000  0  7G01G04G07G09G11G16G27                0.000194223
  22667424.180 5   -143603.441 5    -62820.20348  22667425.05548
  23351739.359 5     53303.484 5     24656.80947  23351738.60947
  22620447.344 6   -126905.441 6    -70103.73049  22620443.77049
  23248959.781 5     18650.805 5     11362.86748  23248959.59848
  20673699.891 6    -80967.855 6    -44865.47348  20673695.92248
  22956718.633 5     21355.219 5      9101.46947  22956716.08247
  22087209.516 6     53574.090 6     33852.34049  22087208.20749
 20  5 16  3 10 58.0000000  0  7G01G04G07G09G11G16G27                0.000193663
  22666586.898 6   -148002.293 6    -66247.87948  22666587.78148
  23352066.719 5     55024.008 5     25997.48047  23352066.12147
  22619711.758 6   -130771.750 6    -73116.44149  22619707.88349
  23249074.867 5     19256.430 5     11834.77748  23249074.80548
  20673229.617 6    -83439.266 6    -46791.25048  20673226.07048
  22956836.422 5     21973.707 5      9583.40247  22956833.61347
  22087544.883 6     55331.684 6     35221.89149  22087543.00049
 20  5 16  3 10 59.0000000  0  7G01G04G07G09G11G16G27                0.000193102
  22665750.172 6   -152402.102 6    -69676.30948  22665750.41048
  23352393.836 5     56743.484 5     27337.32847  23352393.48847
  22618975.992 6   -134638.891 6    -76129.79349  22618972.49649
  23249190.250 5     19861.270 5     12306.07848  23249190.09048
  20672759.219 6    -85911.262 6    -48717.47748  20672755.51648
  22956953.891 5     22591.152 5     10064.53147  22956950.99647
  22087878.211 6     57088.266 6     36590.65649  22087877.26649
 20  5 16  3 11  0.0000000  0  7G01G04G07G09G11G16G27                0.000192541
  22664912.031 5   -156802.691 5    -73105.33248  22664913.15248
  23352721.016 5     58462.027 5     28676.46147  23352720.37147
  22618239.156 6   -138506.832 6    -79143.77049  22618236.31349
  23249304.992 6     20465.457 6     12776.87548  23249304.80148
  20672288.883 6    -88383.797 6    -50644.12548  20672285.19548
  22957071.203 5     23207.605 5     10544.88347  22957068.77347
  22088212.406 6     58843.922 6     37958.69549  22088211.16849
 20  5 16  3 11  1.0000000  0  7G01G04G07G09G11G16G27                0.000191978
  22664074.883 5   -161204.004 5    -76534.91849  22664075.32849
  23353047.813 5     60179.770 5     30014.95747  23353047.09047
  22617503.414 6   -142375.410 6    -82158.24249  22617500.34449
  23249420.188 6     21069.027 6     13247.19148  23249419.68448
  20671818.375 6    -90856.676 6    -52571.04748  20671814.48048
  22957188.023 5     23823.262 5     11024.61747  22957185.58247
  22088546.141 6     60598.805 6     39326.14149  22088545.25849
 20  5 16  3 11  2.0000000  0  7G01G04G07G09G11G16G27                0.000191416
  22663236.813 5   -165606.105 5    -79965.12549  22663237.59049
  23353374.766 5     61896.559 5     31352.71547  23353373.96547
  22616767.117 6   -146244.715 6    -85173.28549  22616763.93849
  23249535.352 6     21671.957 6     13717.00048  23249534.37148
  20671347.719 6    -93330.063 6    -54498.35948  20671344.01648
  22957305.070 5     24437.973 5     11503.61347  22957302.68047
  22088880.406 6     62352.777 6     40692.86749  22088878.94949
 20  5 16  3 11  3.0000000  0  7G01G04G07G09G11G16G27                0.000190853
  22662398.781 5   -170009.000 5    -83395.94949  22662400.05949
  23353701.047 5     63612.410 5     32689.73847  23353700.35247
  22616031.180 6   -150114.742 6    -88188.89149  22616026.98449
  23249649.742 6     22274.227 6     14186.30148  23249649.02048
  20670876.656 6    -95803.926 6    -56426.05148  20670872.83648
  22957422.922 5     25051.746 5     11981.87947  22957419.72347
  22089213.813 6     64105.871 6     42058.91849  22089212.82849
 20  5 16  3 11  4.0000000  0  7G01G04G07G09G11G16G27                0.000190289
  22661561.594 6   -174412.668 6    -86827.37949  22661561.98449
  23354027.547 5     65327.406 5     34026.09446  23354026.87946
  22615294.070 6   -153985.516 6    -91205.07849  22615290.78149
  23249764.250 6     22875.852 6     14655.09448  23249763.28548
  20670406.063 6    -98278.258 6    -58354.10548  20670402.12548
  22957539.039 5     25664.586 5     12459.41447  22957535.67247
  22089547.195 6     65858.102 6     43424.28949  22089546.27049
 20  5 16  3 11  5.0000000  0  7G01G04G07G09G11G16G27                0.000189724
  22660723.586 6   -178817.188 6    -90259.46149  22660723.89549
  23354353.281 5     67041.426 5     35361.69547  23354352.95347
  22614557.133 6   -157857.047 6    -94221.85549  22614554.39149
  23249878.469 6     23476.793 6     15123.36348  23249877.34448
  20669935.227 6   -100753.094 6    -60282.54748  20669931.04748
  22957655.734 5     26276.480 5     12936.21147  22957652.46947
  22089880.563 6     67609.395 6     44788.93049  22089879.34449
 20  5 16  3 11  6.0000000  0  7G01G04G07G09G11G16G27                0.000189157
  22659885.141 5   -183222.246 5    -93691.98049  22659885.56649
  23354679.766 5     68754.738 5     36696.74247  23354679.21147
  22613820.742 6   -161729.109 6    -97239.04749  22613817.36349
  23249992.711 6     24077.285 6     15591.28148  23249991.93048
  20669464.398 6   -103228.227 6    -62211.21948  20669460.29348
  22957771.641 5     26887.629 5     13412.43847  22957768.75047
  22090213.516 6     69359.992 6     46153.02749  22090211.95749
 20  5 16  3 11  7.0000000  0  7G01G04G07G09G11G16G27                0.000188593
  22659046.797 6   -187627.969 6    -97125.01649  22659047.28149
  23355005.164 5     70467.270 5     38031.18047  23355005.12547
  22613083.930 6   -165601.777 6   -100256.71549  22613080.60549
  23250106.578 6     24677.250 6     16058.78548  23250106.28548
  20668992.938 6   -105703.660 6    -64140.12548  20668989.05148
  22957887.500 5     27498.000 5     13888.04347  22957884.80547
  22090546.984 6     71109.863 6     47516.56349  22090545.38749
 20  5 16  3 11  8.0000000  0  8G01G04G07G08G09G11G16G27             0.000188026
  22658208.172 5   -192034.203 5   -100558.44549  22658208.87149
  23355331.070 5     72179.191 5     39365.14547  23355330.59847
  22612346.547 6   -169474.867 6   -103274.71149  22612343.34049
  20669478.36717     10474.37917      5896.75859  20669477.47759
  23250220.883 5     25276.852 5     16526.00848  23250220.21148
  20668521.867 6   -108179.305 6    -66069.20348  20668517.81648
  22958003.398 5     28107.723 5     14363.15247  22958000.96947
  22090879.531 6     72859.141 6     48879.63349  22090878.39149
 20  5 16  3 11  9.0000000  0  8G01G04G07G08G09G11G16G27             0.000187460
  22657369.492 5   -196440.785 5   -103992.14549  22657370.05949
  23355656.531 5     73890.574 5     40698.68447  23355656.27747
  22611609.273 6   -173348.266 6   -106292.93849  22611606.14149
  20669526.852 7     10727.941 7      6094.34449  20669525.88749
  23250334.773 6     25876.211 6     16993.04348  23250334.21948
  20668051.211 6   -110654.977 6    -67998.29348  20668047.34848
  22958119.508 5     28716.914 5     14837.84847  22958116.88747
  22091212.297 6     74607.957 6     50242.34449  22091210.91449
 20  5 16  3 11 10.0000000  0  8G01G04G07G08G09G11G16G27             0.000186892
  22656530.664 5   -200847.805 5   -107426.18449  22656531.81649
  23355982.258 5     75601.453 5     42031.83246  23355981.99646
  22610872.031 6   -177222.078 6   -109311.49249  22610869.60249
  20669574.703 7     10981.141 7      6291.64149  20669573.74649
  23250449.438 6     26475.289 6     17459.85548  23250448.45748
  20667579.742 6   -113130.762 6    -69927.48048  20667575.80948
  22958235.516 5     29325.570 5     15312.12947  22958232.78547
  22091544.555 6     76356.234 6     51604.63749  22091543.82449
 20  5 16  3 11 11.0000000  0  8G01G04G07G08G09G11G16G27             0.000186325
  22655692.523 6   -205255.227 6   -110860.53149  22655693.20349
  23356307.750 5     77311.785 5     43364.55947  23356307.73047
  22610134.883 6   -181096.207 6   -112330.29349  22610132.21549
  20669623.383 7     11234.086 7      6488.73849  20669622.19549
  23250563.383 6     27074.098 6     17926.45348  23250562.19148
  20667108.719 6   -115606.652 6    -71856.74248  20667104.59848
  22958351.148 6     29933.676 6     15785.98047  22958348.30147
  22091877.773 6     78104.023 6     52966.55949  22091876.21149
 20  5 16  3 11 12.0000000  0  8G01G04G07G08G09G11G16G27             0.000185757
  22654853.289 6   -209663.008 6   -114295.16049  22654854.66849
  23356633.281 5     79021.637 5     44696.90647  23356633.19947
  22609397.289 6   -184970.664 6   -115349.35249  22609394.85249
  20669671.313 7     11486.785 7      6685.64149  20669670.24649
  23250677.055 6     27672.680 6     18392.87948  23250676.06348
  20666637.414 6   -118082.586 6    -73786.04348  20666633.48448
  22958466.914 6     30541.266 6     16259.41847  22958464.03947
  22092209.945 6     79851.344 6     54328.10949  22092208.52749
 20  5 16  3 11 13.0000000  0  8G01G04G07G08G09G11G16G27             0.000185188
  22654014.594 6   -214071.004 6   -117729.95749  22654015.31349
  23356958.617 5     80731.121 5     46028.96947  23356958.28147
  22608660.586 6   -188845.258 6   -118368.51249  22608657.39149
  20669719.219 7     11739.359 7      6882.45349  20669718.64149
  23250791.313 6     28271.188 6     18859.24648  23250790.30548
  20666166.164 6   -120558.430 6    -75715.27348  20666162.23048
  22958582.336 5     31148.500 5     16732.59447  22958579.58647
  22092542.445 6     81598.348 6     55689.41449  22092541.24649
 20  5 16  3 11 14.0000000  0  8G01G04G07G08G09G11G16G27             0.000184620
  22653175.914 6   -218479.281 6   -121164.98049  22653176.45349
  23357284.430 5     82440.270 5     47360.77746  23357283.32446
  22607922.867 6   -192720.027 6   -121387.81649  22607920.16449
  20669767.344 7     11991.813 7      7079.16849  20669765.69149
  23250904.266 6     28869.523 6     19325.47748  23250904.13348
  20665695.148 6   -123034.199 6    -77644.44148  20665691.33648
  22958697.898 5     31755.355 5     17205.46547  22958695.23047
  22092874.711 6     83345.023 6     57050.45349  22092873.89149
 20  5 16  3 11 15.0000000  0  8G01G04G07G08G09G11G16G27             0.000184052
  22652336.891 6   -222887.727 6   -124600.14149  22652337.68849
  23357609.281 5     84148.996 5     48692.25046  23357608.41446
  22607185.680 6   -196595.020 6   -124407.28549  22607182.65249
  20669815.383 7     12244.152 7      7275.79749  20669814.19549
  23251018.250 6     29467.805 6     19791.68048  23251017.99648
  20665224.445 6   -125509.871 6    -79573.53948  20665220.24648
  22958813.313 6     32361.840 6     17678.04747  22958810.62947
  22093207.516 6     85091.363 6     58411.24249  22093206.09849
 20  5 16  3 11 16.0000000  0  8G01G04G07G08G09G11G16G27             0.000183483
  22651497.625 6   -227296.543 6   -128035.57449  22651498.67249
  23357934.398 5     85857.336 5     50023.42247  23357933.64147
  22606448.477 5   -200470.230 5   -127426.93048  22606445.14148
  20669863.328 7     12496.258 7      7472.23849  20669862.12149
  23251132.227 6     30065.898 6     20257.73448  23251131.81648
  20664752.867 6   -127985.563 6    -81502.64548  20664749.03548
  22958928.750 5     32967.891 5     18150.28547  22958925.78947
  22093539.484 6     86837.266 6     59771.68049  22093537.90649
 20  5 16  3 11 17.0000000  0  8G01G04G07G08G09G11G16G27             0.000182915
  22650658.648 6   -231705.430 6   -131471.07449  22650659.52349
  23358258.922 5     87565.434 5     51354.40647  23358258.87547
  22605710.914 5   -204345.488 5   -130446.60948  22605708.23448
  20669911.047 7     12748.398 7      7668.71549  20669910.16049
  23251245.859 6     30663.996 6     20723.78148  23251245.44948
  20664281.789 6   -130461.047 6    -83431.59448  20664278.33648
  22959044.016 5     33573.680 5     18622.33647  22959041.03547
  22093871.500 6     88582.992 6     61131.99249  22093869.85549
 20  5 16  3 11 18.0000000  0  8G01G04G07G08G09G11G16G27             0.000182344
  22649820.156 5   -236114.484 5   -134906.68849  22649821.05149
  23358583.992 5     89273.285 5     52685.19547  23358583.45347
  22604973.359 5   -208220.852 5   -133466.36748  22604970.83648
  20669959.148 7     13000.500 7      7865.15649  20669958.54349
  23251359.977 6     31262.078 6     21189.84448  23251359.31648
  20663810.750 6   -132936.340 6    -85360.39548  20663807.01248
  22959159.039 5     34179.180 5     19094.15247  22959156.29747
  22094203.633 6     90328.465 6     62492.10249  22094202.00449
 20  5 16  3 11 19.0000000  0  8G01G04G07G08G09G11G16G27             0.000181774
  22648981.211 5   -240523.645 5   -138342.39149  22648982.25449
  23358909.125 5     90980.832 5     54015.73447  23358908.59447
  22604236.289 5   -212096.262 5   -136486.17248  22604232.60548
  20670007.023 7     13252.574 7      8061.58249  20670006.31349
  23251473.992 6     31860.172 6     21655.89848  23251473.18848
  20663339.977 6   -135411.484 6    -87289.08248  20663336.08648
  22959274.047 5     34784.422 5     19565.77347  22959271.57047
  22094535.703 6     92073.711 6     63852.02349  22094534.88749
 20  5 16  3 11 20.0000000  0  8G01G04G07G08G09G11G16G27             0.000181206
  22648142.125 6   -244932.918 6   -141778.19149  22648142.91449
  23359234.305 5     92688.145 5     55346.11747  23359233.97347
  22603498.727 5   -215971.770 5   -139506.03948  22603495.39548
  20670054.789 6     13504.648 6      8258.00049  20670053.98849
  23251587.398 6     32458.285 6     22121.95348  23251587.39848
  20662869.125 6   -137886.406 6    -89217.59848  20662864.86748
  22959389.336 5     35389.406 5     20037.18847  22959386.49647
  22094868.195 6     93818.777 6     65211.80149  22094866.35249
 20  5 16  3 11 21.0000000  0  8G01G04G07G08G09G11G16G27             0.000180635
  22647302.180 6   -249342.234 6   -145214.02748  22647304.22748
  23359558.133 5     94395.270 5     56676.34847  23359558.96947
  22602761.383 5   -219847.258 5   -142525.89848  22602758.41048
  20670102.820 6     13756.781 6      8454.46149  20670102.21949
  23251701.578 5     33056.508 5     22588.09048  23251701.40648
  20662397.875 6   -140361.074 6    -91145.91448  20662393.91048
  22959504.391 5     35994.172 5     20508.41447  22959501.59047
  22095199.961 6     95563.641 6     66571.41849  22095198.84049
 20  5 16  3 11 22.0000000  0  8G01G04G07G08G09G11G16G27             0.000180065
  22646463.539 6   -253751.695 6   -148649.97349  22646464.46949
  23359882.852 5     96102.113 5     58006.35247  23359882.89547
  22602023.828 5   -223722.703 5   -145545.72748  22602020.35948
  20670151.258 6     14008.961 6      8650.96149  20670150.02349
  23251815.344 5     33654.703 5     23054.19948  23251814.73448
  20661927.063 6   -142835.563 6    -93074.09048  20661923.30148
  22959619.375 5     36598.746 5     20979.50847  22959616.68047
  22095532.164 6     97308.316 6     67930.89849  22095531.01649
 20  5 16  3 11 23.0000000  0  8G01G04G07G08G09G11G16G27             0.000179495
  22645624.469 6   -258161.180 6   -152085.93849  22645625.47749
  23360208.055 5     97808.797 5     59336.22347  23360208.49647
  22601286.336 4   -227598.262 4   -148565.66848  22601283.34848
  20670199.680 6     14261.129 6      8847.45349  20670197.89549
  23251929.281 4     34253.027 4     23520.50447  23251929.92647
  20661455.898 6   -145309.781 6    -95002.03948  20661452.49648
  22959734.383 5     37203.051 5     21450.38747  22959731.62947
  22095864.227 6     99052.859 6     69290.29749  22095862.92249
 20  5 16  3 11 24.0000000  0  8G01G04G07G08G09G11G16G27             0.000178925
  22644785.586 6   -262570.805 6   -155522.01649  22644785.98449
  23360532.516 5     99515.234 5     60665.91446  23360532.99246
  22600549.133 4   -231473.867 4   -151585.63348  22600545.33648
  20670247.180 6     14513.266 6      9043.91849  20670246.27349
  23252042.352 3     34851.309 3     23986.75447  23252043.88747
  20660985.148 6   -147783.785 6    -96929.81348  20660981.23048
  22959848.898 5     37807.113 5     21921.09047  22959846.66447
  22096195.383 6    100797.164 6     70649.50449  22096194.68049
 20  5 16  3 11 25.0000000  0  8G01G04G07G08G09G11G16G27             0.000178352
  22643945.992 6   -266980.266 6   -158957.96149  22643947.22749
  23360857.477 5    101221.734 5     61995.65246  23360857.49646
  22599811.141 4   -235349.270 4   -154605.43448  22599808.10248
  20670295.344 6     14765.652 6      9240.57449  20670294.32849
  23252156.133 2     35449.863 2     24453.21547  23252157.49247
  20660514.695 6   -150257.375 6    -98857.28148  20660510.80148
  22959964.289 5     38411.191 5     22391.80546  22959961.75846
  22096527.977 6    102541.492 6     72008.73449  22096526.46949
 20  5 16  3 11 26.0000000  0  8G01G04G07G08G09G11G16G27             0.000177782
  22643107.500 6   -271389.672 6   -162393.86349  22643108.45749
  23361182.883 5    102928.168 5     63325.32847  23361182.34847
  22599074.367 4   -239224.555 4   -157625.12548  22599070.91448
  20670343.773 6     15018.223 6      9437.38749  20670342.48049
  23252271.195 1     36048.613 1     24919.78546  23252271.79746
  20660044.234 6   -152730.527 6   -100784.41048  20660040.10248
  22960079.250 5     39015.219 5     22862.48446  22960076.86346
  22096859.844 6    104285.836 6     73367.96949  22096858.69949
 20  5 16  3 11 27.0000000  0  8G01G04G07G08G09G11G16G27             0.000177212
  22642268.063 6   -275799.215 6   -165829.86749  22642269.18449
  23361506.789 5    104634.324 5     64654.78946  23361507.16046
  22598336.164 4   -243099.969 4   -160644.92648  22598333.05948
  20670391.430 7     15270.773 7      9634.18049  20670390.27049
  23252385.961 1     36647.414 1     25386.37546  23252385.60246
  20659573.664 6   -155203.543 6   -102711.44548  20659569.55148
  22960194.102 5     39618.926 5     23332.89547  22960191.37547
  22097191.430 6    106029.906 6     74726.97349  22097190.42649
 20  5 16  3 11 28.0000000  0  8G01G04G07G08G09G11G16G27             0.000176640
  22641428.984 6   -280208.770 6   -169265.87949  22641430.03149
  23361831.523 5    106340.297 5     65984.11747  23361831.86747
  22597598.859 5   -246975.305 5   -163664.64848  22597595.62948
  20670439.523 7     15523.355 7      9830.99249  20670438.08649
  23252499.313 3     37246.273 3     25852.98446  23252499.24646
  20659103.109 6   -157676.309 6   -104638.28548  20659099.23448
  22960308.969 5     40222.461 5     23803.17247  22960306.44947
  22097523.516 6    107773.848 6     76085.88749  22097522.31649
 20  5 16  3 11 29.0000000  0  8G01G04G07G08G09G11G16G27             0.000176069
  22640589.781 6   -284618.094 6   -172701.70749  22640591.04749
  23362156.375 5    108046.367 5     67313.51247  23362156.53147
  22596861.602 5   -250850.383 5   -166684.18848  22596858.37948
  20670487.453 7     15776.285 7     10028.08649  20670486.32049
  23252612.742 4     37845.465 4     26319.84447  23252613.36347
  20658632.477 6   -160148.512 6   -106564.68848  20658628.67248
  22960424.094 5     40826.098 5     24273.52046  22960420.95346
  22097855.078 6    109517.906 6     77444.88349  22097854.33249
 20  5 16  3 11 30.0000000  0  8G01G04G07G08G09G11G16G27             0.000175497
  22639750.492 6   -289027.293 6   -176137.44549  22639751.64549
  23362481.406 5    109752.457 5     68642.93447  23362481.10547
  22596124.734 5   -254725.219 5   -169703.53948  22596121.33248
  20670535.742 6     16029.527 6     10225.42249  20670534.82049
  23252727.070 4     38444.965 4     26786.92647  23252727.12947
  20658162.219 6   -162620.242 6   -108490.72348  20658158.22348
  22960539.125 5     41429.746 5     24743.88747  22960535.97347
  22098187.023 6    111262.043 6     78803.94549  22098186.32449
 20  5 16  3 11 31.0000000  0  8G01G04G07G08G09G11G16G27             0.000174927
  22638911.883 6   -293436.305 6   -179573.03949  22638913.09849
  23362805.680 5    111458.559 5     69972.37147  23362805.68447
  22595386.828 4   -258599.855 4   -172722.75048  22595383.76248
  20670583.781 7     16283.031 7     10422.95749  20670582.96149
  23252841.102 3     39044.754 3     27254.26647  23252841.62147
  20657691.836 6   -165091.496 6   -110416.36348  20657687.94948
  22960653.758 5     42033.398 5     25214.27046  22960651.05546
  22098519.305 6    113006.195 6     80163.02349  22098517.98849
 20  5 16  3 11 32.0000000  0  8G01G04G07G08G09G11G16G27             0.000174355
  22638072.633 6   -297845.391 6   -183008.69949  22638073.60549
  23363130.180 4    113164.500 4     71301.68046  23363130.53146
  22594649.258 4   -262474.547 4   -175741.99448  22594646.30948
  20670632.258 6     16536.582 6     10620.52349  20670630.90649
  23252954.836 3     39644.605 3     27721.71547  23252955.93047
  20657221.938 6   -167562.492 6   -112341.79748  20657217.68448
  22960768.758 5     42636.879 5     25684.53546  22960765.68846
  22098850.734 6    114750.242 6     81522.02349  22098850.08649
 20  5 16  3 11 33.0000000  0  8G01G04G07G08G09G11G16G27             0.000173784
  22637234.047 6   -302254.344 6   -186444.24649  22637234.92249
  23363454.680 4    114870.434 4     72630.97346  23363454.87546
  22593912.305 4   -266349.000 4   -178761.05948  22593909.51648
  20670680.492 7     16790.367 7     10818.27349  20670679.59049
  23253068.391 2     40244.773 2     28189.40647  23253070.09047
  20656751.148 6   -170033.063 6   -114266.91048  20656747.85948
  22960883.500 5     43240.309 5     26154.75046  22960880.26246
  22099182.617 6    116494.289 6     82881.02749  22099182.02349
 20  5 16  3 11 34.0000000  0  8G01G04G07G08G09G11G16G27             0.000173212
  22636394.633 6   -306663.199 6   -189879.71149  22636396.04349
  23363779.820 5    116576.352 5     73960.25046  23363779.35946
  22593174.406 4   -270223.313 4   -181779.99248  22593171.68848
  20670728.953 7     17044.371 7     11016.19949  20670727.52749
  23253183.508 2     40845.086 2     28657.18847  23253183.79747
  20656281.219 6   -172503.199 6   -116191.69548  20656277.71948
  22960997.688 5     43843.703 5     26624.93046  22960995.52046
  22099514.773 6    118238.340 6     84240.03149  22099513.66049
 20  5 16  3 11 35.0000000  0  8G01G04G07G08G09G11G16G27             0.000172640
  22635556.133 6   -311071.906 6   -193315.06349  22635557.03149
  23364103.656 5    118282.234 5     75289.49646  23364104.07046
  22592437.211 4   -274097.439 4   -184798.78048  22592434.61748
  20670777.180 7     17298.594 7     11214.29349  20670776.42649
  23253298.727 2     41445.707 2     29125.20347  23253298.33247
  20655811.766 6   -174972.918 6   -118116.15248  20655807.92248
  22961113.086 5     44447.117 5     27095.13746  22961110.52746
  22099846.625 6    119982.430 6     85599.06649  22099845.53549
 20  5 16  3 11 36.0000000  0  8G01G04G07G08G09G11G16G27             0.000172070
  22634716.773 6   -315480.613 6   -196750.42649  22634717.76649
  23364428.336 3    119987.961 3     76618.63346  23364429.01646
  22591700.617 4   -277971.473 4   -187817.48848  22591697.44548
  20670825.648 7     17552.938 7     11412.49249  20670824.73449
  23253412.422 5     42046.504 5     29593.30947  23253413.41047
  20655341.875 6   -177442.313 6   -120040.35548  20655337.74248
  22961227.969 6     45050.398 6     27565.22747  22961224.98847
  22100178.422 6    121726.430 6     86958.01649  22100177.21149
 20  5 16  3 11 37.0000000  0  8G01G04G07G08G09G11G16G27             0.000171497
  22633878.344 6   -319889.051 6   -200185.57849  22633879.09849
  23364753.805 5    121693.953 5     77947.98846  23364753.35946
  22590963.313 5   -281845.246 5   -190836.00448  22590960.22348
  20670873.875 7     17807.688 7     11611.00449  20670872.69949
  23253526.305 5     42647.570 5     30061.59448  23253527.01648
  20654871.758 6   -179911.117 6   -121964.10948  20654867.73048
  22961342.375 5     45653.770 5     28035.37147  22961340.12147
  22100510.625 6    123470.570 6     88317.07449  22100509.14149
 20  5 16  3 11 38.0000000  0  8G01G04G07G08G09G11G16G27             0.000170925
  22633039.156 6   -324297.371 6   -203620.62949  22633040.38349
  23365077.898 5    123399.852 5     79277.26646  23365077.70346
  22590226.281 5   -285718.809 5   -193854.35948  22590222.55948
  20670922.750 7     18062.629 7     11809.67249  20670921.62949
  23253641.492 5     43248.941 5     30530.15248  23253640.83648
  20654402.352 7   -182379.496 7   -123887.53948  20654398.59448
  22961457.680 5     46257.125 5     28505.50447  22961454.74247
  22100842.375 6    125214.723 6     89676.14849  22100841.04749
 20  5 16  3 11 39.0000000  0  8G01G04G07G08G09G11G16G27             0.000170353
  22632200.656 5   -328705.582 5   -207055.57449  22632201.42249
  23365402.984 5    125105.781 5     80606.55546  23365402.59846
  22589488.891 5   -289592.207 5   -196872.59448  22589485.78148
  20670970.641 7     18317.801 7     12008.51249  20670969.84449
  23253755.625 5     43850.527 5     30998.91048  23253755.19948
  20653932.297 7   -184847.410 7   -125810.60248  20653928.57448
  22961572.063 5     46860.445 5     28975.62947  22961569.27047
  22101174.422 6    126958.926 6     91035.27049  22101173.19149
 20  5 16  3 11 40.0000000  0  8G01G04G07G08G09G11G16G27             0.000169781
  22631362.133 5   -333113.594 5   -210490.37149  22631362.85949
  23365726.844 5    126811.680 5     81935.82047  23365727.00447
  22588751.141 5   -293465.359 5   -199890.64548  22588748.46948
  20671019.531 7     18573.207 7     12207.52349  20671018.53149
  23253869.813 5     44452.426 5     31467.93048  23253869.18048
  20653462.875 7   -187314.891 7   -127733.31648  20653459.27748
  22961687.273 5     47463.801 5     29445.78147  22961684.22347
  22101506.117 6    128703.172 6     92394.42649  22101504.80949
 20  5 16  3 11 41.0000000  0  8G01G04G07G08G09G11G16G27             0.000169210
  22630522.367 5   -337521.574 5   -213925.14849  22630523.69549
  23366051.930 5    128517.520 5     83265.03547  23366051.50847
  22588014.953 5   -297338.422 5   -202908.61748  22588011.36348
  20671068.359 7     18828.828 7     12406.70349  20671067.35949
  23253985.102 5     45054.527 5     31937.11348  23253983.75048
  20652993.492 7   -189781.988 7   -129655.72348  20652989.59848
  22961801.727 5     48067.090 5     29915.87547  22961799.01647
  22101838.398 6    130447.355 6     93753.52349  22101836.90249
 20  5 16  3 11 42.0000000  0  8G01G04G07G08G09G11G16G27             0.000168638
  22629683.969 5   -341929.281 5   -217359.72749  22629684.82049
  23366376.391 5    130223.461 5     84594.34447  23366376.27047
  22587277.930 5   -301211.141 5   -205926.32048  22587274.41848
  20671117.031 7     19084.789 7     12606.15649  20671116.05549
  23254099.273 5     45657.004 5     32406.58648  23254098.16048
  20652524.383 7   -192248.527 7   -131577.69948  20652520.42648
  22961916.563 5     48670.488 5     30386.05147  22961913.35247
  22102170.180 6    132191.727 6     95112.77749  22102168.79749
 20  5 16  3 11 43.0000000  0  8G01G04G07G08G09G11G16G27             0.000168066
  22628845.367 6   -346336.922 6   -220794.27749  22628845.80949
  23366701.492 1    131929.328 1     85923.61346  23366700.50446
  22586541.563 5   -305083.676 5   -208943.88748  22586537.34448
  20671165.820 7     19340.996 7     12805.79349  20671164.81349
  23254213.039 4     46259.867 4     32876.36348  23254213.30948
  20652055.234 6   -194714.617 6   -133499.30148  20652051.17248
  22962031.922 6     49273.852 6     30856.19547  22962028.16047
  22102501.898 6    133936.117 6     96472.03949  22102500.76649
 20  5 16  3 11 44.0000000  0  8G01G04G07G08G09G11G16G27             0.000167494
  22628006.430 6   -350744.273 6   -224228.58648  22628007.55948
  23367025.688 1    133635.375 1     87253.06646  23367025.94946
  22585804.969 4   -308955.941 4   -211961.23048  22585800.85948
  20671214.633 7     19597.504 7     13005.67649  20671214.05549
  23254327.852 3     46862.953 3     33346.29748  23254328.00048
  20651584.953 6   -197180.172 6   -135420.46547  20651581.89547
  22962146.211 6     49877.285 6     31326.39847  22962143.25447
  22102833.922 6    135680.605 6     97831.39849  22102832.79749
 20  5 16  3 11 45.0000000  0  8G01G04G07G08G09G11G16G27             0.000166922
  22627167.359 6   -355151.652 6   -227662.91448  22627169.05148
  23367349.367 1    135341.281 1     88582.36746  23367350.64546
  22585067.641 5   -312828.160 5   -214978.54348  22585064.23048
  20671263.586 7     19854.145 7     13205.65249  20671262.52049
  23254442.992 4     47466.180 4     33816.33247  23254442.75447
  20651116.289 6   -199645.414 6   -137341.41447  20651113.11347
  22962261.578 5     50480.613 5     31796.52347  22962258.33647
  22103165.609 6    137425.023 6     99190.69949  22103164.75849
 20  5 16  3 11 46.0000000  0  8G01G04G07G08G09G11G16G27             0.000166349
  22626328.750 6   -359558.934 6   -231097.15648  22626330.53948
  23367674.344 2    137047.113 2     89911.57846  23367675.40246
  22584330.547 5   -316700.250 5   -217995.75848  22584327.48048
  20671312.688 6     20110.957 6     13405.77349  20671311.44149
  23254557.633 3     48069.551 3     34286.48047  23254557.78147
  20650646.883 6   -202110.285 6   -139262.09847  20650643.73447
  22962375.719 6     51083.844 6     32266.59047  22962372.99247
  22103497.500 6    139169.379 6    100549.93049  22103496.54749
 20  5 16  3 11 47.0000000  0  8G01G04G07G08G09G11G16G27             0.000165777
  22625489.992 6   -363965.988 6   -234531.23449  22625491.57049
  23367998.672 3    138753.121 3     91240.89846  23367999.74246
  22583593.695 5   -320572.043 5   -221012.75448  22583590.78548
  20671360.992 6     20368.066 6     13606.12149  20671359.97749
  23254672.586 4     48673.270 4     34756.91848  23254672.94548
  20650178.133 6   -204574.656 6   -141182.41447  20650174.83647
  22962490.430 6     51687.148 6     32736.69547  22962487.70747
  22103829.578 6    140913.871 6    101909.26249  22103828.53549
 20  5 16  3 11 48.0000000  0  8G01G04G07G08G09G11G16G27             0.000165205
  22624651.750 6   -368372.734 6   -237965.05949  22624653.25049
  23368324.125 5    140459.207 5     92570.24646  23368324.82446
  22582857.180 5   -324443.566 5   -224029.52348  22582853.54348
  20671410.391 7     20625.559 7     13806.75449  20671409.14549
  23254788.328 5     49277.360 5     35227.65948  23254788.19148
  20649709.719 6   -207038.430 6   -143102.25848  20649705.83248
  22962605.078 6     52290.578 6     33206.90247  22962602.43847
  22104161.773 6    142658.484 6    103268.68849  22104160.70749
 20  5 16  3 11 49.0000000  0  8G01G04G07G08G09G11G16G27             0.000164633
  22623813.266 6   -372779.457 6   -241398.84849  22623814.61749
  23368649.320 5    142165.289 5     93899.61746  23368649.30946
  22582120.102 5   -328314.922 5   -227046.16048  22582117.33648
  20671459.461 7     20883.258 7     14007.55549  20671458.48049
  23254902.594 5     49881.648 5     35698.52748  23254902.65248
  20649240.969 6   -209501.758 6   -145021.76248  20649237.43848
  22962720.648 6     52893.945 6     33677.06647  22962717.52347
  22104494.367 6    144403.160 6    104628.17649  22104492.54349
 20  5 16  3 11 50.0000000  0  8G01G04G07G08G09G11G16G27             0.000164061
  22622974.695 6   -377185.969 6   -244832.46949  22622976.14549
  23368973.406 5    143871.340 5     95228.99246  23368973.60546
  22581383.117 5   -332186.008 5   -230062.58648  22581380.31348
  20671508.367 7     21141.227 7     14208.56349  20671507.19549
  23255018.469 5     50486.285 5     36169.67248  23255017.36748
  20648772.523 6   -211964.594 6   -146940.87548  20648768.74248
  22962834.773 5     53497.414 5     34147.30147  22962832.64847
  22104825.750 6    146147.914 6    105987.71149  22104824.18449
 20  5 16  3 11 51.0000000  0  8G01G04G07G08G09G11G16G27             0.000163488
  22622136.203 6   -381592.457 6   -248266.08249  22622137.50049
  23369298.656 5    145577.340 5     96558.35247  23369298.20347
  22580646.594 5   -336057.031 5   -233078.96148  22580643.53148
  20671557.422 7     21399.371 7     14409.71149  20671556.53949
  23255133.008 5     51091.109 5     36640.96148  23255132.72348
  20648303.586 6   -214427.117 6   -148859.72348  20648299.68448
  22962949.477 6     54100.746 6     34617.43047  22962946.94547
  22105157.906 6    147892.551 6    107347.16449  22105156.57849
 20  5 16  3 11 52.0000000  0  8G01G04G07G08G09G11G16G27             0.000162916
  22621297.633 6   -385998.785 6   -251699.58649  22621298.49249
  23369622.570 5    147283.309 5     97887.69947  23369622.73847
  22579909.633 5   -339927.859 5   -236095.18848  22579906.85548
  20671606.578 7     21657.738 7     14611.03149  20671605.41049
  23255248.289 6     51696.215 6     37112.46148  23255247.50048
  20647834.852 6   -216889.176 6   -150778.20348  20647831.61748
  22963064.594 6     54704.039 6     35087.52747  22963061.78547
  22105489.883 6    149637.246 6    108706.66849  22105488.43849
 20  5 16  3 11 53.0000000  0  8G01G04G07G08G09G11G16G27             0.000162342
  22620459.094 6   -390404.984 6   -255132.99249  22620460.55949
  23369947.984 5    148989.293 5     99217.05147  23369947.44547
  22579173.852 5   -343798.465 5   -239111.24648  22579170.15648
  20671655.844 7     21916.316 7     14812.52349  20671654.77049
  23255363.906 5     52301.563 5     37584.15248  23255362.80148
  20647366.727 6   -219350.793 6   -152696.33248  20647362.94948
  22963179.672 5     55307.348 5     35557.62947  22963176.75847
  22105822.141 6    151381.965 6    110066.19149  22105820.62549
 20  5 16  3 11 54.0000000  0  8G01G04G07G08G09G11G16G27             0.000161770
  22619620.828 6   -394810.984 6   -258566.23849  22619622.41449
  23370272.367 5    150695.301 5    100546.41447  23370272.39847
  22578437.258 5   -347668.863 5   -242127.14548  22578434.04748
  20671705.047 7     22175.215 7     15014.26249  20671704.00849
  23255479.016 6     52907.215 6     38056.08248  23255477.93848
  20646898.477 6   -221811.938 6   -154614.10548  20646894.73048
  22963294.445 6     55910.688 6     36027.76247  22963291.35947
  22106153.992 6    153126.754 6    111425.76649  22106152.26649
 20  5 16  3 11 55.0000000  0  8G01G04G07G08G09G11G16G27             0.000161198
  22618782.469 6   -399216.883 6   -261999.41849  22618783.46149
  23370596.680 5    152401.332 5    101875.79347  23370596.91447
  22577700.602 5   -351539.039 5   -245142.86748  22577697.55548
  20671754.766 7     22434.340 7     15216.18049  20671753.64849
  23255594.711 6     53513.121 6     38528.20748  23255593.34048
  20646430.539 6   -224272.625 6   -156531.51648  20646426.28148
  22963409.594 5     56514.020 5     36497.87947  22963406.26247
  22106486.047 6    154871.555 6    112785.35549  22106483.91049
 20  5 16  3 11 56.0000000  0  8G01G04G07G08G09G11G16G27             0.000160625
  22617944.016 6   -403622.617 6   -265432.46949  22617945.19949
  23370921.516 5    154107.359 5    103205.16446  23370921.73846
  22576963.797 5   -355409.070 5   -248158.47748  22576961.05148
  20671803.656 7     22693.715 7     15418.28949  20671803.05949
  23255709.813 6     54119.301 6     39000.55148  23255708.84448
  20645961.563 6   -226732.855 6   -158448.56648  20645958.28948
  22963524.000 6     57117.367 6     36968.02347  22963521.10547
  22106817.570 6    156616.422 6    114144.99249  22106816.44549
 20  5 16  3 11 57.0000000  0  8G01G04G07G08G09G11G16G27             0.000160051
  22617105.547 6   -408028.074 6   -268865.29749  22617106.89849
  23371246.352 5    155813.504 5    104534.62146  23371245.93046
  22576227.539 5   -359278.758 5   -251173.82048  22576224.49648
  20671853.359 7     22953.426 7     15620.66049  20671852.44549
  23255824.859 6     54725.855 6     39473.19148  23255823.96548
  20645493.938 6   -229192.508 6   -160365.17648  20645490.43448
  22963639.008 6     57720.816 6     37438.24247  22963635.68447
  22107149.859 6    158361.426 6    115504.73849  22107148.10549
 20  5 16  3 11 58.0000000  0  8G01G04G07G08G09G11G16G27             0.000159479
  22616267.156 6   -412433.500 6   -272298.09049  22616268.83249
  23371570.828 4    157519.512 4    105863.96546  23371571.00446
  22575492.125 5   -363148.234 5   -254188.98848  22575488.53548
  20671902.422 7     23213.359 7     15823.20349  20671901.64149
  23255941.180 4     55332.699 4     39946.07848  23255939.96148
  20645025.547 6   -231651.820 6   -162281.53548  20645022.25048
  22963754.109 6     58324.211 6     37908.40647  22963750.57447
  22107482.281 6    160106.398 6    116864.46149  22107480.10549
 20  5 16  3 11 59.0000000  0  8G01G04G07G08G09G11G16G27             0.000158907
  22615429.008 6   -416838.719 6   -275730.72349  22615430.49249
  23371895.688 3    159225.641 3    107193.40246  23371895.39846
  22574755.688 4   -367017.574 4   -257204.05148  22574752.17248
  20671952.094 7     23473.539 7     16025.93849  20671951.20349
  23256055.359 4     55939.770 4     40419.13748  23256055.42648
  20644557.953 6   -234110.590 6   -164197.44548  20644554.39148
  22963868.367 6     58927.613 6     38378.56347  22963865.57847
  22107814.289 6    161851.457 6    118224.23449  22107812.32049
 20  5 16  3 12  0.0000000  0  8G01G04G07G08G09G11G16G27             0.000158333
  22614590.961 6   -421243.637 6   -279163.13749  22614592.53149
  23372220.094 4    160931.938 4    108522.98046  23372220.55946
  22574019.766 5   -370886.523 5   -260218.82448  22574015.84848
  20672001.945 6     23734.145 6     16229.02049  20672001.11349
  23256171.555 4     56547.191 4     40892.46148  23256170.70348
  20644089.977 6   -236568.797 6   -166112.91848  20644086.65248
  22963983.680 6     59531.164 6     38848.85247  22963980.18847
  22108146.406 6    163596.684 6    119584.14149  22108144.68049
 20  5 16  3 12  1.0000000  0  8G01G04G07G08G09G11G16G27             0.000157761
  22613752.547 6   -425648.473 6   -282595.48449  22613754.22349
  23372544.656 4    162638.219 4    109852.53546  23372545.45346
  22573282.625 4   -374755.293 4   -263233.44948  22573280.19148
  20672051.375 6     23994.984 6     16432.27749  20672050.16449
  23256287.188 4     57154.980 4     41366.06647  23256286.77047
  20643622.500 6   -239026.516 6   -168028.01648  20643619.07448
  22964098.555 6     60134.727 6     39319.16847  22964094.73847
  22108478.602 6    165341.973 6    120944.10249  22108476.94549
 20  5 16  3 12  2.0000000  0  8G01G04G07G08G09G11G16G27             0.000157188
  22612914.555 6   -430052.938 6   -286027.52349  22612915.79749
  23372869.234 2    164344.609 2    111182.17246  23372870.24246
  22572546.914 4   -378623.699 4   -266247.79748  22572543.94948
  20672100.828 6     24256.270 6     16635.87549  20672100.07849
  23256402.773 1     57763.102 1     41839.93847  23256402.46547
  20643154.516 6   -241483.605 6   -169942.62147  20643151.10947
  22964213.391 6     60738.418 6     39789.58246  22964210.26646
  22108810.422 6    167087.434 6    122304.21149  22108809.31649
 20  5 16  3 12  3.0000000  0  8G01G04G07G08G09G11G16G27             0.000156614
  22612076.570 6   -434457.320 6   -289459.50448  22612077.69548
  23373194.148 3    166051.047 3    112511.87546  23373194.69146
  22571810.703 4   -382491.938 4   -269262.00848  22571807.70748
  20672150.484 6     24517.746 6     16839.62549  20672149.55149
  23256518.523 1     58371.430 1     42314.01647  23256518.85547
  20642687.781 6   -243940.324 6   -171856.94547  20642683.91047
  22964327.945 6     61342.082 6     40259.98846  22964324.94946
  22109142.211 6    168832.910 6    123664.33248  22109141.09448
 20  5 16  3 12  4.0000000  0  8G01G04G07G08G09G11G16G27             0.000156042
  22611238.688 6   -438861.523 6   -292891.34448  22611239.44148
  23373518.750 3    167757.516 3    113841.61746  23373519.50046
  22571074.906 5   -386359.977 5   -272276.07048  22571071.52748
  20672200.180 6     24779.469 6     17043.56349  20672199.78549
  23256634.453 1     58980.113 1     42788.36747  23256634.40247
  20642220.641 6   -246396.574 6   -173770.90647  20642216.63347
  22964442.703 6     61945.813 6     40730.43446  22964439.77046
  22109474.891 6    170578.445 6    125024.49648  22109473.51248
 20  5 16  3 12  5.0000000  0  8G01G04G07G08G09G11G16G27             0.000155470
  22610400.125 6   -443265.535 6   -296323.03548  22610401.50048
  23373843.492 3    169463.969 3    115171.33246  23373844.68046
  22570339.016 5   -390227.781 5   -275289.94548  22570335.76248
  20672250.328 6     25041.465 6     17247.70749  20672249.29749
  23256750.008 1     59589.109 1     43262.90647  23256750.06347
  20641752.219 6   -248852.301 6   -175684.45347  20641749.05147
  22964557.305 6     62549.523 6     41200.86347  22964554.82447
  22109806.742 6    172324.035 6    126384.69948  22109805.60548
 20  5 16  3 12  6.0000000  0  8G01G04G07G08G09G11G16G27             0.000154896
  22609562.047 6   -447669.484 6   -299754.68049  22609563.79349
  23374167.930 3    171170.465 3    116501.07046  23374169.07046
  22569602.664 5   -394095.453 5   -278303.70748  22569599.74248
  20672300.359 6     25303.656 6     17452.01649  20672299.51649
  23256867.195 1     60198.297 1     43737.57846  23256866.40246
  20641285.281 6   -251307.637 6   -177597.70347  20641281.93047
  22964672.852 6     63153.215 6     41671.25847  22964670.06647
  22110138.938 6    174069.641 6    127744.90649  22110137.78149
 20  5 16  3 12  7.0000000  0  8G01G04G07G08G09G11G16G27             0.000154324
  22608724.305 6   -452073.184 6   -303186.13349  22608725.61349
  23374492.969 1    172876.914 1    117830.76246  23374493.96546
  22568866.867 5   -397962.770 5   -281317.19548  22568863.81648
  20672350.266 6     25566.184 6     17656.57449  20672349.56649
  23256983.063 1     60807.926 1     44212.56347  23256982.18447
  20640818.242 6   -253762.418 6   -179510.52347  20640814.44547
  22964788.023 6     63756.988 6     42141.72347  22964784.90647
  22110471.242 6    175815.332 6    129105.18449  22110469.99649
 20  5 16  3 12  8.0000000  0  8G01G04G07G08G09G11G16G27             0.000153749
  22607886.445 6   -456476.652 6   -306617.41049  22607887.55149
  23374818.352 3    174583.566 3    119160.60946  23374818.57446
  22568131.742 5   -401829.902 5   -284330.54348  22568128.11748
  20672400.539 6     25828.992 6     17861.35949  20672399.20749
  23257098.531 2     61417.703 2     44687.68847  23257098.55547
  20640351.047 6   -256216.754 6   -181422.99247  20640347.78547
  22964902.359 6     64360.773 6     42612.20346  22964899.62946
  22110803.523 6    177561.121 6    130465.53149  22110802.26249
 20  5 16  3 12  9.0000000  0  8G01G04G07G08G09G11G16G27             0.000153177
  22607048.195 6   -460879.879 6   -310048.49649  22607049.69149
  23375143.047 3    176290.309 3    120490.50446  23375143.57446
  22567396.164 5   -405696.641 5   -287343.58648  22567391.89148
  20672450.297 6     26092.215 6     18066.47349  20672449.65249
  23257214.078 1     62028.012 1     45163.24247  23257214.62147
  20639884.070 6   -258670.422 6   -183334.93847  20639880.88747
  22965017.219 6     64964.723 6     43082.80947  22965013.96947
  22111135.828 6    179307.117 6    131826.04749  22111134.55549
 20  5 16  3 12 10.0000000  0  8G01G04G07G08G09G11G16G27             0.000152605
  22606210.273 6   -465282.859 6   -313479.38348  22606211.84048
  23375467.563 2    177997.133 2    121820.46946  23375467.87146
  22566659.625 5   -409563.137 5   -290356.44548  22566656.03948
  20672500.781 6     26355.746 6     18271.81649  20672499.87549
  23257330.281 1     62638.641 1     45639.06647  23257330.51247
  20639417.398 6   -261123.590 6   -185246.49247  20639414.25447
  22965132.469 6     65568.781 6     43553.51246  22965129.38746
  22111467.695 6    181053.203 6    133186.62549  22111466.61749
 20  5 16  3 12 11.0000000  0  8G01G04G07G08G09G11G16G27             0.000152033
  22605372.156 6   -469685.813 6   -316910.25048  22605373.78948
  23375792.359 3    179703.813 3    123150.37946  23375793.55546
  22565924.063 4   -413429.520 4   -293369.19147  22565920.02747
  20672550.477 6     26619.422 6     18477.28149  20672549.62149
  23257446.680 1     63249.316 1     46114.94146  23257447.35246
  20638950.813 6   -263576.375 6   -187157.75447  20638947.24647
  22965247.500 6     66172.715 6     44024.11747  22965244.43447
  22111800.070 6    182799.230 6    134547.16849  22111799.15649
 20  5 16  3 12 12.0000000  0  8G01G04G07G08G09G11G16G27             0.000151459
  22604534.797 6   -474088.602 6   -320340.99248  22604535.65248
  23376116.703 3    181410.566 3    124480.33645  23376117.98845
  22565188.086 4   -417295.750 4   -296381.84047  22565184.66447
  20672601.227 6     26883.297 6     18682.91049  20672600.23449
  23257561.875 1     63860.348 1     46591.09447  23257563.25447
  20638483.820 6   -266028.770 6   -189068.71147  20638480.57447
  22965362.258 6     66776.613 6     44494.69547  22965359.56647
  22112132.445 6    184545.270 6    135907.71549  22112131.57849
 20  5 16  3 12 13.0000000  0  8G01G04G07G08G09G11G16G27             0.000150887
  22603696.781 6   -478491.195 6   -323771.59849  22603698.00449
  23376442.273 4    183117.348 4    125810.28146  23376442.87946
  22564452.219 5   -421161.684 5   -299394.26248  22564448.60948
  20672651.320 6     27147.523 6     18888.79749  20672650.33249
  23257680.125 1     64471.656 1     47067.45347  23257679.97747
  20638017.352 6   -268480.602 6   -190979.23447  20638013.64547
  22965476.914 6     67380.621 6     44965.35947  22965474.50447
  22112464.219 6    186291.438 6    137268.36748  22112463.59448
 20  5 16  3 12 14.0000000  0  8G01G04G07G08G09G11G16G27             0.000150312
  22602859.258 6   -482893.547 6   -327202.00449  22602860.26649
  23376767.242 4    184824.250 4    127140.31646  23376767.64146
  22563716.578 4   -425027.373 4   -302406.49148  22563713.37948
  20672701.945 6     27412.074 6     19094.95349  20672700.96549
  23257795.625 1     65083.387 1     47544.14547  23257796.11347
  20637550.719 6   -270931.875 6   -192889.32447  20637547.44547
  22965592.063 6     67984.723 6     45436.07847  22965589.16447
  22112797.047 6    188037.719 6    138629.10948  22112796.04748
 20  5 16  3 12 15.0000000  0  8G01G04G07G08G09G11G16G27             0.000149738
  22602021.578 6   -487295.688 6   -330632.24649  22602022.87549
  23377091.813 4    186531.188 4    128470.39145  23377092.90645
  22562981.398 4   -428892.711 4   -305418.45348  22562977.73848
  20672752.203 6     27676.918 6     19301.32449  20672751.12549
  23257912.922 1     65695.395 1     48021.05547  23257912.61347
  20637084.594 6   -273382.672 6   -194799.03547  20637080.87547
  22965707.313 6     68588.859 6     45906.82047  22965704.34447
  22113129.133 6    189784.074 6    139989.91448  22113128.34048
 20  5 16  3 12 16.0000000  0  8G01G04G07G08G09G11G16G27             0.000149166
  22601184.039 6   -491697.586 6   -334062.29749  22601184.81649
  23377416.078 4    188238.219 4    129800.55545  23377417.06645
  22562245.773 5   -432757.824 5   -308430.23048  22562241.80148
  20672802.266 6     27942.113 6     19507.96549  20672801.57849
  23258029.859 2     66307.832 2     48498.28547  23258029.10247
  20636618.180 6   -275832.898 6   -196708.30147  20636614.76247
  22965822.055 6     69193.086 6     46377.65247  22965819.30947
  22113461.680 6    191530.633 6    141350.87148  22113460.46548
 20  5 16  3 12 17.0000000  0  8G01G04G07G08G09G11G16G27             0.000148592
  22600346.508 6   -496099.238 6   -337492.14849  22600347.18449
  23377740.945 4    189945.375 4    131130.82445  23377742.01245
  22561510.508 5   -436622.617 5   -311441.75448  22561506.63348
  20672853.125 6     28207.637 6     19714.85249  20672852.13349
  23258145.984 1     66920.625 1     48975.78547  23258145.88347
  20636152.438 6   -278282.586 6   -198617.14847  20636148.77047
  22965937.086 6     69797.426 6     46848.55947  22965934.50047
  22113794.500 6    193277.258 6    142711.87549  22113793.15649
 20  5 16  3 12 18.0000000  0  8G01G04G07G08G09G11G16G27             0.000148020
  22599508.977 6   -500500.727 6   -340921.87949  22599509.30149
  23378066.844 4    191652.547 4    132461.08246  23378067.07846
  22560775.086 5   -440487.207 5   -314453.12548  22560771.32848
  20672903.617 7     28473.426 7     19921.95349  20672902.51249
  23258263.422 2     67533.637 2     49453.43447  23258261.87547
  20635686.141 6   -280731.816 6   -200525.64147  20635682.66847
  22966052.031 6     70401.777 6     47319.49646  22966049.23846
  22114126.320 6    195023.977 6    144072.94549  22114125.30149
 20  5 16  3 12 19.0000000  0  8G01G04G07G08G09G11G16G27             0.000147446
  22598671.250 6   -504902.082 6   -344351.50849  22598671.94949
  23378391.164 4    193359.676 4    133791.32046  23378391.81346
  22560039.133 5   -444351.590 5   -317464.32848  22560035.62548
  20672954.469 7     28739.418 7     20129.21949  20672953.33649
  23258379.727 2     68146.902 2     49931.27047  23258378.71947
  20635219.758 6   -283180.594 6   -202433.78147  20635216.69147
  22966166.656 6     71006.086 6     47790.39147  22966164.44947
  22114458.828 6    196770.684 6    145434.00049  22114457.52049
 20  5 16  3 12 20.0000000  0  8G01G04G07G08G09G11G16G27             0.000146873
  22597833.945 6   -509303.234 6   -347780.98049  22597834.75049
  23378716.500 4    195066.945 4    135121.65646  23378716.77346
  22559304.578 5   -448215.711 5   -320475.32848  22559300.41848
  20673004.836 7     29005.766 7     20336.77049  20673003.85549
  23258497.000 2     68760.559 2     50409.43447  23258495.44147
  20634754.195 6   -285628.863 6   -204341.51647  20634750.76247
  22966281.648 6     71610.508 6     48261.36347  22966279.36347
  22114791.430 6    198517.520 6    146795.17648  22114790.46148
 20  5 16  3 12 21.0000000  0  8G01G04G07G08G09G11G16G27             0.000146299
  22596995.906 6   -513704.074 6   -351210.19949  22596996.55949
  23379041.328 4    196774.289 4    136452.05146  23379041.59846
  22558568.594 5   -452079.449 5   -323486.02348  22558565.43048
  20673055.688 6     29272.473 6     20544.60249  20673054.77749
  23258614.680 1     69374.523 1     50887.86347  23258612.91847
  20634288.266 6   -288076.484 6   -206248.75447  20634285.49247
  22966396.906 5     72215.066 5     48732.44146  22966394.19546
  22115123.977 6    200264.523 6    148156.47348  22115122.76248
 20  5 16  3 12 22.0000000  0  8G01G04G07G08G09G11G16G27             0.000145727
  22596158.766 6   -518104.719 6   -354639.27349  22596159.87949
  23379365.805 4    198481.773 4    137782.55146  23379366.52046
  22557834.102 5   -455942.941 5   -326496.53948  22557829.93448
  20673106.445 7     29539.516 7     20752.68849  20673105.42649
  23258730.594 2     69988.895 2     51366.62947  23258729.62947
  20633823.109 6   -290523.609 6   -208155.59847  20633819.47347
  22966512.250 5     72819.703 5     49203.59047  22966509.26647
  22115456.492 6    202011.633 6    149517.86348  22115455.21948
 20  5 16  3 12 23.0000000  0  8G01G04G07G08G09G11G16G27             0.000145153
  22595321.539 6   -522505.156 6   -358068.18448  22595322.05148
  23379690.375 4    200189.258 4    139113.04746  23379691.37146
  22557099.156 5   -459806.172 5   -329506.84447  22557094.86347
  20673157.438 6     29806.840 6     20960.99649  20673156.62949
  23258848.219 2     70603.559 2     51845.62147  23258846.26247
  20633357.398 6   -292970.215 6   -210062.03947  20633354.04747
  22966627.164 5     73424.344 5     49674.72346  22966623.94546
  22115788.813 6    203758.813 6    150879.30548  22115787.74648
 20  5 16  3 12 24.0000000  0  8G01G04G07G08G09G11G16G27             0.000144581
  22594484.172 6   -526905.391 6   -361496.93848  22594485.17648
  23380015.328 4    201896.875 4    140443.65646  23380016.21146
  22556363.672 5   -463669.133 5   -332516.94547  22556359.40247
  20673208.492 6     30074.484 6     21169.55149  20673207.50449
  23258965.352 2     71218.570 2     52324.87146  23258963.56646
  20632891.719 6   -295416.324 6   -211968.09447  20632888.52347
  22966742.648 5     74029.094 5     50145.94546  22966739.41046
  22116121.031 6    205506.133 6    152240.86348  22116119.84448
 20  5 16  3 12 25.0000000  0  8G01G04G07G08G09G11G16G27             0.000144007
  22593646.336 6   -531305.387 6   -364925.50048  22593647.81348
  23380340.438 4    203604.520 4    141774.28146  23380341.23846
  22555629.023 5   -467531.863 5   -335526.86347  22555624.26647
  20673259.633 6     30342.422 6     21378.33249  20673258.59049
  23259082.141 2     71833.926 2     52804.37947  23259080.68047
  20632426.344 6   -297861.930 6   -213873.75847  20632422.75447
  22966857.313 6     74633.879 6     50617.21546  22966854.43846
  22116453.898 6    207253.523 6    153602.46548  22116452.59048
 20  5 16  3 12 26.0000000  0  8G01G04G07G08G09G11G16G27             0.000143435
  22592809.242 6   -535705.105 6   -368353.85248  22592810.47748
  23380665.484 5    205312.301 5    143105.01246  23380666.01246
  22554893.867 5   -471394.211 5   -338536.48447  22554889.79747
  20673310.852 6     30610.766 6     21587.43049  20673309.66049
  23259198.977 1     72449.629 1     53284.14547  23259197.94947
  20631961.188 6   -300306.875 6   -215778.91047  20631957.92247
  22966972.828 5     75238.836 5     51088.61347  22966969.50447
  22116786.313 6    209001.105 6    154964.21948  22116785.10548
 20  5 16  3 12 27.0000000  0  8G01G04G07G08G09G11G16G27             0.000142860
  22591972.047 6   -540104.590 6   -371782.02348  22591973.49248
  23380990.563 5    207020.176 5    144435.83245  23380990.91845
  22554159.141 5   -475256.262 5   -341545.88748  22554154.44948
  20673361.188 6     30879.434 6     21796.78149  20673360.13349
  23259315.648 1     73065.762 1     53764.22746  23259314.88346
  20631496.008 6   -302751.301 6   -217683.66847  20631492.79347
  22967087.859 6     75843.879 6     51560.07046  22967084.78946
  22117118.922 6    210748.801 6    156326.05548  22117117.64148
 20  5 16  3 12 28.0000000  0  8G01G04G07G08G09G11G16G27             0.000142288
  22591135.273 6   -544503.930 6   -375210.08248  22591136.15648
  23381315.359 5    208728.059 5    145766.68845  23381316.30545
  22553424.313 5   -479118.156 5   -344555.16047  22553419.55947
  20673412.945 6     31148.359 6     22006.32849  20673411.59449
  23259433.531 1     73682.082 1     54244.46547  23259432.22747
  20631031.141 6   -305195.324 6   -219588.10547  20631027.84847
  22967203.023 6     76448.883 6     52031.49647  22967199.54347
  22117451.539 6    212496.500 6    157687.90248  22117450.17648
 20  5 16  3 12 29.0000000  0  8G01G04G07G08G09G11G16G27             0.000141714
  22590298.023 6   -548903.004 6   -378637.93048  22590299.10948
  23381640.672 4    210436.000 4    147097.54745  23381641.29745
  22552689.227 5   -482979.762 5   -347564.19948  22552685.26648
  20673463.898 6     31417.602 6     22216.12949  20673463.39549
  23259550.430 1     74298.770 1     54724.98447  23259550.00047
  20630566.211 6   -307638.773 6   -221492.09447  20630562.69947
  22967318.305 6     77053.980 6     52502.99646  22967314.70346
  22117784.023 6    214244.359 6    159049.86748  22117782.90248
 20  5 16  3 12 30.0000000  0  8G01G04G07G08G09G11G16G27             0.000141142
  22589461.031 6   -553301.750 6   -382065.52348  22589462.04348
  23381965.898 4    212144.250 4    148428.61346  23381966.30546
  22551954.906 5   -486840.871 5   -350572.85948  22551950.19548
  20673515.391 6     31687.324 6     22426.30949  20673514.03549
  23259667.328 2     74915.922 2     55205.88747  23259666.84847
  20630100.969 6   -310081.516 6   -223395.52747  20630097.51247
  22967433.164 6     77659.348 6     52974.71947  22967430.09847
  22118116.625 6    215992.500 6    160412.05548  22118115.41448
 20  5 16  3 12 31.0000000  0  8G01G04G07G08G09G11G16G27             0.000140568
  22588624.094 6   -557700.289 6   -385492.95348  22588625.27748
  23382290.203 4    213852.453 4    149759.64845  23382291.53545
  22551220.008 5   -490701.809 5   -353581.37948  22551215.57048
  20673567.023 6     31957.277 6     22636.66449  20673565.37149
  23259785.445 3     75533.430 3     55687.07847  23259784.45347
  20629636.578 6   -312523.824 6   -225298.62147  20629633.03147
  22967548.430 6     78264.695 6     53446.42247  22967545.16847
  22118449.508 6    217740.688 6    161774.28148  22118448.30148
 20  5 16  3 12 32.0000000  0  8G01G04G07G08G09G11G16G27             0.000139996
  22587786.805 6   -562098.598 6   -388920.20348  22587788.08648
  23382616.602 4    215560.770 4    151090.79345  23382616.59845
  22550485.172 5   -494562.465 5   -356589.68448  22550480.90248
  20673618.023 6     32227.590 6     22847.30149  20673617.00049
  23259903.258 1     76151.363 1     56168.57847  23259902.00447
  20629171.188 6   -314965.543 6   -227201.25847  20629168.48047
  22967663.961 6     78870.195 6     53918.23847  22967660.18047
  22118782.648 6    219489.004 6    163136.60548  22118780.76248
 20  5 16  3 12 33.0000000  0  8G01G04G07G08G09G11G16G27             0.000139421
  22586949.789 6   -566496.758 6   -392347.32848  22586951.06348
  23382940.969 4    217269.055 4    152421.91845  23382941.60245
  22549750.102 4   -498422.883 4   -359597.78547  22549745.98847
  20673669.375 6     32498.105 6     23058.07449  20673668.52049
  23260021.102 1     76769.535 1     56650.20747  23260019.92647
  20628706.906 6   -317406.820 6   -229103.54747  20628703.73847
  22967778.953 6     79475.645 6     54390.00446  22967775.25046
  22119114.859 6    221237.320 6    164498.91449  22119113.48849
 20  5 16  3 12 34.0000000  0  8G01G04G07G08G09G11G16G27             0.000138849
  22586113.047 6   -570894.730 6   -395774.30948  22586114.21148
  23383266.672 3    218977.434 3    153753.15245  23383267.03545
  22549016.047 4   -502283.082 4   -362605.73447  22549011.52347
  20673720.898 6     32768.926 6     23269.10249  20673719.84049
  23260137.148 2     77387.977 2     57132.02047  23260137.66047
  20628241.930 6   -319847.609 6   -231005.47347  20628238.98047
  22967893.891 6     80081.148 6     54861.81647  22967890.78147
  22119447.578 6    222985.746 6    165861.32049  22119446.75449
 20  5 16  3 12 35.0000000  0  8G01G04G07G08G09G11G16G27             0.000138275
  22585276.602 6   -575292.602 6   -399201.21548  22585277.41048
  23383590.773 3    220685.762 3    155084.37545  23383591.62945
  22548281.352 4   -506143.105 4   -365613.54347  22548276.94147
  20673772.961 6     33039.984 6     23480.31649  20673771.85949
  23260254.922 2     78006.586 2     57613.97347  23260255.26247
  20627777.961 6   -322287.965 6   -232907.06347  20627774.97347
  22968009.016 6     80686.625 6     55333.62547  22968006.08647
  22119780.203 6    224734.156 6    167223.72348  22119779.28148
 20  5 16  3 12 36.0000000  0  8G01G04G07G08G09G11G16G27             0.000137703
  22584439.680 6   -579690.125 6   -402627.87548  22584440.64848
  23383916.211 4    222394.277 4    156415.69945  23383917.32845
  22547546.375 4   -510002.773 4   -368621.08247  22547542.25047
  20673824.398 7     33311.480 7     23691.87549  20673823.54749
  23260372.234 1     78625.602 1     58096.31647  23260373.57847
  20627314.266 6   -324727.711 6   -234808.17247  20627310.82447
  22968124.734 6     81292.234 6     55805.53947  22968121.52347
  22120112.805 6    226482.762 6    168586.27049  22120111.39549
 20  5 16  3 12 37.0000000  0  8G01G04G07G08G09G11G16G27             0.000137129
  22583602.547 6   -584087.402 6   -406054.33648  22583603.77348
  23384240.938 4    224102.891 4    157747.09445  23384242.18845
  22546812.148 4   -513862.109 4   -371628.35947  22546807.92247
  20673876.047 7     33583.254 7     23903.64149  20673875.23849
  23260490.523 1     79245.039 1     58579.03547  23260491.62947
  20626849.875 6   -327166.914 6   -236708.84447  20626846.42247
  22968239.648 6     81897.965 6     56277.55147  22968236.58647
  22120445.219 6    228231.500 6    169948.91848  22120444.40248
 20  5 16  3 12 38.0000000  0  8G01G04G07G08G09G11G16G27             0.000136555
  22582765.766 6   -588484.414 6   -409480.57448  22582767.36348
  23384565.813 5    225811.664 5    159078.54746  23384567.32446
  22546077.195 5   -517721.266 5   -374635.50448  22546073.52048
  20673928.000 7     33855.375 7     24115.66849  20673926.76649
  23260608.711 6     79864.691 6     59061.89148  23260608.99648
  20626385.945 6   -329605.566 6   -238609.10948  20626382.37948
  22968355.695 6     82503.797 6     56749.62947  22968352.26247
  22120778.648 6    229980.418 6    171311.71549  22120777.14549
 20  5 16  3 12 39.0000000  0  8G01G04G07G08G09G11G16G27             0.000135983
  22581929.219 6   -592881.141 6   -412906.57049  22581930.16849
  23384891.156 5    227520.551 5    160410.09846  23384892.35946
  22545342.945 5   -521579.883 5   -377642.22748  22545339.07048
  20673979.867 7     34127.926 7     24328.03949  20673978.70349
  23260726.984 6     80484.891 6     59545.12149  23260726.28149
  20625922.250 6   -332043.563 6   -240508.86748  20625918.07448
  22968470.750 6     83109.801 6     57221.83247  22968467.39547
  22121112.016 6    231729.477 6    172674.63349  22121110.25849
 20  5 16  3 12 40.0000000  0  8G01G04G07G08G09G11G16G27             0.000135408
  22581092.422 6   -597277.789 6   -416332.50449  22581093.62949
  23385216.234 5    229229.355 5    161741.62946  23385217.22346
  22544609.164 5   -525438.414 5   -380648.86748  22544605.71548
  20674031.680 6     34400.660 6     24540.55149  20674030.83649
  23260844.867 6     81105.320 6     60028.55149  23260844.27049
  20625458.055 7   -334481.168 7   -242408.31348  20625454.28548
  22968585.992 6     83715.727 6     57693.98047  22968582.84047
  22121444.398 6    233478.535 6    174037.53549  22121443.20349
 20  5 16  3 12 41.0000000  0  8G01G04G07G08G09G11G16G27             0.000134836
  22580256.086 6   -601674.230 6   -419758.28549  22580256.93049
  23385541.914 4    230938.254 4    163073.24646  23385542.61746
  22543874.359 5   -529296.672 5   -383655.30148  22543871.00848
  20674083.633 6     34673.707 6     24753.30949  20674082.60549
  23260962.891 6     81726.031 6     60512.20749  23260962.00049
  20624994.516 7   -336918.301 7   -244307.37948  20624990.87148
  22968700.750 6     84321.715 6     58166.18447  22968698.09847
  22121776.961 6    235227.684 6    175400.50049  22121775.57849
 20  5 16  3 12 42.0000000  0  8G01G04G07G08G09G11G16G27             0.000134262
  22579419.352 6   -606070.430 6   -423183.88749  22579420.53549
  23385867.070 4    232647.176 4    164404.86747  23385868.01247
  22543140.727 5   -533154.684 5   -386661.53548  22543137.12948
  20674135.305 6     34947.035 6     24966.28949  20674134.43049
  23261081.398 6     82347.066 6     60996.12949  23261080.54749
  20624530.727 7   -339354.902 7   -246206.02348  20624526.78948
  22968815.930 6     84927.770 6     58638.44547  22968813.10547
  22122109.945 6    236976.926 6    176763.54349  22122108.77049
 20  5 16  3 12 43.0000000  0  8G01G04G07G08G09G11G16G27             0.000133690
  22578582.773 6   -610466.527 6   -426609.46149  22578583.09849
  23386192.781 5    234356.031 5    165736.43047  23386192.83247
  22542406.875 6   -537012.438 6   -389667.59448  22542402.71148
  20674187.961 6     35220.613 6     25179.47749  20674186.33249
  23261199.813 5     82968.277 5     61480.21948  23261198.90648
  20624067.383 6   -341791.090 6   -248104.33648  20624063.44948
  22968931.859 6     85533.781 6     59110.65247  22968928.55147
  22122443.242 6    238726.172 6    178126.58248  22122440.95348
 20  5 16  3 12 44.0000000  0  8G01G04G07G08G09G11G16G27             0.000133116
  22577746.398 6   -614862.250 6   -430034.73449  22577746.89149
  23386517.992 5    236065.160 5    167068.21147  23386518.37947
  22541672.469 6   -540869.859 6   -392673.38348  22541668.33248
  20674239.648 6     35494.641 6     25393.02049  20674238.44149
  23261318.281 5     83590.043 5     61964.75848  23261317.53548
  20623603.883 6   -344226.574 6   -250002.10548  20623599.72348
  22969047.148 6     86140.031 6     59583.03547  22969043.99247
  22122775.906 6    240475.668 6    179489.81348  22122774.31348
 20  5 16  3 12 45.0000000  0  8G01G04G07G08G09G11G16G27             0.000132542
  22576910.266 6   -619257.691 6   -433459.77349  22576910.69149
  23386843.188 5    237774.410 5    168400.08647  23386843.84047
  22540938.641 6   -544726.902 6   -395678.86748  22540934.50048
  20674291.570 6     35769.047 6     25606.84849  20674290.64149
  23261437.000 5     84212.219 5     62449.60548  23261435.50848
  20623140.430 6   -346661.469 6   -251899.42648  20623136.59448
  22969162.453 5     86746.426 5     60055.55147  22969159.29347
  22123108.523 6    242225.355 6    180853.19948  22123106.78948
 20  5 16  3 12 46.0000000  0  8G01G04G07G08G09G11G16G27             0.000131969
  22576074.258 6   -623652.809 6   -436884.53949  22576074.68449
  23387168.773 5    239483.871 5    169732.14147  23387169.12947
  22540205.078 6   -548583.605 6   -398684.08648  22540200.66848
  20674343.883 6     36043.867 6     25820.99249  20674342.85949
  23261554.852 5     84834.828 5     62934.76648  23261553.79348
  20622677.172 6   -349095.730 6   -253796.25848  20622673.26248
  22969277.547 5     87353.000 5     60528.20747  22969274.34047
  22123441.906 6    243975.254 6    182216.75448  22123439.93848
 20  5 16  3 12 47.0000000  0  8G01G04G07G08G09G11G16G27             0.000131395
  22575237.398 6   -628047.789 6   -440309.18449  22575238.45749
  23387493.297 5    241193.293 5    171064.16847  23387494.52747
  22539471.008 6   -552440.082 6   -401689.13748  22539466.96548
  20674396.625 6     36318.879 6     26035.28549  20674395.27749
  23261673.508 6     85457.697 6     63420.10148  23261672.12948
  20622213.773 6   -351529.563 6   -255692.73848  20622210.19548
  22969393.078 6     87959.523 6     61000.82847  22969390.18847
  22123774.719 6    245725.145 6    183580.30948  22123773.06648
 20  5 16  3 12 48.0000000  0  8G01G04G07G08G09G11G16G27             0.000130823
  22574400.734 6   -632442.484 6   -443733.60949  22574401.96149
  23387819.188 5    242902.832 5    172396.26647  23387819.43047
  22538737.273 6   -556296.270 6   -404693.95748  22538732.99648
  20674449.195 6     36594.258 6     26249.86749  20674447.86749
  23261791.758 5     86080.895 5     63905.69148  23261790.95348
  20621750.984 6   -353962.797 6   -257588.77048  20621746.82048
  22969508.508 6     88566.176 6     61473.53547  22969505.65647
  22124107.750 6    247475.199 6    184943.98448  22124106.16048
 20  5 16  3 12 49.0000000  0  8G01G04G07G08G09G11G16G27             0.000130249
  22573564.406 6   -636837.012 6   -447157.90649  22573565.54349
  23388143.773 5    244612.414 5    173728.41047  23388145.16447
  22538003.508 6   -560152.191 6   -407698.57048  22537999.48448
  20674501.250 6     36869.930 6     26464.66449  20674500.18849
  23261910.781 5     86704.402 5     64391.52748  23261909.42248
  20621288.180 6   -356395.578 6   -259484.44548  20621284.35548
  22969623.961 6     89172.879 6     61946.28947  22969621.18047
  22124441.117 6    249225.324 6    186307.71948  22124439.33648
 20  5 16  3 12 50.0000000  0  8G01G04G07G08G09G11G16G27             0.000129677
  22572728.391 6   -641231.418 6   -450582.11349  22572729.44149
  23388469.539 5    246321.980 5    175060.53946  23388470.58646
  22537269.695 6   -564007.965 6   -410703.07048  22537265.70748
  20674553.844 6     37145.809 6     26679.63749  20674552.73849
  23262029.664 5     87328.164 5     64877.57447  23262028.25447
  20620824.945 6   -358827.902 6   -261379.76248  20620821.44948
  22969740.125 6     89779.508 6     62418.98447  22969736.12947
  22124773.594 6    250975.445 6    187671.45348  22124772.27748
 20  5 16  3 12 51.0000000  0  8G01G04G07G08G09G11G16G27             0.000129103
  22571892.664 6   -645625.516 6   -454006.09049  22571893.38749
  23388794.805 5    248031.672 5    176392.76247  23388795.53947
  22536535.820 6   -567863.375 6   -413707.28548  22536531.73848
  20674606.586 6     37422.074 6     26894.91049  20674605.50449
  23262148.602 5     87952.332 5     65363.93447  23262147.02347
  20620362.164 6   -361259.641 6   -263274.62548  20620358.44548
  22969855.320 6     90386.328 6     62891.83247  22969851.54347
  22125107.008 6    252725.734 6    189035.31348  22125105.73048
 20  5 16  3 12 52.0000000  0  8G01G04G07G08G09G11G16G27             0.000128531
  22571056.180 6   -650019.457 6   -457429.94149  22571057.21949
  23389120.266 5    249741.379 5    177724.99247  23389121.17647
  22535802.617 6   -571718.582 6   -416711.34448  22535798.19148
  20674658.898 6     37698.605 6     27110.38749  20674658.00049
  23262267.039 5     88576.746 5     65850.49248  23262265.78548
  20619899.609 6   -363690.898 6   -265169.11348  20619895.98448
  22969970.555 6     90993.145 6     63364.67247  22969967.43447
  22125440.461 6    254476.098 6    190399.22748  22125438.19148
 20  5 16  3 12 53.0000000  0  8G01G04G07G08G09G11G16G27             0.000127956
  22570219.695 6   -654413.125 6   -460853.57049  22570221.14149
  23389445.859 5    251451.234 5    179057.33247  23389446.31347
  22535068.180 5   -575573.613 5   -419715.25848  22535064.95348
  20674712.141 7     37975.438 7     27326.10249  20674710.79749
  23262385.445 6     89201.613 6     66337.37548  23262384.55548
  20619437.430 6   -366121.609 6   -267063.18048  20619433.37148
  22970086.508 6     91600.059 6     63837.59047  22970082.62947
  22125773.789 6    256226.586 6    191763.25449  22125771.10549
 20  5 16  3 12 54.0000000  0  8G01G04G07G08G09G11G16G27             0.000127382
  22569383.727 6   -658806.633 6   -464277.05949  22569385.35949
  23389771.398 5    253161.094 5    180389.71147  23389771.85947
  22534334.867 6   -579428.281 6   -422718.89149  22534331.46149
  20674764.867 7     38252.578 7     27542.04749  20674763.30149
  23262504.688 5     89826.699 5     66824.42648  23262503.82448
  20618975.016 6   -368551.813 6   -268956.85248  20618970.76648
  22970202.508 6     92207.004 6     64310.54347  22970198.12547
  22126106.711 6    257977.117 6    193127.32049  22126104.76649
 20  5 16  3 12 55.0000000  0  8G01G04G07G08G09G11G16G27             0.000126810
  22568548.047 6   -663199.813 6   -467700.29349  22568549.27349
  23390096.531 5    254871.113 5    181722.19947  23390097.15247
  22533601.188 6   -583282.527 6   -425722.19949  22533597.71949
  20674817.477 7     38530.133 7     27758.32449  20674816.12549
  23262623.109 5     90452.230 5     67311.83248  23262622.50048
  20618512.305 6   -370981.441 6   -270850.06648  20618508.76248
  22970317.563 5     92814.125 5     64783.62946  22970313.73046
  22126439.531 6    259727.879 6    194491.56349  22126438.12149
 20  5 16  3 12 56.0000000  0  8G01G04G07G08G09G11G16G27             0.000126236
  22567712.305 6   -667592.781 6   -471123.37949  22567712.99249
  23390421.695 5    256581.125 5    183054.67647  23390422.46147
  22532867.938 6   -587136.574 6   -428725.34849  22532864.48449
  20674870.383 7     38807.961 7     27974.82049  20674869.19549
  23262742.867 5     91078.027 5     67799.46548  23262741.98848
  20618050.125 6   -373410.539 6   -272742.87548  20618046.26248
  22970432.648 6     93421.273 6     65256.73047  22970428.96147
  22126773.125 6    261478.688 6    195855.82849  22126770.98449
 20  5 16  3 12 57.0000000  0  8G01G04G07G08G09G11G16G27             0.000125664
  22566875.820 6   -671985.605 6   -474546.35949  22566876.98449
  23390747.508 5    258291.227 5    184387.21546  23390747.71146
  22532134.547 6   -590990.375 6   -431728.30949  22532131.38349
  20674923.172 7     39086.059 7     28191.52049  20674921.87549
  23262861.742 5     91704.137 5     68287.34448  23262860.69948
  20617588.242 6   -375839.164 6   -274635.30148  20617583.99248
  22970548.094 6     94028.457 6     65729.85547  22970544.89847
  22127105.891 6    263229.559 6    197220.15249  22127104.42249
 20  5 16  3 12 58.0000000  0  8G01G04G07G08G09G11G16G27             0.000125090
  22566040.328 6   -676378.211 6   -477969.18049  22566041.02349
  23391073.336 5    260001.344 5    185719.77047  23391073.27347
  22531401.469 6   -594843.887 6   -434731.04749  22531397.85949
  20674976.227 7     39364.465 7     28408.45749  20674975.02349
  23262980.992 5     92330.547 5     68775.46548  23262980.21548
  20617125.961 6   -378267.285 6   -276527.34848  20617122.05948
  22970664.398 6     94635.699 6     66203.03147  22970660.67247
  22127438.844 6    264980.523 6    198584.53549  22127437.31349
 20  5 16  3 12 59.0000000  0  8G01G04G07G08G09G11G16G27             0.000124517
  22565204.336 6   -680770.641 6   -481391.84849  22565205.54749
  23391398.406 5    261711.512 5    187052.37147  23391398.64547
  22530667.945 6   -598697.211 6   -437733.64149  22530664.59449
  20675028.766 7     39643.121 7     28625.59449  20675027.46149
  23263099.680 5     92957.234 5     69263.80148  23263099.46548
  20616664.172 6   -380694.918 6   -278419.00848  20616659.66048
  22970779.375 6     95242.977 6     66676.22347  22970775.77047
  22127771.875 6    266731.578 6    199948.98849  22127770.64149
 20  5 16  3 13  0.0000000  0  8G01G04G07G08G09G11G16G27             0.000123943
  22564368.664 6   -685162.867 6   -484814.36749  22564369.64849
  23391723.359 5    263421.711 5    188385.00047  23391724.20347
  22529934.688 6   -602550.258 6   -440736.01249  22529931.74649
  20675082.688 7     39922.063 7     28842.94949  20675081.02749
  23263219.672 5     93584.258 5     69752.39548  23263218.25048
  20616202.195 6   -383122.043 6   -280310.27048  20616198.18848
  22970894.781 6     95850.316 6     67149.47347  22970891.97347
  22128105.828 6    268482.680 6    201313.47749  22128104.10249
 20  5 16  3 13  1.0000000  0  8G01G04G07G08G09G11G16G27             0.000123369
  22563532.438 6   -689554.813 6   -488236.66049  22563533.60249
  23392048.547 5    265132.043 5    189717.71947  23392049.38747
  22529201.984 6   -606402.965 6   -443738.12149  22529198.46949
  20675135.422 7     40201.359 7     29060.58649  20675134.20349
  23263338.578 5     94211.645 5     70241.27048  23263337.69148
  20615740.148 7   -385548.578 7   -282201.08248  20615736.46148
  22971010.516 6     96457.742 6     67622.78147  22971007.53147
  22128439.023 6    270233.957 6    202678.10949  22128437.53149
 20  5 16  3 13  2.0000000  0  8G01G04G07G08G09G11G16G27             0.000122797
  22562696.914 6   -693946.563 6   -491658.80149  22562698.40649
  23392374.672 5    266842.406 5    191050.46547  23392374.82047
  22528468.398 6   -610255.484 6   -446740.07849  22528465.46149
  20675188.414 7     40480.957 7     29278.45349  20675187.08649
  23263458.148 5     94839.328 5     70730.36748  23263457.52748
  20615278.508 6   -387974.648 6   -284091.52348  20615274.61748
  22971126.258 6     97065.227 6     68096.15247  22971123.35947
  22128771.859 6    271985.273 6    204042.76249  22128770.82849
 20  5 16  3 13  3.0000000  0  8G01G04G07G08G09G11G16G27             0.000122223
  22561861.453 6   -698338.027 6   -495080.72349  22561862.53549
  23392700.164 5    268552.906 5    192383.32046  23392700.17246
  22527735.820 6   -614107.641 6   -449741.75849  22527732.16449
  20675242.156 7     40760.934 7     29496.61349  20675240.52349
  23263578.195 5     95467.422 5     71219.78548  23263577.08248
  20614817.383 6   -390400.102 6   -285981.48448  20614813.09448
  22971241.344 6     97672.852 6     68569.62947  22971238.80947
  22129105.094 6    273736.777 6    205407.57449  22129103.67649
 20  5 16  3 13  4.0000000  0  8G01G04G07G08G09G11G16G27             0.000121649
  22561025.609 6   -702729.238 6   -498502.44149  22561027.26649
  23393025.070 5    270263.508 5    193716.25046  23393025.73846
  22527002.281 6   -617959.461 6   -452743.18449  22526998.78149
  20675295.305 7     41041.266 7     29715.05549  20675293.85249
  23263697.328 5     96095.883 5     71709.48848  23263696.87948
  20614355.477 6   -392824.969 6   -287871.00048  20614351.83248
  22971357.914 6     98280.570 6     69043.18047  22971354.71547
  22129438.555 6    275488.430 6    206772.49649  22129437.00049
 20  5 16  3 13  5.0000000  0  8G01G04G07G08G09G11G16G27             0.000121077
  22560189.797 6   -707120.254 6   -501924.00449  22560191.28949
  23393350.578 5    271974.195 5    195049.25146  23393351.01646
  22526269.813 6   -621811.039 6   -455744.41449  22526266.15649
  20675348.414 7     41321.859 7     29933.69949  20675347.05949
  23263816.641 5     96724.645 5     72199.42248  23263816.07048
  20613894.297 6   -395249.383 6   -289760.15648  20613890.08248
  22971472.820 6     98888.355 6     69516.78147  22971469.85947
  22129771.750 6    277240.145 6    208137.46949  22129770.45349
 20  5 16  3 13  6.0000000  0  8G01G04G07G08G09G11G16G27             0.000120502
  22559354.836 6   -711510.996 6   -505345.35949  22559355.95749
  23393676.875 5    273684.953 5    196382.30147  23393676.54747
  22525536.930 6   -625662.309 6   -458745.39849  22525533.15649
  20675402.047 7     41602.820 7     30152.62549  20675400.36349
  23263936.430 5     97353.781 5     72689.66448  23263936.06648
  20613433.328 6   -397673.191 6   -291648.83248  20613429.16448
  22971588.422 5     99496.227 5     69990.44947  22971586.17647
  22130105.164 6    278992.020 6    209502.57049  22130104.02349
 20  5 16  3 13  7.0000000  0  8G01G04G07G08G09G11G16G27             0.000119930
  22558518.891 6   -715901.543 6   -508766.56349  22558520.32849
  23394002.180 5    275395.711 5    197715.35547  23394001.75847
  22524804.039 6   -629513.344 6   -461746.21149  22524800.60249
  20675455.750 7     41884.039 7     30371.76249  20675454.28549
  23264056.430 5     97983.191 5     73180.11748  23264055.73448
  20612972.102 6   -400096.547 6   -293537.16448  20612967.75448
  22971704.430 5    100104.156 5     70464.15647  22971701.12547
  22130439.273 6    280743.957 6    210867.71149  22130437.24249
 20  5 16  3 13  8.0000000  0  8G01G04G07G08G09G11G16G27             0.000119356
  22557683.516 5   -720291.895 5   -512187.61749  22557684.62149
  23394327.914 5    277106.582 5    199048.50046  23394327.46546
  22524071.047 6   -633364.113 6   -464746.80949  22524067.66049
  20675509.414 7     42165.531 7     30591.10249  20675507.76649
  23264177.039 5     98612.910 5     73670.80948  23264175.76248
  20612510.984 6   -402519.367 6   -295425.06648  20612507.23448
  22971820.234 5    100712.109 5     70937.87947  22971817.22347
  22130772.250 6    282495.969 6    212232.91849  22130770.67649
 20  5 16  3 13  9.0000000  0  8G01G04G07G08G09G11G16G27             0.000118782
  22556847.961 5   -724682.020 5   -515608.48849  22556849.51649
  23394653.156 5    278817.500 5    200381.68046  23394653.12546
  22523338.813 6   -637214.590 6   -467747.18049  22523335.00849
  20675562.883 7     42447.367 7     30810.72349  20675561.41049
  23264296.742 5     99242.996 5     74161.78548  23264295.75848
  20612050.141 6   -404941.656 6   -297312.56648  20612046.14148
  22971936.148 5    101320.172 5     71411.69547  22971932.74247
  22131105.250 6    284248.102 6    213598.21949  22131103.89849
 20  5 16  3 13 10.0000000  0  8G01G04G07G08G09G11G16G27             0.000118210
  22556013.469 6   -729071.707 6   -519029.02349  22556014.20349
  23394979.242 5    280528.699 5    201715.08246  23394978.85246
  22522606.250 6   -641064.586 6   -470747.17649  22522602.04349
  20675616.789 7     42729.691 7     31030.71549  20675614.91449
  23264416.359 5     99873.586 5     74653.15648  23264415.86348
  20611589.117 6   -407363.207 6   -299199.48848  20611585.28548
  22972051.297 5    101928.484 5     71885.69947  22972048.38747
  22131439.313 6    286000.535 6    214963.75049  22131437.65649
 20  5 16  3 13 11.0000000  0  8G01G04G07G08G09G11G16G27             0.000117636
  22555177.648 6   -733461.125 6   -522449.33649  22555179.07049
  23395304.313 5    282240.027 5    203048.58646  23395304.55546
  22521873.398 6   -644914.250 6   -473746.91449  22521869.69549
  20675670.336 7     43012.395 7     31250.99649  20675669.03149
  23264536.414 5    100504.578 5     75144.83648  23264535.81648
  20611128.438 6   -409784.188 6   -301085.96948  20611124.20748
  22972167.414 6    102536.949 6     72359.82447  22972164.38347
  22131772.273 6    287753.102 6    216329.38749  22131771.03549
 20  5 16  3 13 12.0000000  0  8G01G04G07G08G09G11G16G27             0.000117062
  22554342.461 6   -737850.285 6   -525869.46149  22554343.52049
  23395630.297 5    283951.402 5    204382.12546  23395630.05146
  22521140.633 6   -648763.637 6   -476746.43449  22521137.40649
  20675723.945 7     43295.402 7     31471.52349  20675722.77749
  23264656.227 5    101135.918 5     75636.78548  23264655.72748
  20610667.875 6   -412204.605 6   -302972.01248  20610663.80548
  22972282.883 6    103145.465 6     72833.99647  22972280.16447
  22132105.938 6    289505.820 6    217695.14549  22132104.95349
 20  5 16  3 13 13.0000000  0  8G01G04G07G08G09G11G16G27             0.000116489
  22553507.344 6   -742239.195 6   -529289.39549  22553508.57049
  23395956.086 5    285662.926 5    205715.77747  23395956.07447
  22520408.320 6   -652612.699 6   -479745.70349  22520404.77049
  20675778.148 7     43578.785 7     31692.33649  20675776.72349
  23264776.000 5    101767.637 5     76129.03148  23264775.94948
  20610207.711 6   -414624.496 6   -304857.64148  20610203.34048
  22972398.961 6    103754.121 6     73308.27347  22972396.12147
  22132439.891 6    291258.699 6    219061.02049  22132438.06349
 20  5 16  3 13 14.0000000  0  8G01G04G07G08G09G11G16G27             0.000115917
  22552672.258 6   -746627.820 6   -532709.10249  22552673.68849
  23396281.742 5    287374.598 5    207049.54346  23396282.23446
  22519676.055 6   -656461.398 6   -482744.68849  22519672.53149
  20675832.281 7     43862.559 7     31913.46149  20675830.75449
  23264896.719 5    102399.750 5     76621.57848  23264896.02748
  20609747.328 6   -417043.746 6   -306742.76648  20609743.12148
  22972514.922 6    104362.898 6     73782.64547  22972511.84047
  22132773.500 6    293011.691 6    220426.98849  22132772.00049
 20  5 16  3 13 15.0000000  0  8G01G04G07G08G09G11G16G27             0.000115343
  22551837.531 6   -751016.109 6   -536128.55149  22551838.73449
  23396608.000 5    289086.398 5    208383.39546  23396607.60546
  22518943.531 6   -660309.746 6   -485743.40249  22518939.91049
  20675886.047 7     44146.723 7     32134.88349  20675884.99649
  23265017.055 5    103032.258 5     77114.43848  23265016.55548
  20609286.750 6   -419462.418 6   -308627.44548  20609282.73848
  22972630.898 6    104971.871 6     74257.17247  22972627.51647
  22133106.859 6    294764.930 6    221793.14849  22133105.32449
 20  5 16  3 13 16.0000000  0  8G01G04G07G08G09G11G16G27             0.000114771
  22551002.383 6   -755404.262 6   -539547.88749  22551003.33649
  23396932.930 5    290798.188 5    209717.26246  23396933.73846
  22518211.391 6   -664157.891 6   -488741.95349  22518207.48049
  20675940.375 7     44431.168 7     32356.53549  20675938.66849
  23265137.414 5    103665.027 5     77607.50448  23265137.11348
  20608826.461 6   -421880.578 6   -310511.72748  20608822.71948
  22972746.477 6    105580.809 6     74731.65647  22972743.50847
  22133440.422 6    296518.176 6    223159.31649  22133439.02349
 20  5 16  3 13 17.0000000  0  8G01G04G07G08G09G11G16G27             0.000114197
  22550167.305 6   -759792.012 6   -542966.91049  22550168.50449
  23397258.625 5    292510.223 5    211051.32446  23397259.21946
  22517479.234 6   -668005.598 6   -491740.16849  22517475.56649
  20675994.320 7     44716.094 7     32578.54749  20675993.30549
  23265258.320 5    104298.313 5     78100.97748  23265257.52348
  20608366.422 6   -424298.105 6   -312395.52048  20608362.72348
  22972862.438 5    106189.988 5     75206.34047  22972859.41447
  22133774.172 6    298271.688 6    224525.68449  22133772.83649
 20  5 16  3 13 18.0000000  0  8G01G04G07G08G09G11G16G27             0.000113623
  22549332.117 6   -764179.523 6   -546385.75049  22549333.28549
  23397584.445 5    294222.367 5    212385.46146  23397584.86346
  22516746.625 6   -671852.973 6   -494738.12149  22516743.33249
  20676048.984 7     45001.352 7     32800.82849  20676047.65649
  23265379.156 5    104931.941 5     78594.70748  23265378.08648
  20607906.641 6   -426715.031 6   -314278.84048  20607902.26248
  22972978.836 5    106799.258 5     75681.10247  22972975.46147
  22134107.617 6    300025.316 6    225892.14849  22134106.31649
 20  5 16  3 13 19.0000000  0  8G01G04G07G08G09G11G16G27             0.000113050
  22548497.430 6   -768566.891 6   -549804.47749  22548498.93449
  23397910.398 5    295934.477 5    213719.55546  23397910.58246
  22516015.359 6   -675700.172 6   -497735.94149  22516011.09049
  20676103.063 7     45286.828 7     33023.27049  20676101.62549
  23265499.461 5    105565.805 5     79088.62548  23265498.62948
  20607446.703 7   -429131.570 7   -316161.85948  20607442.77348
  22973094.383 6    107408.527 6     76155.85547  22973091.57447
  22134441.484 6    301778.965 6    227258.62949  22134440.00449
 20  5 16  3 13 20.0000000  0  8G01G04G07G08G09G11G16G27             0.000112476
  22547661.906 6   -772954.020 6   -553223.01249  22547663.86349
  23398236.469 5    297646.648 5    215053.70747  23398236.42247
  22515283.023 6   -679547.090 6   -500733.53549  22515279.43449
  20676157.328 7     45572.605 7     33245.95749  20676156.24249
  23265619.609 5    106200.008 5     79582.80548  23265619.39848
  20606986.969 6   -431547.535 6   -318044.42648  20606983.08248
  22973210.547 6    108017.879 6     76630.68047  22973207.21147
  22134775.594 6    303532.711 6    228625.18049  22134773.98849
 20  5 16  3 13 21.0000000  0  8G01G04G07G08G09G11G16G27             0.000111904
  22546827.922 6   -777340.855 6   -556641.32449  22546829.34849
  23398562.195 5    299358.984 5    216388.00046  23398562.44546
  22514550.445 6   -683393.664 6   -503730.87149  22514547.70749
  20676211.875 7     45858.750 7     33468.93049  20676210.86349
  23265740.711 5    106834.609 5     80077.29748  23265740.32048
  20606527.313 6   -433962.918 6   -319926.54348  20606523.05548
  22973326.406 6    108627.355 6     77105.59846  22973323.06646
  22135109.195 6    305286.656 6    229991.89549  22135107.75849
 20  5 16  3 13 22.0000000  0  8G01G04G07G08G09G11G16G27             0.000111332
  22545993.023 6   -781727.531 6   -560059.50849  22545994.43049
  23398887.750 5    301071.309 5    217722.28547  23398888.17247
  22513818.992 6   -687240.000 6   -506728.01249  22513815.25849
  20676266.383 7     46145.156 7     33692.10549  20676265.43449
  23265861.648 5    107469.484 5     80572.00448  23265861.01248
  20606067.867 6   -436377.832 6   -321808.29348  20606063.67648
  22973441.992 6    109236.848 6     77580.52347  22973439.14147
  22135443.273 6    307040.621 6    231358.62149  22135441.42649
 20  5 16  3 13 23.0000000  0  8G01G04G07G08G09G11G16G27             0.000110758
  22545158.609 6   -786113.906 6   -563477.46149  22545159.66049
  23399213.977 5    302783.766 5    219056.66446  23399214.09846
  22513087.047 6   -691086.008 6   -509724.90648  22513083.83648
  20676321.148 7     46431.938 7     33915.56649  20676320.26249
  23265982.047 5    108104.738 5     81067.00448  23265982.10948
  20605608.516 6   -438792.164 6   -323689.58648  20605604.20748
  22973558.164 6    109846.457 6     78055.54746  22973555.09846
  22135776.344 6    308794.766 6    232725.48849  22135774.86349
 20  5 16  3 13 24.0000000  0  8G01G04G07G08G09G11G16G27             0.000110184
  22544323.531 6   -790500.094 6   -566895.26649  22544324.73449
  23399539.563 5    304496.219 5    220391.03946  23399540.00846
  22512355.383 6   -694931.754 6   -512721.59049  22512351.75449
  20676375.672 7     46718.984 7     34139.23849  20676374.65649
  23266103.742 5    108740.273 5     81562.22748  23266103.06648
  20605149.398 6   -441205.996 6   -325570.49648  20605145.32048
  22973674.273 6    110456.129 6     78530.61346  22973671.10246
  22136110.453 6    310548.980 6    234092.41049  22136109.18449
 20  5 16  3 13 25.0000000  0  8G01G04G07G08G09G11G16G27             0.000109612
  22543488.820 6   -794886.141 6   -570312.96949  22543489.74249
  23399865.500 5    306208.727 5    221725.45747  23399865.75847
  22511623.344 6   -698777.336 6   -515718.14549  22511619.93449
  20676430.039 7     47006.254 7     34363.08249  20676429.32449
  23266224.828 5    109376.090 5     82057.67248  23266223.99648
  20604690.211 6   -443619.375 6   -327451.05148  20604685.50048
  22973790.086 6    111065.797 6     79005.67247  22973787.12947
  22136444.266 6    312303.199 6    235459.33649  22136442.81649
 20  5 16  3 13 26.0000000  0  8G01G04G07G08G09G11G16G27             0.000109037
  22542653.945 6   -799271.816 6   -573730.37549  22542655.26649
  23400191.492 5    307921.449 5    223060.05147  23400191.79747
  22510891.719 6   -702622.426 6   -518714.31649  22510888.35949
  20676485.273 7     47294.008 7     34587.30949  20676483.62149
  23266346.227 5    110012.391 5     82553.48448  23266344.80948
  20604230.914 6   -446032.055 6   -329331.05948  20604226.88748
  22973906.398 6    111675.703 6     79480.92247  22973903.33647
  22136778.156 6    314057.703 6    236826.47749  22136776.69549
 20  5 16  3 13 27.0000000  0  8G01G04G07G08G09G11G16G27             0.000108465
  22541819.180 6   -803657.215 6   -577147.57049  22541821.02049
  23400517.570 5    309634.234 5    224394.68046  23400517.64546
  22510160.320 6   -706467.262 6   -521710.29349  22510156.60249
  20676539.891 7     47582.066 7     34811.77049  20676538.61349
  23266467.219 5    110649.016 5     83049.55948  23266466.04348
  20603772.102 6   -448444.203 6   -331210.65648  20603767.66848
  22974022.328 5    112285.691 5     79956.23847  22974019.27747
  22137112.281 6    315812.301 6    238193.69549  22137110.91449
 20  5 16  3 13 28.0000000  0  8G01G04G07G08G09G11G16G27             0.000107891
  22540985.039 6   -808042.367 6   -580564.57049  22540986.61749
  23400844.000 5    311347.145 5    225729.40646  23400843.27346
  22509428.406 6   -710311.766 6   -524706.01249  22509425.23849
  20676594.781 7     47870.516 7     35036.53949  20676593.64549
  23266588.094 5    111286.035 5     83545.93848  23266587.22348
  20603312.758 6   -450855.773 6   -333089.80548  20603308.78548
  22974138.391 6    112895.797 6     80431.64147  22974135.55147
  22137445.828 6    317567.047 6    239561.02349  22137444.36349
 20  5 16  3 13 29.0000000  0  8G01G04G07G08G09G11G16G27             0.000107319
  22540150.594 6   -812427.191 6   -583981.31649  22540151.72349
  23401169.711 5    313060.215 5    227064.26247  23401169.30947
  22508696.813 6   -714155.887 6   -527701.43449  22508693.48449
  20676649.500 7     48159.328 7     35261.58249  20676648.62549
  23266709.000 5    111923.469 5     84042.63348  23266708.57448
  20602854.594 6   -453266.723 6   -334968.46548  20602849.80148
  22974254.750 6    113506.078 6     80907.18446  22974251.75446
  22137780.375 6    319322.000 6    240928.52049  22137778.68049
 20  5 16  3 13 30.0000000  0  8G01G04G07G08G09G11G16G27             0.000106747
  22539317.203 6   -816811.789 6   -587397.88349  22539317.85249
  23401495.484 5    314773.359 5    228399.18446  23401495.33246
  22507965.445 6   -717999.754 6   -530696.65249  22507962.18849
  20676704.422 7     48448.414 7     35486.84849  20676703.75449
  23266830.898 5    112561.246 5     84539.60248  23266829.88348
  20602395.250 6   -455677.156 6   -336846.72748  20602391.05948
  22974370.492 5    114116.371 5     81382.74646  22974367.54746
  22138113.742 6    321077.027 6    242296.07449  22138112.87549
 20  5 16  3 13 31.0000000  0  8G01G04G07G08G09G11G16G27             0.000106173
  22538482.281 6   -821196.121 6   -590814.24249  22538483.52049
  23401821.648 5    316486.547 5    229734.13746  23401821.18046
  22507234.563 6   -721843.320 6   -533691.64849  22507230.70749
  20676759.984 7     48737.867 7     35712.39149  20676758.72349
  23266952.078 5    113199.316 5     85036.80148  23266951.46548
  20601936.539 6   -458087.043 6   -338724.55948  20601932.52348
  22974487.172 6    114726.809 6     81858.41047  22974483.86747
  22138448.063 6    322832.207 6    243663.75049  22138446.29349
 20  5 16  3 13 32.0000000  0  8G01G04G07G08G09G11G16G27             0.000105600
  22537648.078 6   -825580.141 6   -594230.35949  22537649.02049
  23402147.211 5    318199.906 5    231069.21946  23402147.45746
  22506502.688 6   -725686.480 6   -536686.31649  22506499.41049
  20676815.063 7     49027.719 7     35938.25449  20676813.85249
  23267074.141 5    113837.836 5     85534.34848  23267073.15648
  20601478.617 6   -460496.316 6   -340601.91048  20601474.24248
  22974603.195 5    115337.375 5     82334.18047  22974599.87147
  22138782.258 6    324587.543 6    245031.54349  22138780.74249
 20  5 16  3 13 33.0000000  0  8G01G04G07G08G09G11G16G27             0.000105026
  22536813.844 6   -829964.020 6   -597646.37149  22536814.61349
  23402473.492 5    319913.301 5    232404.32447  23402473.31347
  22505771.586 6   -729529.469 6   -539680.85249  22505768.01649
  20676870.211 7     49317.820 7     36164.30149  20676868.77049
  23267195.828 5    114476.617 5     86032.09848  23267194.55548
  20601019.867 6   -462905.098 6   -342478.88348  20601016.01648
  22974719.273 5    115947.992 5     82809.98047  22974715.87947
  22139116.133 6    326342.965 6    246399.40249  22139114.89149
 20  5 16  3 13 34.0000000  0  8G01G04G07G08G09G11G16G27             0.000104454
  22535979.414 6   -834347.527 6   -601062.09049  22535980.95749
  23402799.969 5    321626.863 5    233739.56647  23402799.78147
  22505040.336 6   -733372.035 6   -542675.05949  22505037.19549
  20676925.727 7     49608.391 7     36390.72349  20676924.32849
  23267317.422 5    115115.867 5     86530.20748  23267316.23448
  20600561.734 6   -465313.230 6   -344355.35248  20600557.33248
  22974835.438 5    116558.797 5     83285.93046  22974832.30546
  22139450.063 6    328098.586 6    247767.41849  22139448.70749
 20  5 16  3 13 35.0000000  0  8G01G04G07G08G09G11G16G27             0.000103882
  22535145.117 6   -838730.848 6   -604477.66449  22535146.53149
  23403125.898 5    323340.469 5    235074.84446  23403125.63346
  22504309.391 6   -737214.340 6   -545669.06349  22504306.02049
  20676980.750 7     49899.223 7     36617.34849  20676979.48849
  23267438.500 5    115755.391 5     87028.53948  23267437.94948
  20600103.633 7   -467720.871 7   -346231.43848  20600099.89848
  22974951.953 5    117169.637 5     83761.90646  22974948.61346
  22139784.063 6    329854.301 6    249135.51249  22139782.80549
 20  5 16  3 13 36.0000000  0  8G01G04G07G08G09G11G16G27             0.000103308
  22534311.820 6   -843114.035 6   -607893.13749  22534312.75049
  23403451.594 5    325054.055 5    236410.09846  23403451.43046
  22503578.094 6   -741056.488 6   -548662.93849  22503574.78549
  20677036.422 7     50190.254 7     36844.12549  20677035.07849
  23267560.211 5    116395.176 5     87527.07048  23267559.72348
  20599645.266 6   -470128.098 6   -348107.19948  20599641.23448
  22975068.484 5    117780.422 5     84237.84446  22975065.07446
  22140118.523 6    331609.969 6    250503.56349  22140116.69549
 20  5 16  3 13 37.0000000  0  8G01G04G07G08G09G11G16G27             0.000102736
  22533477.273 6   -847497.008 6   -611308.43449  22533478.52349
  23403778.242 5    326767.699 5    237745.39846  23403778.07046
  22502847.180 6   -744898.328 6   -551656.58649  22502843.96149
  20677091.750 7     50481.602 7     37071.14549  20677090.36749
  23267681.711 5    117035.273 5     88025.84048  23267681.46948
  20599187.375 6   -472534.770 6   -349982.52748  20599183.50048
  22975184.211 5    118391.309 5     84713.86347  22975181.18847
  22140452.328 6    333365.777 6    251871.71949  22140451.20749
 20  5 16  3 13 38.0000000  0  8G01G04G07G08G09G11G16G27             0.000102161
  22532643.695 6   -851879.707 6   -614723.52349  22532644.43049
  23404104.414 5    328481.430 5    239080.77046  23404104.15246
  22502115.711 6   -748739.902 6   -554650.01649  22502112.76649
  20677147.148 7     50773.266 7     37298.41449  20677145.84049
  23267803.750 5    117675.711 5     88524.88748  23267803.32848
  20598729.875 6   -474940.879 6   -351857.41448  20598725.60248
  22975300.484 5    119002.270 5     85189.92646  22975297.60246
  22140786.719 6    335121.707 6    253239.98049  22140785.21549
 20  5 16  3 13 39.0000000  0  8G01G04G07G08G09G11G16G27             0.000101589
  22531809.023 6   -856262.223 6   -618138.46949  22531809.91849
  23404430.055 5    330195.195 5    240416.17246  23404430.17646
  22501385.070 6   -752581.188 6   -557643.22349  22501381.81349
  20677202.766 7     51065.207 7     37525.90249  20677201.72349
  23267926.031 5    118316.426 5     89024.14548  23267925.10248
  20598271.867 6   -477346.523 6   -353731.94548  20598267.77748
  22975416.617 5    119613.297 5     85666.05547  22975413.91847
  22141120.641 6    336877.695 6    254608.28149  22141119.35949
 20  5 16  3 13 40.0000000  0  8G01G04G07G08G09G11G16G27             0.000101015
  22530975.742 6   -860644.539 6   -621553.25849  22530976.14549
  23404756.102 5    331909.008 5    241751.61346  23404756.15646
  22500653.820 6   -756422.211 6   -560636.22749  22500650.75849
  20677258.328 7     51357.453 7     37753.62949  20677257.36349
  23268048.609 5    118957.477 5     89523.66048  23268047.36748
  20597814.141 6   -479751.637 6   -355606.05948  20597810.24248
  22975532.961 5    120224.391 5     86142.23047  22975529.63747
  22141454.531 6    338633.762 6    255976.64549  22141453.02349
 20  5 16  3 13 41.0000000  0  8G01G04G07G08G09G11G16G27             0.000100443
  22530142.203 6   -865026.664 6   -624967.90249  22530142.67249
  23405082.633 5    333622.855 5    243087.06346  23405082.21146
  22499922.891 6   -760263.035 6   -563629.07449  22499919.98049
  20677313.891 7     51649.957 7     37981.54749  20677313.00049
  23268169.930 5    119598.793 5     90023.39148  23268169.72748
  20597356.563 6   -482156.270 6   -357479.79748  20597352.56348
  22975649.953 6    120835.477 6     86618.40647  22975646.04747
  22141789.039 6    340389.875 6    257345.05149  22141787.93849
 20  5 16  3 13 42.0000000  0  8G01G04G07G08G09G11G16G27             0.000099869
  22529307.930 6   -869408.559 6   -628382.36349  22529308.56649
  23405408.844 5    335336.719 5    244422.54347  23405408.37547
  22499192.570 6   -764103.582 6   -566621.70749  22499188.89849
  20677369.859 7     51942.754 7     38209.70349  20677368.76649
  23268292.000 5    120240.449 5     90523.37948  23268291.51648
  20596898.891 6   -484560.402 6   -359353.15248  20596894.77748
  22975766.117 5    121446.633 5     87094.62947  22975762.55547
  22142123.422 6    342146.082 6    258713.52049  22142121.56649
 20  5 16  3 13 43.0000000  0  8G01G04G07G08G09G11G16G27             0.000099297
  22528474.125 6   -873790.301 6   -631796.70749  22528474.69149
  23405734.648 5    337050.582 5    245758.01247  23405734.44547
  22498461.633 6   -767943.918 6   -569614.18049  22498458.28949
  20677425.469 7     52235.777 7     38438.03149  20677424.23849
  23268414.211 5    120882.328 5     91023.54348  23268413.96148
  20596441.422 7   -486964.082 7   -361226.14548  20596437.51248
  22975882.234 5    122057.762 5     87570.84047  22975878.61747
  22142457.531 6    343902.324 6    260082.01649  22142455.83649
 20  5 16  3 13 44.0000000  0  8G01G04G07G08G09G11G16G27             0.000098722
  22527640.023 6   -878171.859 6   -635210.91049  22527640.83249
  23406060.719 4    338764.500 4    247093.52746  23406060.61746
  22497730.633 6   -771783.996 6   -572606.44549  22497727.52349
  20677481.406 7     52529.074 7     38666.57049  20677480.21949
  23268536.469 5    121524.547 5     91523.97348  23268535.57448
  20595984.242 6   -489367.215 6   -363098.71948  20595980.25448
  22975998.125 5    122668.965 5     88047.09846  22975995.32446
  22142791.711 6    345658.660 6    261450.59049  22142790.30949
 20  5 16  3 13 45.0000000  0  8G01G04G07G08G09G11G16G27             0.000098150
  22526806.227 6   -882553.121 6   -638624.87949  22526807.64549
  23406386.602 4    340478.543 4    248429.14846  23406386.87146
  22497000.453 6   -775623.727 6   -575598.44149  22496996.82849
  20677537.430 7     52822.750 7     38895.41449  20677536.35249
  23268658.852 5    122167.113 5     92024.66848  23268658.13348
  20595527.336 6   -491769.793 6   -364970.85548  20595523.07448
  22976114.250 5    123280.320 5     88523.48046  22976111.57046
  22143125.500 6    347415.113 6    262819.25449  22143124.47749
 20  5 16  3 13 46.0000000  0  8G01G04G07G08G09G11G16G27             0.000097576
  22525972.789 6   -886934.094 6   -642038.62549  22525973.51249
  23406712.984 5    342192.711 5    249764.86746  23406713.27046
  22496269.367 6   -779463.113 6   -578590.16849  22496265.94949
  20677593.594 7     53116.793 7     39124.53149  20677591.95749
  23268781.211 5    122810.105 5     92525.69948  23268780.28548
  20595070.031 7   -494171.750 7   -366842.50448  20595065.88348
  22976230.016 5    123891.777 5     88999.94546  22976228.02046
  22143460.125 6    349171.762 6    264188.07049  22143459.20749
 20  5 16  3 13 47.0000000  0  8G01G04G07G08G09G11G16G27             0.000097004
  22525139.180 6   -891314.793 6   -645452.15649  22525140.07849
  23407039.688 4    343906.969 4    251100.65246  23407039.11346
  22495538.758 6   -783302.184 6   -581581.65249  22495535.70749
  20677649.383 7     53411.203 7     39353.94149  20677648.10549
  23268903.422 5    123453.426 5     93026.98448  23268902.75048
  20594613.281 7   -496573.145 7   -368713.72348  20594609.03548
  22976347.039 6    124503.375 6     89476.51246  22976344.24246
  22143794.539 6    350928.520 6    265556.97349  22143793.16449
 20  5 16  3 13 48.0000000  0  8G01G04G07G08G09G11G16G27             0.000096430
  22524305.680 6   -895695.227 6   -648865.47349  22524306.62549
  23407365.461 4    345621.328 4    252436.52046  23407365.80946
  22494808.125 6   -787140.945 6   -584572.89549  22494805.21149
  20677705.250 7     53705.938 7     39583.60549  20677704.39849
  23269025.813 5    124097.117 5     93528.56348  23269025.16848
  20594155.938 7   -498973.992 7   -370584.51648  20594152.13748
  22976463.883 5    125115.059 5     89953.14846  22976460.79346
  22144128.633 6    352685.434 6    266925.99649  22144127.41849
 20  5 16  3 13 49.0000000  0  8G01G04G07G08G09G11G16G27             0.000095858
  22523472.086 5   -900075.297 5   -652278.50849  22523472.70749
  23407691.375 4    347335.879 4    253772.53546  23407692.14846
  22494077.516 6   -790979.285 6   -587563.80949  22494074.82449
  20677761.305 7     54001.105 7     39813.60949  20677760.46549
  23269148.672 5    124741.254 5     94030.48448  23269148.25448
  20593699.758 7   -501374.199 7   -372454.80548  20593695.44548
  22976580.141 6    125726.934 6     90429.93446  22976577.15246
  22144462.945 6    354442.563 6    268295.18449  22144461.87949
 20  5 16  3 13 50.0000000  0  8G01G04G07G08G09G11G16G27             0.000095284
  22522638.398 6   -904455.164 6   -655691.39549  22522639.78949
  23408018.391 4    349050.516 4    255108.60946  23408017.82846
  22493347.625 6   -794817.371 6   -590554.52349  22493344.34849
  20677818.008 7     54296.586 7     40043.85549  20677816.75049
  23269271.164 5    125385.711 5     94532.64848  23269270.53548
  20593242.750 7   -503773.871 7   -374324.68048  20593238.71148
  22976696.383 6    126338.906 6     90906.78546  22976693.53546
  22144797.094 6    356199.781 6    269664.44949  22144796.33649
 20  5 16  3 13 51.0000000  0  8G01G04G07G08G09G11G16G27             0.000094711
  22521805.211 6   -908834.789 6   -659104.08249  22521806.08649
  23408344.695 4    350765.199 4    256444.71146  23408344.76646
  22492617.023 6   -798655.160 6   -593545.00449  22492614.17649
  20677874.445 7     54592.410 7     40274.35949  20677872.66049
  23269393.711 5    126030.547 5     95035.12148  23269393.00848
  20592785.969 6   -506172.988 6   -376194.12148  20592782.30148
  22976813.633 6    126950.930 6     91383.68847  22976810.42647
  22145131.727 6    357957.109 6    271033.79749  22145130.63749
 20  5 16  3 13 52.0000000  0  8G01G04G07G08G09G11G16G27             0.000094137
  22520971.852 6   -913214.164 6   -662516.57849  22520972.77049
  23408670.719 4    352479.953 4    257780.86746  23408671.01646
  22491887.086 6   -802492.625 6   -596535.23049  22491883.64149
  20677930.031 7     54888.504 7     40505.07849  20677929.00849
  23269516.203 5    126675.641 5     95537.79748  23269516.04748
  20592329.875 6   -508571.605 6   -378063.17648  20592325.66848
  22976929.211 6    127563.027 6     91860.64146  22976926.19146
  22145466.430 6    359714.574 6    272403.25049  22145465.08649
 20  5 16  3 13 53.0000000  0  8G01G04G07G08G09G11G16G27             0.000093565
  22520138.805 6   -917593.352 6   -665928.93449  22520139.23449
  23408997.336 5    354194.758 5    259117.07847  23408997.04347
  22491157.180 6   -806329.887 6   -599525.30949  22491153.72349
  20677986.883 7     55184.848 7     40736.00049  20677985.43049
  23269638.898 5    127321.066 5     96040.71948  23269638.85948
  20591873.727 6   -510969.727 6   -379931.84048  20591869.66848
  22977045.852 6    128175.172 6     92337.62947  22977042.81347
  22145801.234 6    361472.059 6    273772.71549  22145799.88749
 20  5 16  3 13 54.0000000  0  8G01G04G07G08G09G11G16G27             0.000092991
  22519304.984 6   -921972.305 6   -669341.10249  22519305.91849
  23409323.102 4    355909.629 4    260453.34046  23409323.60246
  22490426.984 6   -810166.805 6   -602515.11749  22490423.45749
  20678043.070 7     55481.566 7     40967.21549  20678042.23049
  23269761.828 5    127966.816 5     96543.89548  23269762.13748
  20591417.453 6   -513367.266 6   -381800.05548  20591413.03548
  22977162.281 6    128787.457 6     92814.73846  22977159.06346
  22146135.555 6    363229.703 6    275142.30149  22146133.68849
 20  5 16  3 13 55.0000000  0  8G01G04G07G08G09G11G16G27             0.000092419
  22518471.914 6   -926351.094 6   -672753.14549  22518472.91449
  23409649.484 4    357624.477 4    261789.59046  23409649.91046
  22489696.883 6   -814003.570 6   -605504.81349  22489693.48049
  20678099.961 7     55778.461 7     41198.55949  20678098.44149
  23269884.758 5    128612.844 5     97047.29748  23269884.82048
  20590961.078 6   -515764.418 6   -383667.96148  20590957.16048
  22977279.063 5    129399.660 5     93291.78546  22977275.64546
  22146469.852 6    364987.320 6    276511.88349  22146468.44949
 20  5 16  3 13 56.0000000  0  8G01G04G07G08G09G11G16G27             0.000091845
  22517638.664 6   -930729.656 6   -676165.01249  22517639.76649
  23409975.781 4    359339.422 4    263125.91446  23409976.18046
  22488966.859 6   -817840.008 6   -608494.23849  22488963.33649
  20678156.234 7     56075.664 7     41430.15249  20678155.22749
  23270007.930 5    129259.188 5     97550.94548  23270008.16448
  20590504.805 6   -518160.973 6   -385535.40248  20590501.22748
  22977395.867 5    130011.957 5     93768.89546  22977392.59846
  22146804.570 6    366745.078 6    277881.55549  22146802.91449
 20  5 16  3 13 57.0000000  0  8G01G04G07G08G09G11G16G27             0.000091272
  22516805.938 6   -935107.980 6   -679576.69149  22516806.83649
  23410302.344 4    361054.391 4    264462.25446  23410302.61346
  22488236.789 6   -821676.199 6   -611483.48449  22488233.62549
  20678213.070 7     56373.172 7     41661.97749  20678211.59449
  23270131.273 5    129905.852 5     98054.84048  23270130.88748
  20590049.195 6   -520557.027 6   -387402.46148  20590045.39848
  22977511.836 6    130624.352 6     94246.08647  22977508.94947
  22147138.758 6    368502.922 6    279251.30149  22147137.37949
 20  5 16  3 13 58.0000000  0  8G01G04G07G08G09G11G16G27             0.000090698
  22515972.531 6   -939486.043 6   -682988.16849  22515973.17249
  23410629.008 4    362769.477 4    265798.68846  23410628.87546
  22487506.617 6   -825512.027 6   -614472.44149  22487503.64549
  20678269.492 7     56671.074 7     41894.11349  20678268.52049
  23270254.094 5    130552.883 5     98559.01648  23270254.08648
  20589593.172 7   -522952.504 7   -389269.06348  20589589.21148
  22977628.336 5    131236.867 5     94723.37147  22977625.31647
  22147473.680 6    370260.898 6    280621.15249  22147472.39549
 20  5 16  3 13 59.0000000  0  8G01G04G07G08G09G11G16G27             0.000090126
  22515139.148 6   -943863.832 6   -686399.43049  22515140.02749
  23410955.242 4    364484.723 4    267135.24646  23410955.12546
  22486776.719 6   -829347.535 6   -617461.14849  22486773.74649
  20678326.500 7     56969.348 7     42126.53149  20678325.22349
  23270377.250 5    131200.270 5     99063.46948  23270377.09048
  20589137.727 7   -525347.398 7   -391135.21148  20589133.52748
  22977745.297 5    131849.496 5     95200.74247  22977742.10547
  22147808.016 6    372019.043 6    281991.13749  22147806.46149
 20  5 16  3 14  0.0000000  0  8G01G04G07G08G09G11G16G27             0.000089552
  22514306.594 6   -948241.418 6   -689810.53149  22514307.45749
  23411281.266 5    366199.926 5    268471.75046  23411281.73046
  22486046.898 6   -833182.809 6   -620449.67249  22486043.67249
  20678383.008 7     57267.844 7     42359.11349  20678381.92249
  23270500.750 5    131848.004 5     99568.18848  23270500.45748
  20588681.953 6   -527741.836 6   -393001.01248  20588677.88748
  22977861.453 5    132462.113 5     95678.10246  22977858.60946
  22148142.773 6    373777.219 6    283361.15249  22148140.83249
 20  5 16  3 14  1.0000000  0  8G01G04G07G08G09G11G16G27             0.000088980
  22513474.055 6   -952618.645 6   -693221.35249  22513474.19949
  23411608.180 5    367915.352 5    269808.43446  23411608.37146
  22485317.000 6   -837017.676 6   -623437.88349  22485314.10949
  20678439.992 7     57566.777 7     42592.04749  20678438.91049
  23270623.891 5    132496.121 5    100073.20748  23270623.69948
  20588226.375 6   -530135.598 6   -394866.28148  20588222.44548
  22977978.234 5    133074.965 5     96155.65246  22977975.36746
  22148477.242 6    375535.629 6    284731.33649  22148475.72749
 20  5 16  3 14  2.0000000  0  8G01G04G07G08G09G11G16G27             0.000088408
  22512640.531 6   -956995.680 6   -696632.03149  22512641.56349
  23411934.789 5    369630.820 5    271145.16046  23411934.62146
  22484587.477 6   -840852.293 6   -626425.89149  22484584.18449
  20678496.742 6     57866.004 6     42825.21949  20678495.58249
  23270747.391 5    133144.559 5    100578.48448  23270747.13748
  20587771.063 7   -532528.852 7   -396731.16048  20587766.85948
  22978095.359 6    133687.871 6     96633.24246  22978091.96546
  22148811.727 6    377294.113 6    286101.58649  22148810.24249
 20  5 16  3 14  3.0000000  0  8G01G04G07G08G09G11G16G27             0.000087833
  22511807.828 6   -961372.488 6   -700042.53149  22511808.04349
  23412261.164 4    371346.309 4    272481.89846  23412260.80946
  22483857.648 6   -844686.676 6   -629413.71949  22483854.73849
  20678553.453 7     58165.516 7     43058.60249  20678552.57049
  23270871.508 5    133793.270 5    101083.97748  23270870.70748
  20587315.617 6   -534921.617 6   -398595.64848  20587311.80548
  22978211.867 6    134300.805 6     97110.85246  22978208.87946
  22149146.695 6    379052.656 6    287471.87949  22149145.14549
 20  5 16  3 14  4.0000000  0  8G01G04G07G08G09G11G16G27             0.000087261
  22510974.867 6   -965749.137 6   -703452.91049  22510975.48449
  23412587.484 5    373061.797 5    273818.65646  23412587.59446
  22483128.156 6   -848520.770 6   -632401.33249  22483124.74649
  20678611.070 7     58465.281 7     43292.18849  20678609.74649
  23270995.188 5    134442.262 5    101589.68848  23270994.01648
  20586860.430 6   -537313.895 6   -400459.76248  20586856.38348
  22978328.617 5    134913.746 5     97588.46946  22978325.25446
  22149481.375 6    380811.250 6    288842.20749  22149479.42249
 20  5 16  3 14  5.0000000  0  8G01G04G07G08G09G11G16G27             0.000086687
  22510142.406 6   -970125.664 6   -706863.18849  22510142.46149
  23412914.102 4    374777.223 4    275155.34846  23412914.03146
  22482398.516 6   -852354.727 6   -635388.83649  22482395.27049
  20678668.047 7     58765.262 7     43525.94149  20678666.88349
  23271117.922 5    135091.500 5    102095.58248  23271117.50848
  20586405.266 6   -539705.750 6   -402323.54348  20586401.34048
  22978444.555 5    135526.656 5     98066.05546  22978441.51646
  22149815.656 6    382569.836 6    290212.53949  22149814.14149
 20  5 16  3 14  6.0000000  0  8G01G04G07G08G09G11G16G27             0.000086113
  22509309.297 6   -974501.750 6   -710273.12149  22509309.79749
  23413240.164 5    376493.000 5    276492.31646  23413240.61746
  22481669.453 6   -856188.160 6   -638375.92649  22481666.14549
  20678725.188 7     59065.781 7     43760.10549  20678724.17649
  23271241.125 5    135741.266 5    102601.89148  23271241.08648
  20585950.148 6   -542096.844 6   -404186.73048  20585946.18848
  22978561.977 6    136139.918 6     98543.91846  22978558.80946
  22150150.367 6    384328.770 6    291583.13349  22150149.01249
 20  5 16  3 14  7.0000000  0  8G01G04G07G08G09G11G16G27             0.000085541
  22508476.430 6   -978877.621 6   -713682.89149  22508477.12549
  23413566.594 4    378208.754 4    277829.26246  23413567.13346
  22480939.781 6   -860021.355 6   -641362.83249  22480936.27049
  20678782.586 7     59366.543 7     43994.46949  20678781.14549
  23271365.328 5    136391.324 5    103108.42248  23271364.64548
  20585495.313 6   -544487.477 6   -406049.56348  20585491.50448
  22978678.813 6    136753.164 6     99021.77047  22978674.94547
  22150485.195 6    386087.715 6    292953.73849  22150483.50449
 20  5 16  3 14  8.0000000  0  8G01G04G07G08G09G11G16G27             0.000084969
  22507643.758 6   -983253.227 6   -717092.45349  22507645.06349
  23413893.008 4    379924.633 4    279166.30546  23413893.56646
  22480210.664 6   -863854.254 6   -644349.51649  22480207.18049
  20678839.820 7     59667.656 7     44229.09449  20678839.03149
  23271489.242 5    137041.766 5    103615.25448  23271488.83248
  20585040.367 6   -546877.504 6   -407911.92248  20585036.63348
  22978794.969 6    137366.523 6     99499.70746  22978791.98446
  22150819.391 6    387846.824 6    294324.47349  22150818.76249
 20  5 16  3 14  9.0000000  0  8G01G04G07G08G09G11G16G27             0.000084394
  22506811.328 6   -987628.676 6   -720501.89549  22506812.41049
  23414220.313 4    381640.488 4    280503.33246  23414220.19946
  22479481.141 6   -867686.895 6   -647335.98448  22479477.96148
  20678897.250 7     59969.008 7     44463.90649  20678896.04349
  23271613.133 5    137692.461 5    104122.28948  23271612.77348
  20584585.797 6   -549267.070 6   -409773.91848  20584581.54748
  22978912.477 6    137979.898 6     99977.65646  22978908.68846
  22151154.469 6    389605.957 6    295695.22349  22151152.95349
 20  5 16  3 14 10.0000000  0  8G01G04G07G08G09G11G16G27             0.000083820
  22505978.758 6   -992003.930 6   -723911.18049  22505979.63349
  23414546.930 5    383356.391 5    281840.39146  23414546.30946
  22478751.891 6   -871519.293 6   -650322.26648  22478748.46548
  20678954.789 7     60270.613 7     44698.91849  20678953.65249
  23271737.141 5    138343.395 5    104629.50848  23271736.42248
  20584131.273 6   -551656.145 6   -411635.53548  20584126.88348
  22979028.992 6    138593.316 6    100455.64146  22979025.57846
  22151489.242 6    391365.180 6    297066.04349  22151487.77749
 20  5 16  3 14 11.0000000  0  8G01G04G07G08G09G11G16G27             0.000083248
  22505146.359 6   -996378.891 6   -727320.23849  22505147.16849
  23414872.977 4    385072.348 4    283177.49646  23414872.93846
  22478022.438 6   -875351.406 6   -653308.32848  22478019.38748
  20679011.883 7     60572.547 7     44934.19149  20679010.84449
  23271861.008 5    138994.676 5    105137.00448  23271860.49248
  20583676.953 6   -554044.707 6   -413496.75448  20583672.73448
  22979145.031 6    139206.785 6    100933.67247  22979142.28547
  22151823.813 6    393124.480 6    298436.92649  22151822.87149
 20  5 16  3 14 12.0000000  0  8G01G04G07G08G09G11G16G27             0.000082676
  22504313.070 6  -1000753.492 6   -730729.01649  22504314.51249
  23415199.617 5    386788.543 5    284514.78146  23415199.21546
  22477293.117 6   -879183.063 6   -656294.03148  22477290.42648
  20679069.828 7     60874.973 7     45169.85249  20679068.40249
  23271984.844 5    139646.484 5    105644.90248  23271984.63748
  20583222.336 6   -556432.516 6   -415357.37948  20583218.16048
  22979262.008 6    139820.574 6    101411.94946  22979258.89546
  22152158.906 6    394884.074 6    299808.03949  22152157.91049
 20  5 16  3 14 13.0000000  0  8G01G04G07G08G09G11G16G27             0.000082102
  22503481.258 6  -1005127.813 6   -734137.57449  22503481.60249
  23415525.953 5    388504.875 5    285852.18847  23415526.35247
  22476564.188 6   -883014.406 6   -659279.49248  22476560.96548
  20679127.164 7     61177.715 7     45405.75849  20679126.26649
  23272109.008 5    140298.645 5    106153.08248  23272108.20348
  20582767.914 6   -558819.801 6   -417217.60548  20582763.80548
  22979379.328 6    140434.422 6    101890.27047  22979375.80547
  22152493.813 6    396643.809 6    301179.26649  22152492.11349
 20  5 16  3 14 14.0000000  0  8G01G04G07G08G09G11G16G27             0.000081530
  22502648.992 6  -1009501.918 6   -737545.96549  22502650.01649
  23415852.953 4    390221.199 4    287189.58246  23415852.90646
  22475835.531 6   -886845.449 6   -662264.71548  22475831.70348
  20679184.664 7     61480.742 7     45641.88749  20679183.64849
  23272233.461 5    140951.117 5    106661.49648  23272232.86348
  20582313.758 6   -561206.559 6   -419077.41448  20582309.49648
  22979495.375 6    141048.313 6    102368.62946  22979492.66846
  22152828.625 6    398403.582 6    302550.51249  22152827.28949
 20  5 16  3 14 15.0000000  0  8G01G04G07G08G09G11G16G27             0.000080956
  22501816.625 6  -1013875.738 6   -740954.13749  22501817.53149
  23416179.172 4    391937.664 4    288527.07046  23416179.52746
  22475106.570 5   -890676.078 5   -665249.62948  22475102.71148
  20679242.500 7     61784.145 7     45878.30149  20679241.73449
  23272357.633 5    141603.965 5    107170.21548  23272357.33248
  20581860.016 6   -563592.730 6   -420936.76648  20581855.66048
  22979612.711 6    141662.355 6    102847.10546  22979609.45746
  22153163.516 6    400163.531 6    303921.90649  22153162.08249
 20  5 16  3 14 16.0000000  0  8G01G04G07G08G09G11G16G27             0.000080383
  22500984.633 6  -1018249.414 6   -744362.18849  22500985.23849
  23416505.711 5    393654.098 5    289864.55947  23416506.60947
  22474376.633 5   -894506.566 5   -668234.41848  22474374.25448
  20679300.305 6     62087.754 6     46114.88349  20679298.94949
  23272481.203 4    142257.031 4    107679.08648  23272481.17648
  20581405.805 6   -565978.473 6   -422795.79348  20581401.87548
  22979729.195 6    142276.363 6    103325.55147  22979726.35247
  22153498.680 6    401923.492 6    305293.31349  22153497.01249
 20  5 16  3 14 17.0000000  0  8G01G04G07G08G09G11G16G27             0.000079809
  22500152.109 6  -1022622.801 6   -747770.02349  22500153.26249
  23416832.281 5    395370.664 5    291202.12947  23416833.09047
  22473648.039 5   -898336.805 5   -671219.02748  22473645.30948
  20679358.367 6     62391.715 6     46351.75849  20679356.88749
  23272605.492 5    142910.449 5    108188.22748  23272605.59448
  20580951.680 6   -568363.629 6   -424654.36348  20580947.82448
  22979846.289 6    142890.469 6    103804.06647  22979843.18847
  22153833.531 6    403683.609 6    306664.83649  22153831.90649
 20  5 16  3 14 18.0000000  0  8G01G04G07G08G09G11G16G27             0.000079237
  22499320.055 6  -1026995.879 6   -751177.61749  22499320.94549
  23417158.953 4    397087.316 4    292539.78147  23417159.84047
  22472920.313 6   -902166.703 6   -674203.35948  22472916.55948
  20679416.000 7     62696.098 7     46588.93049  20679415.20349
  23272730.742 5    143564.355 5    108697.77048  23272730.16448
  20580497.859 6   -570748.152 6   -426512.42648  20580494.13748
  22979963.133 6    143504.758 6    104282.73846  22979959.92246
  22154168.430 6    405443.926 6    308036.50449  22154167.03549
 20  5 16  3 14 19.0000000  0  8G01G04G07G08G09G11G16G27             0.000078665
  22498487.570 6  -1031368.887 6   -754585.15249  22498488.72349
  23417486.250 5    398803.926 5    293877.40646  23417486.16046
  22472190.953 6   -905996.371 6   -677187.52048  22472187.37948
  20679473.734 7     63000.602 7     46826.19149  20679473.23049
  23272854.836 5    144218.313 5    109207.36348  23272854.23848
  20580044.008 6   -573132.355 6   -428370.24648  20580040.34048
  22980080.195 6    144118.969 6    104761.34847  22980076.98447
  22154503.367 6    407204.109 6    309408.06649  22154501.78949
 20  5 16  3 14 20.0000000  0  8G01G04G07G08G09G11G16G27             0.000078091
  22497655.891 6  -1035741.633 6   -757992.48849  22497656.43049
  23417812.664 5    400520.566 5    295215.04746  23417813.17646
  22471461.914 5   -909825.758 5   -680171.45748  22471458.90248
  20679531.742 6     63305.449 6     47063.73849  20679530.84849
  23272978.797 5    144872.656 5    109717.23448  23272978.77348
  20579590.555 6   -575515.992 6   -430227.63348  20579586.83248
  22980197.500 6    144733.258 6    105240.01246  22980194.52746
  22154838.336 6    408964.438 6    310779.75049  22154837.12549
 20  5 16  3 14 21.0000000  0  8G01G04G07G08G09G11G16G27             0.000077517
  22496823.563 6  -1040114.109 6   -761399.60949  22496824.64549
  23418139.656 4    402237.383 4    296552.81647  23418139.61347
  22470734.102 5   -913654.816 5   -683155.14148  22470730.71548
  20679590.008 6     63610.660 6     47301.56649  20679589.05549
  23273104.531 5    145527.402 5    110227.42248  23273103.66848
  20579137.344 6   -577899.016 6   -432084.54348  20579133.52048
  22980313.992 6    145347.695 6    105718.78546  22980311.02746
  22155173.742 6    410724.945 6    312151.57449  22155171.68049
 20  5 16  3 14 22.0000000  0  8G01G04G07G08G09G11G16G27             0.000076944
  22495991.602 6  -1044486.379 6   -764806.56349  22495992.40649
  23418466.352 4    403954.199 4    297890.60546  23418466.15246
  22470005.484 5   -917483.660 5   -686138.65248  22470002.02748
  20679648.172 6     63916.145 6     47539.60549  20679647.22349
  23273228.930 5    146182.406 5    110737.82048  23273228.03948
  20578683.969 6   -580281.563 6   -433941.06348  20578679.85948
  22980430.828 6    145962.188 6    106197.60946  22980427.96146
  22155508.484 6    412485.496 6    313523.43449  22155506.73449
 20  5 16  3 14 23.0000000  0  8G01G04G07G08G09G11G16G27             0.000076372
  22495159.609 6  -1048858.469 6   -768213.39149  22495160.54749
  23418792.945 5    405671.032 5    299228.38947  23418793.35247
  22469276.539 5   -921312.230 5   -689121.94548  22469273.14548
  20679706.117 6     64221.863 6     47777.83649  20679705.75049
  23273352.172 5    146837.711 5    111248.43848  23273352.75048
  20578230.453 6   -582663.656 6   -435797.23448  20578226.62948
  22980547.359 6    146576.617 6    106676.37946  22980545.07446
  22155843.461 6    414246.051 6    314895.28549  22155842.25049
 20  5 16  3 14 24.0000000  0  8G01G04G07G08G09G11G16G27             0.000075798
  22494327.383 6  -1053230.301 6   -771620.02049  22494328.65249
  23419119.773 5    407387.930 5    300566.21547  23419119.75447
  22468547.609 5   -925140.474 5   -692104.99548  22468544.48448
  20679764.719 6     64527.934 6     48016.34049  20679763.69549
  23273477.266 5    147493.367 5    111759.32448  23273477.31348
  20577777.609 7   -585045.141 7   -437652.93848  20577773.46948
  22980664.586 6    147191.234 6    107155.29346  22980661.89146
  22156178.375 6    416006.785 6    316267.27349  22156177.09449
 20  5 16  3 14 25.0000000  0  8G01G04G07G08G09G11G16G27             0.000075226
  22493496.117 6  -1057601.801 6   -775026.39549  22493496.43849
  23419445.852 5    409104.984 5    301904.16447  23419447.03547
  22467819.617 5   -928968.367 5   -695087.77348  22467816.41048
  20679823.117 6     64834.387 6     48255.14549  20679822.33649
  23273602.305 4    148149.410 4    112270.52048  23273602.56348
  20577324.531 7   -587426.035 7   -439508.18048  20577320.54748
  22980781.609 6    147806.012 6    107634.33647  22980779.00047
  22156513.719 6    417767.707 6    317639.41849  22156511.92249
 20  5 16  3 14 26.0000000  0  8G01G04G07G08G09G11G16G27             0.000074652
  22492663.906 6  -1061973.125 6   -778432.61749  22492664.91049
  23419772.766 4    410822.039 4    303242.13747  23419773.65647
  22467091.297 6   -932796.133 6   -698070.44948  22467087.74248
  20679881.320 6     65141.074 6     48494.11349  20679880.26649
  23273727.609 5    148805.758 5    112781.96148  23273727.34048
  20576871.430 7   -589806.414 7   -441363.02348  20576867.43848
  22980898.477 5    148420.727 5    108113.34446  22980895.58246
  22156848.734 6    419528.688 6    319011.61749  22156847.27349
 20  5 16  3 14 27.0000000  0  8G01G04G07G08G09G11G16G27             0.000074078
  22491832.555 6  -1066344.297 6   -781838.71149  22491833.11349
  23420099.563 4    412539.125 4    304580.14547  23420100.39547
  22466362.672 6   -936623.605 6   -701052.89848  22466359.26248
  20679939.484 7     65448.012 7     48733.27049  20679938.84849
  23273853.203 5    149462.340 5    113293.59848  23273852.65648
  20576418.516 6   -592186.348 6   -443217.51248  20576414.65248
  22981015.977 5    149035.527 5    108592.42246  22981012.84446
  22157184.141 6    421289.688 6    320383.84049  22157182.36349
 20  5 16  3 14 28.0000000  0  8G01G04G07G08G09G11G16G27             0.000073505
  22491000.289 6  -1070715.305 6   -785244.68849  22491001.70749
  23420426.750 5    414256.141 5    305918.07846  23420426.94546
  22465634.898 6   -940450.852 6   -704035.15649  22465630.82049
  20679998.117 7     65755.168 7     48972.60249  20679996.95349
  23273977.484 5    150119.156 5    113805.41448  23273977.57448
  20575965.523 7   -594565.863 7   -445071.68048  20575961.96548
  22981132.813 6    149650.309 6    109071.48046  22981129.93446
  22157519.289 6    423050.664 6    321756.03149  22157517.34049
 20  5 16  3 14 29.0000000  0  8G01G04G07G08G09G11G16G27             0.000072931
  22490168.484 6  -1075085.984 6   -788650.41049  22490169.24249
  23420753.383 4    415973.313 4    307256.12946  23420753.60946
  22464906.727 6   -944277.719 6   -707017.13349  22464902.43449
  20680056.250 7     66062.707 7     49212.24249  20680055.93449
  23274102.688 5    150776.371 5    114317.53148  23274102.78548
  20575512.719 7   -596944.730 7   -446925.34848  20575509.07848
  22981249.500 6    150265.242 6    109550.65246  22981246.67246
  22157854.203 6    424811.836 6    323128.37149  22157852.62949
 20  5 16  3 14 30.0000000  0  8G01G04G07G08G09G11G16G27             0.000072359
  22489337.164 6  -1079456.484 6   -792055.99249  22489338.15249
  23421080.563 5    417690.566 5    308594.24246  23421080.64546
  22464178.023 6   -948104.379 6   -709998.93849  22464174.45349
  20680115.281 7     66370.531 7     49452.10549  20680114.23849
  23274227.945 5    151433.879 5    114829.87148  23274227.50848
  20575060.875 6   -599323.121 6   -448778.63748  20575056.53148
  22981366.930 6    150880.234 6    110029.86746  22981363.48446
  22158189.430 6    426573.066 6    324500.75849  22158187.80549
 20  5 16  3 14 31.0000000  0  8G01G04G07G08G09G11G16G27             0.000071785
  22488505.047 6  -1083826.660 6   -795461.31349  22488506.46149
  23421407.570 5    419407.902 5    309932.42247  23421407.12947
  22463450.266 6   -951930.637 6   -712980.42649  22463446.39149
  20680173.938 7     66678.738 7     49692.27349  20680172.78549
  23274353.227 5    152091.823 5    115342.54448  23274352.86748
  20574607.742 6   -601700.918 6   -450631.46548  20574604.17248
  22981484.031 6    151495.313 6    110509.14146  22981480.79746
  22158524.477 6    428334.477 6    325873.27749  22158523.07449
 20  5 16  3 14 32.0000000  0  8G01G04G07G08G09G11G16G27             0.000071213
  22487673.969 6  -1088196.438 6   -798866.33649  22487674.91049
  23421733.430 5    421125.453 5    311270.75846  23421734.01646
  22462722.156 6   -955756.445 6   -715961.57049  22462718.42649
  20680232.930 7     66987.445 7     49932.82049  20680231.36749
  23274478.289 5    152750.188 5    115855.55148  23274478.28548
  20574155.539 6   -604078.012 6   -452483.74648  20574151.63748
  22981600.969 6    152110.684 6    110988.65246  22981598.20346
  22158859.742 6    430096.125 6    327245.98849  22158858.13349
 20  5 16  3 14 33.0000000  0  8G01G04G07G08G09G11G16G27             0.000070639
  22486842.375 6  -1092566.070 6   -802271.24649  22486843.43849
  23422060.250 5    422843.012 5    312609.11346  23422060.78146
  22461994.172 6   -959582.070 6   -718942.57049  22461990.27749
  20680291.477 7     67296.352 7     50173.53149  20680290.26249
  23274603.117 5    153408.820 5    116368.77048  23274603.40248
  20573703.172 6   -606454.660 6   -454335.67248  20573699.38348
  22981718.406 6    152726.039 6    111468.14846  22981715.00846
  22159194.945 6    431857.832 6    328618.75049  22159193.27049
 20  5 16  3 14 34.0000000  0  8G01G04G07G08G09G11G16G27             0.000070066
  22486010.680 6  -1096935.445 6   -805675.95749  22486011.71949
  23422387.180 5    424560.625 5    313947.50846  23422387.90246
  22461266.109 6   -963407.395 6   -721923.35249  22461262.37149
  20680350.047 6     67605.555 6     50414.46949  20680349.34049
  23274728.852 5    154067.781 5    116882.25048  23274728.68048
  20573251.117 6   -608830.770 6   -456187.18848  20573247.28148
  22981835.500 6    153341.453 6    111947.68847  22981831.86747
  22159529.953 6    433619.605 6    329991.55949  22159528.77049
 20  5 16  3 14 35.0000000  0  8G01G04G07G08G09G11G16G27             0.000069492
  22485179.438 6  -1101304.539 6   -809080.44549  22485180.23849
  23422714.250 5    426278.359 5    315286.00846  23422714.61746
  22460537.773 6   -967232.348 6   -724903.83249  22460534.68049
  20680409.102 6     67915.133 6     50655.69949  20680408.32849
  23274854.398 5    154727.117 5    117396.02048  23274854.24248
  20572799.109 6   -611206.277 6   -458038.23448  20572795.16448
  22981952.188 6    153957.008 6    112427.34046  22981949.01646
  22159865.625 6    435381.531 6    331364.48849  22159863.66449
 20  5 16  3 14 36.0000000  0  8G01G04G07G08G09G11G16G27             0.000068920
  22484347.969 6  -1105673.469 6   -812484.80149  22484349.19949
  23423041.547 5    427996.090 5    316624.50446  23423041.78546
  22459809.953 6   -971057.105 6   -727884.16449  22459806.61349
  20680468.086 7     68224.918 7     50897.09049  20680467.28949
  23274980.359 5    155386.688 5    117909.96948  23274979.75848
  20572347.023 6   -613581.336 6   -459888.93048  20572342.95748
  22982069.500 6    154572.586 6    112907.01647  22982066.03547
  22160200.758 6    437143.512 6    332737.46149  22160199.08649
 20  5 16  3 14 37.0000000  0  8G01G04G07G08G09G11G16G27             0.000068346
  22483516.344 6  -1110042.160 6   -815888.97749  22483517.66449
  23423367.859 5    429713.852 5    317963.02346  23423368.21146
  22459082.430 6   -974881.566 6   -730864.26249  22459078.98449
  20680526.820 7     68535.031 7     51138.73449  20680526.16449
  23275105.852 5    156046.629 5    118424.20748  23275105.41048
  20571895.328 6   -615955.883 6   -461739.22348  20571891.21948
  22982186.672 6    155188.234 6    113386.74246  22982183.48846
  22160535.641 6    438905.586 6    334110.50049  22160534.54749
 20  5 16  3 14 38.0000000  0  8G01G04G07G08G09G11G16G27             0.000067774
  22482685.234 6  -1114410.645 6   -819292.98849  22482686.59849
  23423695.414 4    431431.672 4    319301.57846  23423695.08646
  22458354.938 6   -978705.789 6   -733844.18049  22458351.35949
  20680586.094 7     68845.414 7     51380.58649  20680585.42249
  23275231.422 5    156706.820 5    118938.64148  23275231.19548
  20571443.609 6   -618329.895 6   -463589.10548  20571439.69548
  22982304.039 6    155803.902 6    113866.47746  22982300.49646
  22160871.578 6    440667.699 6    335483.57849  22160869.53949
 20  5 16  3 14 39.0000000  0  8G01G04G07G08G09G11G16G27             0.000067200
  22481853.906 6  -1118778.895 6   -822696.81649  22481854.92249
  23424021.805 4    433149.523 4    320640.16046  23424022.10246
  22457626.789 6   -982529.719 6   -736823.86349  22457623.46149
  20680645.164 7     69156.078 7     51622.66049  20680644.48049
  23275357.250 5    157367.324 5    119453.31648  23275356.76248
  20570991.977 6   -620703.398 6   -465438.58648  20570988.05148
  22982420.703 6    156419.641 6    114346.26247  22982417.93847
  22161207.219 6    442429.895 6    336856.71549  22161205.39549
 20  5 16  3 14 40.0000000  0  8G01G04G07G08G09G11G16G27             0.000066628
  22481023.016 6  -1123146.941 6   -826100.48849  22481024.35249
  23424349.211 5    434867.422 5    321978.77747  23424348.69147
  22456899.078 6   -986353.355 6   -739803.32449  22456895.64149
  20680704.477 7     69467.027 7     51864.96149  20680703.67649
  23275483.016 5    158028.121 5    119968.21148  23275482.42648
  20570540.547 6   -623076.395 6   -467287.67648  20570536.58248
  22982537.867 6    157035.465 6    114826.12946  22982534.85946
  22161542.516 6    444192.207 6    338229.94549  22161540.39549
 20  5 16  3 14 41.0000000  0  8G01G04G07G08G09G11G16G27             0.000066053
  22480191.813 6  -1127514.695 6   -829503.92649  22480192.86349
  23424675.328 5    436585.426 5    323317.47746  23424675.91046
  22456171.766 6   -990176.715 6   -742782.55949  22456168.19949
  20680763.633 7     69778.355 7     52107.55949  20680762.77349
  23275608.047 5    158689.340 5    120483.44548  23275607.77748
  20570088.602 6   -625448.785 6   -469136.29348  20570084.94548
  22982654.984 6    157651.363 6    115306.05547  22982652.05147
  22161877.539 6    445954.641 6    339603.27349  22161875.68049
 20  5 16  3 14 42.0000000  0  8G01G04G07G08G09G11G16G27             0.000065481
  22479360.469 6  -1131882.254 6   -832907.22349  22479361.80549
  23425002.945 5    438303.484 5    324656.20746  23425002.55146
  22455444.398 6   -993999.781 6   -745761.57049  22455441.01249
  20680823.102 7     70089.930 7     52350.34049  20680822.09049
  23275734.484 5    159350.820 5    120998.87948  23275734.11748
  20569637.352 6   -627820.703 6   -470984.54348  20569633.35948
  22982771.992 6    158267.336 6    115786.02747  22982769.23047
  22162212.891 6    447717.133 6    340976.63749  22162211.37949
 20  5 16  3 14 43.0000000  0  8G01G04G07G08G09G11G16G27             0.000064907
  22478529.641 6  -1136249.570 6   -836310.32449  22478530.34849
  23425329.500 5    440021.551 5    325994.96546  23425329.93846
  22454716.914 6   -997822.570 6   -748740.37149  22454713.58249
  20680882.148 6     70401.816 6     52593.36749  20680881.29749
  23275860.875 5    160012.617 5    121514.56648  23275860.30948
  20569186.188 6   -630192.105 6   -472832.38748  20569182.30548
  22982889.258 6    158883.383 6    116266.06346  22982886.58646
  22162548.727 6    449479.730 6    342350.09049  22162546.94949
 20  5 16  3 14 44.0000000  0  8G01G04G07G08G09G11G16G27             0.000064335
  22477698.672 6  -1140616.621 6   -839713.21549  22477699.75849
  23425657.328 5    441739.734 5    327333.82047  23425656.81647
  22453989.555 6  -1001645.008 6   -751718.89149  22453985.87549
  20680941.625 7     70714.055 7     52836.66849  20680940.89849
  23275986.336 5    160674.781 5    122030.53948  23275986.22348
  20568735.281 6   -632562.902 6   -474679.75848  20568731.19948
  22983006.805 6    159499.543 6    116746.18446  22983004.07846
  22162883.563 6    451242.457 6    343723.64849  22162881.91049
 20  5 16  3 14 45.0000000  0  8G01G04G07G08G09G11G16G27             0.000063761
  22476867.391 6  -1144983.430 6   -843115.91849  22476868.35949
  23425983.742 5    443458.035 5    328672.75847  23425984.05547
  22453262.180 6  -1005467.180 6   -754697.20349  22453258.57449
  20681001.070 7     71026.590 7     53080.20349  20681000.10249
  23276112.969 5    161337.232 5    122546.73448  23276111.89548
  20568283.969 6   -634933.160 6   -476526.71548  20568280.14848
  22983124.383 6    160115.789 6    117226.37546  22983121.20346
  22163218.828 6    453005.309 6    345097.29349  22163217.25849
 20  5 16  3 14 46.0000000  0  8G01G04G07G08G09G11G16G27             0.000063189
  22476036.500 6  -1149349.973 6   -846518.42249  22476037.52049
  23426310.531 5    445176.352 5    330011.68846  23426311.01246
  22452534.734 6  -1009289.051 6   -757675.27749  22452531.52349
  20681060.828 7     71339.430 7     53323.97749  20681060.15249
  23276238.648 5    162000.047 5    123063.21148  23276238.09048
  20567833.383 6   -637302.898 6   -478373.25848  20567829.46948
  22983241.734 6    160732.086 6    117706.60947  22983238.77047
  22163554.477 6    454768.246 6    346471.01649  22163553.08649
 20  5 16  3 14 47.0000000  0  8G01G04G07G08G09G11G16G27             0.000062614
  22475205.828 6  -1153716.281 6   -849920.73849  22475206.85949
  23426637.203 5    446894.773 5    331350.71546  23426637.87546
  22451807.313 6  -1013110.613 6   -760653.12149  22451804.00449
  20681120.359 7     71652.605 7     53568.01249  20681119.45749
  23276364.727 5    162663.230 5    123579.97748  23276364.38348
  20567382.008 6   -639672.082 6   -480219.37948  20567378.23048
  22983358.484 6    161348.519 6    118186.95146  22983355.85546
  22163890.383 6    456531.270 6    347844.79749  22163888.48449
 20  5 16  3 14 48.0000000  0  8G01G04G07G08G09G11G16G27             0.000062042
  22474374.492 6  -1158082.313 6   -853322.84449  22474375.77049
  23426964.430 5    448613.234 5    332689.76246  23426964.77746
  22451080.484 6  -1016931.855 6   -763630.71549  22451076.87949
  20681179.938 7     71966.133 7     53812.31349  20681179.00849
  23276490.844 5    163326.734 5    124096.99248  23276490.99648
  20566931.406 6   -642040.703 6   -482065.06348  20566927.65248
  22983476.117 6    161965.063 6    118667.37147  22983473.24647
  22164225.664 6    458294.453 6    349218.70349  22164223.93049
 20  5 16  3 14 49.0000000  0  8G01G04G07G08G09G11G16G27             0.000061468
  22473544.055 6  -1162448.059 6   -856724.71549  22473545.11349
  23427290.969 4    450331.832 4    334028.92646  23427291.69146
  22450353.086 6  -1020752.781 6   -766608.05949  22450350.12549
  20681239.445 6     72279.977 6     54056.87149  20681238.78149
  23276617.148 5    163990.559 5    124614.25848  23276616.86748
  20566480.859 6   -644408.777 6   -483910.31348  20566476.80148
  22983593.461 6    162581.680 6    119147.84847  22983590.48847
  22164561.320 6    460057.750 6    350592.70349  22164559.71149
 20  5 16  3 14 50.0000000  0  8G01G04G07G08G09G11G16G27             0.000060894
  22472713.086 6  -1166813.555 6   -860126.40249  22472714.30949
  23427617.789 4    452050.527 4    335368.16446  23427619.17646
  22449626.016 6  -1024573.395 6   -769585.16449  22449622.37149
  20681299.633 6     72594.195 6     54301.71149  20681298.58249
  23276743.352 5    164654.797 5    125131.84448  23276743.27048
  20566030.328 6   -646776.238 6   -485755.09048  20566026.35948
  22983710.867 6    163198.465 6    119628.46146  22983707.45346
  22164896.938 6    461821.203 6    351966.81649  22164895.35949
 20  5 16  3 14 51.0000000  0  8G01G04G07G08G09G11G16G27             0.000060322
  22471882.617 6  -1171178.805 6   -863527.89549  22471883.41849
  23427945.984 5    453769.273 5    336707.44546  23427945.55946
  22448899.352 6  -1028393.672 6   -772561.99649  22448895.75849
  20681359.344 7     72908.707 7     54546.78149  20681358.63749
  23276870.125 5    165319.359 5    125649.68048  23276869.51648
  20565580.234 6   -649143.176 6   -487599.45348  20565576.09848
  22983828.086 6    163815.301 6    120109.11346  22983825.22746
  22165232.461 6    463584.762 6    353341.02349  22165230.87949
 20  5 16  3 14 52.0000000  0  8G01G04G07G08G09G11G16G27             0.000059748
  22471051.969 6  -1175543.773 6   -866929.16849  22471052.77749
  23428272.688 4    455488.125 4    338046.80146  23428273.07046
  22448172.797 6  -1032213.672 6   -775538.62149  22448168.76249
  20681419.336 7     73223.508 7     54792.08249  20681418.60249
  23276997.219 5    165984.258 5    126167.78548  23276996.37548
  20565129.500 6   -651509.563 6   -489443.39148  20565125.71548
  22983945.648 6    164432.215 6    120589.81647  22983942.93847
  22165568.031 6    465348.402 6    354715.28949  22165566.10949
 20  5 16  3 14 53.0000000  0  8G01G04G07G08G09G11G16G27             0.000059175
  22470221.789 6  -1179908.613 6   -870330.33249  22470221.86349
  23428599.836 4    457206.930 4    339386.12947  23428599.83247
  22447445.664 6  -1036033.484 6   -778515.10249  22447441.87149
  20681479.023 7     73538.574 7     55037.58649  20681478.47349
  23277123.563 5    166649.363 5    126686.04348  23277123.16848
  20564679.250 6   -653875.488 6   -491286.97348  20564675.70748
  22984063.133 6    165049.168 6    121070.55547  22984060.04347
  22165903.617 6    467112.074 6    356089.57449  22165902.05549
 20  5 16  3 14 54.0000000  0  8G01G04G07G08G09G11G16G27             0.000058601
  22469391.359 6  -1184273.367 6   -873731.44149  22469391.48449
  23428927.742 5    458925.609 5    340725.35246  23428926.76246
  22446718.648 6  -1039853.160 6   -781491.46949  22446715.28149
  20681539.195 7     73853.734 7     55283.16849  20681538.12949
  23277249.555 5    167314.625 5    127204.42648  23277249.61348
  20564229.070 6   -656241.082 6   -493130.28548  20564225.47748
  22984180.289 6    165665.961 6    121551.17247  22984177.78147
  22166239.547 6    468875.648 6    357463.78549  22166237.49249
 20  5 16  3 14 55.0000000  0  8G01G04G07G08G09G11G16G27             0.000058029
  22468560.938 6  -1188637.871 6   -877132.35249  22468561.32849
  23429254.086 5    460644.379 5    342064.64846  23429254.06646
  22445991.938 6  -1043672.547 6   -784467.61349  22445988.03949
  20681599.078 7     74169.242 7     55529.02049  20681598.38349
  23277376.273 5    167980.242 5    127723.09048  23277376.26248
  20563778.938 6   -658606.129 6   -494973.18048  20563775.09048
  22984297.227 5    166282.887 5    122031.90247  22984294.80547
  22166575.125 6    470639.355 6    358838.10549  22166573.28149
 20  5 16  3 14 56.0000000  0  8G01G04G07G08G09G11G16G27             0.000057455
  22467730.039 6  -1193002.074 6   -880533.03149  22467730.57849
  23429581.625 5    462363.285 5    343404.05146  23429580.87946
  22445265.133 6  -1047491.559 6   -787443.46949  22445261.68449
  20681659.117 7     74485.082 7     55775.12949  20681658.62549
  23277502.891 5    168646.215 5    128242.02748  23277502.83248
  20563329.422 6   -660970.563 6   -496815.59848  20563325.31648
  22984414.977 5    166899.914 5    122512.69947  22984412.39147
  22166910.461 6    472403.223 6    360212.55149  22166908.91849
 20  5 16  3 14 57.0000000  0  8G01G04G07G08G09G11G16G27             0.000056883
  22466899.641 6  -1197366.020 6   -883933.50449  22466900.05949
  23429908.492 5    464082.262 5    344743.51646  23429908.14146
  22444538.672 6  -1051310.266 6   -790419.08649  22444535.07849
  20681719.266 7     74801.270 7     56021.50849  20681718.78149
  23277629.641 5    169312.559 5    128761.25848  23277629.68848
  20562879.375 6   -663334.449 6   -498657.58248  20562875.68848
  22984532.664 5    167517.094 5    122993.61747  22984529.84047
  22167245.844 6    474167.191 6    361587.07049  22167244.21549
 20  5 16  3 14 58.0000000  0  8G01G04G07G08G09G11G16G27             0.000056309
  22466069.227 6  -1201729.711 6   -887333.78549  22466069.39149
  23430235.492 5    465801.277 5    346083.00446  23430235.43846
  22443812.031 6  -1055128.664 6   -793394.45749  22443808.18049
  20681779.836 7     75117.793 7     56268.14549  20681778.80149
  23277756.891 5    169979.219 5    129280.73048  23277756.71948
  20562429.859 6   -665697.781 6   -500499.14548  20562425.85248
  22984650.016 6    168134.313 6    123474.55946  22984647.41046
  22167581.867 6    475931.273 6    362961.68449  22167580.33649
 20  5 16  3 14 59.0000000  0  8G01G04G07G08G09G11G16G27             0.000055735
  22465238.852 6  -1206093.199 6   -890733.90249  22465239.70749
  23430562.664 5    467520.352 5    347422.53146  23430562.71146
  22443085.523 6  -1058946.809 6   -796369.63749  22443081.77049
  20681840.023 7     75434.566 7     56514.98049  20681839.09049
  23277883.766 5    170646.172 5    129800.43448  23277883.14848
  20561980.406 6   -668060.621 6   -502340.32048  20561976.18448
  22984767.438 6    168751.598 6    123955.55946  22984764.73846
  22167917.352 6    477695.457 6    364336.37149  22167916.04749
 20  5 16  3 15  0.0000000  0  8G01G04G07G08G09G11G16G27             0.000055162
  22464408.648 6  -1210456.445 6   -894133.83649  22464409.07049
  23430889.828 5    469239.473 5    348762.10946  23430889.94146
  22442359.023 6  -1062764.629 6   -799344.56349  22442355.01249
  20681900.227 7     75751.684 7     56762.08649  20681899.33249
  23278010.719 5    171313.484 5    130320.41848  23278010.53548
  20561530.320 6   -670422.922 6   -504181.06648  20561526.70748
  22984885.250 6    169368.949 6    124436.61746  22984882.32046
  22168253.063 6    479459.719 6    365711.11749  22168251.26649
 20  5 16  3 15  1.0000000  0  8G01G04G07G08G09G11G16G27             0.000054588
  22463577.914 6  -1214819.398 6   -897533.53949  22463578.81649
  23431216.969 5    470958.699 5    350101.76246  23431216.88746
  22441632.469 6  -1066582.152 6   -802319.25849  22441628.57849
  20681960.703 7     76069.098 7     57009.42249  20681960.06649
  23278137.906 5    171981.129 5    130840.65648  23278137.18448
  20561081.414 6   -672784.629 6   -506021.36348  20561076.91848
  22985002.305 6    169986.445 6    124917.77747  22984999.65647
  22168589.133 6    481224.102 6    367085.96149  22168587.43049
 20  5 16  3 15  2.0000000  0  8G01G04G07G08G09G11G16G27             0.000054016
  22462748.109 6  -1219182.074 6   -900933.02749  22462748.42249
  23431543.977 5    472678.055 5    351441.52346  23431543.65646
  22440906.195 6  -1070399.344 6   -805293.69149  22440902.51649
  20682021.000 7     76386.879 7     57257.03949  20682020.72349
  23278264.719 5    172649.156 5    131361.19548  23278264.73048
  20560631.477 6   -675145.773 6   -507861.21948  20560628.02348
  22985120.375 6    170604.023 6    125399.00446  22985116.68446
  22168924.555 6    482988.637 6    368460.91849  22168923.10249
 20  5 16  3 15  3.0000000  0  8G01G04G07G08G09G11G16G27             0.000053442
  22461918.047 6  -1223544.352 6   -904332.19549  22461918.25449
  23431870.867 4    474397.547 4    352781.37146  23431871.27346
  22440179.914 6  -1074216.105 6   -808267.79349  22440175.83249
  20682081.617 7     76705.090 7     57505.00049  20682080.77749
  23278392.281 5    173317.551 5    131882.02348  23278392.05148
  20560182.539 6   -677506.258 6   -509700.55948  20560178.63348
  22985237.688 6    171221.820 6    125880.39846  22985234.78946
  22169260.484 6    484753.391 6    369836.05149  22169259.02749
 20  5 16  3 15  4.0000000  0  8G01G04G07G08G09G11G16G27             0.000052868
  22461087.664 6  -1227906.488 6   -907731.26649  22461088.34049
  23432198.156 4    476117.078 4    354121.27346  23432198.44146
  22439453.594 6  -1078032.633 6   -811241.71549  22439449.61349
  20682142.461 7     77023.535 7     57753.13349  20682141.78949
  23278519.117 5    173986.285 5    132403.10948  23278518.79348
  20559733.688 6   -679866.277 6   -511539.52748  20559729.65648
  22985355.258 6    171839.629 6    126361.80946  22985352.28146
  22169596.211 6    486518.180 6    371211.20749  22169594.82049
 20  5 16  3 15  5.0000000  0  8G01G04G07G08G09G11G16G27             0.000052296
  22460257.953 6  -1232268.469 6   -911130.21549  22460258.31349
  23432525.813 5    477836.566 5    355461.13346  23432525.67246
  22438727.477 6  -1081848.957 6   -814215.46949  22438723.54349
  20682203.250 7     77342.188 7     58001.43849  20682202.28149
  23278646.258 5    174655.238 5    132924.37148  23278646.48048
  20559284.438 6   -682225.832 6   -513378.14548  20559280.70348
  22985472.641 6    172457.445 6    126843.22746  22985469.93046
  22169932.180 6    488282.980 6    372586.38349  22169930.82049
 20  5 16  3 15  6.0000000  0  8G01G04G07G08G09G11G16G27             0.000051723
  22459427.844 6  -1236630.164 6   -914528.93049  22459428.32449
  23432853.031 5    479556.141 5    356801.06346  23432852.65646
  22438001.078 6  -1085664.957 6   -817188.97749  22437997.37149
  20682263.453 7     77661.203 7     58250.02349  20682263.16449
  23278774.469 5    175324.535 5    133445.89848  23278773.85248
  20558835.914 6   -684584.805 6   -515216.30148  20558831.84848
  22985589.969 5    173075.367 5    127324.72346  22985587.12146
  22170267.453 6    490047.906 6    373961.64549  22170266.39549
 20  5 16  3 15  7.0000000  0  8G01G04G07G08G09G11G16G27             0.000051149
  22458597.820 6  -1240991.473 6   -917927.34849  22458598.63349
  23433180.109 4    481275.965 4    358141.18046  23433180.16446
  22437274.773 6  -1089480.512 6   -820162.13749  22437270.60949
  20682324.461 7     77980.676 7     58498.95349  20682324.13349
  23278901.484 5    175994.338 5    133967.82448  23278901.57048
  20558386.867 6   -686943.141 6   -517053.97348  20558383.12148
  22985708.109 5    173693.523 5    127806.40646  22985705.24246
  22170603.984 6    491813.082 6    375337.10949  22170601.98449
 20  5 16  3 15  8.0000000  0  8G01G04G07G08G09G11G16G27             0.000050577
  22457768.141 6  -1245352.555 6   -921325.59449  22457768.51649
  23433507.406 5    482995.805 5    359481.31346  23433507.11746
  22436548.813 6  -1093295.797 6   -823135.08649  22436545.21549
  20682385.438 7     78300.430 7     58748.11349  20682384.77049
  23279028.867 5    176664.391 5    134489.94548  23279028.77048
  20557938.164 6   -689300.922 6   -518891.20748  20557934.31648
  22985825.977 5    174311.691 5    128288.09446  22985822.31346
  22170939.969 6    493578.309 6    376712.61349  22170938.11749
 20  5 16  3 15  9.0000000  0  8G01G04G07G08G09G11G16G27             0.000050003
  22456937.836 6  -1249713.391 6   -924723.65649  22456938.53149
  23433834.586 4    484715.664 4    360821.46146  23433834.51646
  22435822.672 6  -1097110.809 6   -826107.81649  22435819.07049
  20682445.945 7     78620.492 7     58997.51649  20682445.49649
  23279157.047 5    177334.805 5    135012.34448  23279156.40248
  20557489.633 6   -691658.168 6   -520728.01648  20557485.56348
  22985944.125 5    174929.957 5    128769.85246  22985940.36346
  22171275.773 6    495343.691 6    378088.23449  22171274.18449
 20  5 16  3 15 10.0000000  0  8G01G04G07G08G09G11G16G27             0.000049431
  22456108.219 6  -1254073.918 6   -928121.46549  22456108.56649
  23434162.148 4    486435.730 4    362161.76646  23434162.04346
  22435096.883 6  -1100925.391 6   -829080.21549  22435093.18449
  20682506.898 7     78940.945 7     59247.21949  20682506.60249
  23279284.563 5    178005.594 5    135535.02748  23279284.14148
  20557041.031 6   -694014.789 6   -522564.34848  20557037.37548
  22986060.836 5    175548.410 5    129251.76646  22986057.71546
  22171611.609 6    497109.223 6    379463.97349  22171610.06349
 20  5 16  3 15 11.0000000  0  8G01G04G07G08G09G11G16G27             0.000048857
  22455278.508 6  -1258434.203 6   -931519.08249  22455279.25849
  23434488.438 4    488155.785 4    363502.06346  23434489.29746
  22434371.258 6  -1104739.742 6   -832052.43449  22434367.33649
  20682568.211 7     79261.676 7     59497.14149  20682567.51649
  23279412.414 5    178676.715 5    136057.98048  23279412.15648
  20556592.734 6   -696370.918 6   -524400.28948  20556588.59048
  22986178.852 5    176166.914 5    129733.71946  22986175.48846
  22171947.648 6    498874.801 6    380839.74649  22171946.41849
 20  5 16  3 15 12.0000000  0  8G01G04G07G08G09G11G16G27             0.000048283
  22454448.883 6  -1262794.266 6   -934916.53549  22454449.56349
  23434816.359 4    489875.945 4    364842.44546  23434816.59046
  22433645.586 6  -1108553.773 6   -835024.41049  22433641.77049
  20682629.172 7     79582.734 7     59747.31349  20682628.43449
  23279539.773 5    179348.156 5    136581.18048  23279539.52748
  20556144.391 6   -698726.488 6   -526235.79348  20556140.60948
  22986296.172 5    176785.453 5    130215.70746  22986293.27046
  22172284.023 6    500640.547 6    382215.65249  22172282.08649
 20  5 16  3 15 13.0000000  0  8G01G04G07G08G09G11G16G27             0.000047710
  22453619.148 6  -1267154.098 6   -938313.80549  22453619.69949
  23435143.789 4    491596.102 4    366182.82046  23435143.89146
  22432919.375 6  -1112367.563 6   -837996.19549  22432915.98449
  20682690.484 7     79904.047 7     59997.68849  20682690.11349
  23279667.531 5    180019.859 5    137104.57848  23279667.04748
  20555696.539 6   -701081.586 6   -528070.94148  20555692.63748
  22986413.977 5    177404.098 5    130697.75446  22986411.01646
  22172619.406 6    502406.313 6    383591.56649  22172617.75049
 20  5 16  3 15 14.0000000  0  8G01G04G07G08G09G11G16G27             0.000047136
  22452789.672 6  -1271513.688 6   -941710.88749  22452789.86349
  23435471.625 4    493316.316 4    367523.24646  23435471.53546
  22432194.352 6  -1116181.047 6   -840967.75049  22432190.24249
  20682751.750 7     80225.656 7     60248.29749  20682750.97349
  23279795.148 5    180691.895 5    137628.24648  23279795.30148
  20555248.711 6   -703436.137 6   -529905.65248  20555244.47348
  22986532.008 5    178022.793 5    131179.85946  22986528.65646
  22172955.703 6    504172.164 6    384967.55549  22172954.23449
 20  5 16  3 15 15.0000000  0  8G01G04G07G08G09G11G16G27             0.000046564
  22451960.828 6  -1275872.996 6   -945107.75049  22451960.53149
  23435798.906 4    495036.671 4    368863.77846  23435798.77746
  22431468.430 6  -1119994.207 6   -843939.04749  22431464.49249
  20682812.594 7     80547.633 7     60499.18449  20682812.10249
  23279923.922 5    181364.301 5    138152.19548  23279922.97348
  20554800.563 6   -705790.113 6   -531739.92248  20554796.63748
  22986649.648 5    178641.613 5    131662.05546  22986646.51646
  22173291.805 6    505938.176 6    386343.66849  22173290.25049
 20  5 16  3 15 16.0000000  0  8G01G04G07G08G09G11G16G27             0.000045990
  22451130.570 6  -1280232.195 6   -948504.52749  22451130.79349
  23436125.961 4    496756.879 4    370204.20746  23436126.09046
  22430742.938 6  -1123807.184 6   -846910.19949  22430739.02749
  20682874.195 7     80869.758 7     60750.18849  20682873.46549
  23280052.008 5    182036.898 5    138676.29748  23280051.11748
  20554352.563 6   -708143.676 6   -533573.86748  20554348.56348
  22986767.633 6    179260.359 6    132144.19146  22986764.31646
  22173627.789 6    507704.145 6    387719.74649  22173626.39149
 20  5 16  3 15 17.0000000  0  8G01G04G07G08G09G11G16G27             0.000045418
  22450301.000 6  -1284591.215 6   -951901.16849  22450301.94949
  23436453.125 4    498477.082 4    371544.61746  23436453.29746
  22430017.453 6  -1127619.957 6   -849881.19149  22430013.50049
  20682935.641 7     81192.109 7     61001.37149  20682935.27049
  23280179.930 5    182709.719 5    139200.57048  23280178.93448
  20553904.781 6   -710496.805 6   -535407.47348  20553900.39848
  22986885.164 5    179879.129 5    132626.35246  22986881.76646
  22173963.898 6    509470.125 6    389095.83249  22173962.61749
 20  5 16  3 15 18.0000000  0  8G01G04G07G08G09G11G16G27             0.000044844
  22449472.227 6  -1288950.004 6   -955297.62949  22449472.20349
  23436780.352 4    500197.387 4    372885.11346  23436780.68046
  22429291.492 6  -1131432.453 6   -852851.96949  22429287.68449
  20682996.852 7     81514.773 7     61252.79349  20682996.60249
  23280307.383 5    183382.863 5    139725.09448  23280307.17248
  20553456.898 6   -712849.363 6   -537240.63748  20553452.66848
  22987002.680 5    180497.945 5    133108.53946  22986999.91046
  22174299.930 6    511236.195 6    390471.99249  22174298.28149
 20  5 16  3 15 19.0000000  0  8G01G04G07G08G09G11G16G27             0.000044270
  22448642.055 6  -1293308.512 6   -958693.86749  22448642.71949
  23437107.805 4    501917.805 4    374225.70346  23437107.78146
  22428566.148 6  -1135244.598 6   -855822.47349  22428562.14149
  20683058.609 7     81837.766 7     61504.47749  20683057.76649
  23280435.727 5    184056.387 5    140249.91848  23280435.59048
  20553009.586 6   -715201.355 6   -539073.35548  20553005.68448
  22987120.492 5    181116.891 5    133590.83647  22987117.55547
  22174636.469 6    513002.426 6    391848.27749  22174634.68849
 20  5 16  3 15 20.0000000  0  8G01G04G07G08G09G11G16G27             0.000043697
  22447812.930 6  -1297666.809 6   -962089.94149  22447813.37949
  23437435.680 4    503638.199 4    375566.27046  23437435.34446
  22427840.961 6  -1139056.461 6   -858792.75449  22427836.79749
  20683120.195 7     82161.047 7     61756.37949  20683119.44149
  23280563.586 5    184730.195 5    140774.96148  23280563.78948
  20552562.266 6   -717552.844 6   -540905.68448  20552558.21948
  22987238.586 5    181735.922 5    134073.19546  22987235.32846
  22174972.359 6    514768.734 6    393224.62149  22174970.08249
 20  5 16  3 15 21.0000000  0  8G01G04G07G08G09G11G16G27             0.000043123
  22446983.805 6  -1302024.684 6   -965485.68849  22446984.12549
  23437762.711 4    505358.832 4    376907.01246  23437762.58246
  22427115.945 6  -1142867.891 6   -861762.69949  22427111.96949
  20683181.492 7     82484.793 7     62008.65649  20683180.42249
  23280692.461 5    185404.441 5    141300.34948  23280691.92248
  20552114.727 6   -719903.645 6   -542737.47748  20552110.96148
  22987356.133 5    182355.172 5    134555.73046  22987353.22746
  22175308.555 6    516535.254 6    394601.12549  22175306.37549
 20  5 16  3 15 22.0000000  0  8G01G04G07G08G09G11G16G27             0.000042551
  22446154.828 6  -1306382.348 6   -968881.26649  22446154.87149
  23438090.039 4    507079.508 4    378247.78946  23438090.34446
  22426390.453 6  -1146679.039 6   -864732.42649  22426386.54749
  20683242.906 7     82808.820 7     62261.14149  20683242.47749
  23280820.633 5    186079.047 5    141826.01648  23280820.05548
  20551667.906 6   -722253.910 6   -544568.85548  20551663.63748
  22987474.656 5    182974.461 5    135038.28946  22987470.99646
  22175644.883 6    518301.883 6    395977.72349  22175642.78949
 20  5 16  3 15 23.0000000  0  8G01G04G07G08G09G11G16G27             0.000041977
  22445324.711 6  -1310739.742 6   -972276.63349  22445325.66449
  23438417.656 4    508800.223 4    379588.59846  23438417.82446
  22425665.180 6  -1150489.879 6   -867701.90649  22425661.34849
  20683304.781 6     83133.148 6     62513.87149  20683304.17249
  23280949.117 5    186753.961 5    142351.92648  23280948.93048
  20551220.258 6   -724603.637 6   -546399.80548  20551216.65648
  22987592.188 5    183593.844 5    135520.92646  22987588.64546
  22175980.813 6    520068.586 6    397354.37549  22175979.25049
 20  5 16  3 15 24.0000000  0  8G01G04G07G08G09G11G16G27             0.000041405
  22444495.766 6  -1315096.801 6   -975671.74649  22444496.49649
  23438744.828 4    510521.168 4    380929.58646  23438745.23046
  22424940.375 6  -1154300.297 6   -870671.06349  22424936.09049
  20683366.344 6     83457.918 6     62766.93449  20683366.02749
  23281077.469 5    187429.328 5    142878.18048  23281077.70348
  20550773.438 6   -726952.711 6   -548230.25048  20550769.41448
  22987709.563 5    184213.441 5    136003.71946  22987706.35546
  22176317.000 6    521835.523 6    398731.20749  22176315.30949
 20  5 16  3 15 25.0000000  0  8G01G04G07G08G09G11G16G27             0.000040831
  22443666.789 6  -1319453.547 6   -979066.61349  22443667.45349
  23439072.484 4    512242.168 4    382270.63347  23439072.76247
  22424215.141 6  -1158110.418 6   -873639.99249  22424210.67649
  20683428.430 6     83783.027 6     63020.26649  20683427.89149
  23281206.367 5    188105.031 5    143404.69948  23281205.89148
  20550326.398 6   -729301.223 6   -550060.26648  20550322.35948
  22987827.508 5    184833.129 5    136486.59446  22987824.62946
  22176653.180 6    523602.609 6    400108.15649  22176651.61349
 20  5 16  3 15 26.0000000  0  8G01G04G07G08G09G11G16G27             0.000040258
  22442838.219 6  -1323810.027 6   -982461.27049  22442838.47349
  23439400.328 4    513963.301 4    383611.77347  23439400.25447
  22423490.258 6  -1161920.168 6   -876608.63749  22423486.18449
  20683489.859 7     84108.484 7     63273.86749  20683489.88349
  23281334.484 5    188781.090 5    143931.49648  23281334.61748
  20549879.789 6   -731649.148 6   -551889.82448  20549876.00848
  22987945.820 5    185452.969 5    136969.59446  22987942.39846
  22176989.156 6    525369.797 6    401485.18449  22176987.78949
 20  5 16  3 15 27.0000000  0  8G01G04G07G08G09G11G16G27             0.000039684
  22442008.727 6  -1328166.191 6   -985855.68449  22442009.55949
  23439728.320 4    515684.543 4    384952.99246  23439728.14846
  22422765.180 6  -1165729.566 6   -879577.00049  22422761.43449
  20683552.328 7     84434.340 7     63527.78149  20683551.49649
  23281463.789 5    189457.551 5    144458.60548  23281463.39548
  20549432.797 6   -733996.457 6   -553718.89548  20549428.72748
  22988063.539 5    186072.930 5    137452.67646  22988060.87546
  22177325.625 6    527137.191 6    402862.37149  22177324.11749
 20  5 16  3 15 28.0000000  0  8G01G04G07G08G09G11G16G27             0.000039112
  22441179.953 6  -1332522.094 6   -989249.89149  22441180.75049
  23440055.977 4    517405.855 4    386294.26246  23440055.43846
  22422040.539 6  -1169538.664 6   -882545.12549  22422036.34449
  20683614.539 6     84760.480 6     63781.91449  20683613.76249
  23281592.117 5    190134.355 5    144985.97748  23281592.30948
  20548986.414 6   -736343.242 6   -555547.56348  20548982.34048
  22988182.078 5    186692.984 5    137935.82446  22988178.32446
  22177662.398 6    528904.652 6    404239.61749  22177660.81349
 20  5 16  3 15 29.0000000  0  8G01G04G07G08G09G11G16G27             0.000038540
  22440351.500 6  -1336877.750 6   -992643.91049  22440351.78949
  23440383.320 4    519127.168 4    387635.54346  23440382.98446
  22421315.570 6  -1173347.473 6   -885513.03149  22421311.60549
  20683676.711 6     85086.926 6     64036.28149  20683675.83649
  23281720.930 5    190811.445 5    145513.58248  23281720.98848
  20548539.773 6   -738689.500 6   -557375.80948  20548535.80948
  22988300.047 5    187313.086 5    138419.02346  22988296.58646
  22177998.633 6    530672.203 6    405616.93049  22177997.02349
 20  5 16  3 15 30.0000000  0  8G01G04G07G08G09G11G16G27             0.000037966
  22439522.203 6  -1341233.102 6   -996037.68449  22439523.45749
  23440710.953 4    520848.664 4    388976.96946  23440710.64846
  22420590.859 6  -1177155.883 6   -888480.62949  22420586.80149
  20683738.906 6     85413.797 6     64290.98449  20683738.19149
  23281849.930 5    191488.945 5    146041.50048  23281849.98048
  20548093.734 6   -741035.121 6   -559203.57048  20548089.70348
  22988417.766 5    187933.406 5    138902.38746  22988414.57846
  22178335.273 6    532439.969 6    406994.41049  22178333.34049
 20  5 16  3 15 31.0000000  0  8G01G04G07G08G09G11G16G27             0.000037394
  22438693.875 6  -1345588.172 6   -999431.25049  22438694.07449
  23441038.531 4    522570.273 4    390318.49246  23441038.24646
  22419866.289 6  -1180964.000 6   -891447.99249  22419862.05949
  20683801.039 6     85740.965 6     64545.93049  20683800.54749
  23281978.625 5    192166.785 5    146569.68848  23281978.92648
  20547647.242 6   -743380.188 6   -561030.88748  20547643.16048
  22988535.625 5    188553.762 5    139385.78146  22988532.66046
  22178671.422 6    534207.809 6    408371.94549  22178669.64849
 20  5 16  3 15 32.0000000  0  8G01G04G07G08G09G11G16G27             0.000036819
  22437865.070 6  -1349943.000 6  -1002824.62149  22437865.87149
  23441365.961 4    524291.895 4    391660.02046  23441366.20746
  22419141.680 6  -1184771.793 6   -894415.10549  22419137.69149
  20683863.266 6     86068.438 6     64801.10249  20683862.67249
  23282107.727 5    192844.965 5    147098.13748  23282108.02348
  20547201.352 6   -745724.715 6   -562857.79348  20547197.23048
  22988653.461 5    189174.238 5    139869.26646  22988651.04746
  22179007.789 6    535975.773 6    409749.57849  22179006.40649
 20  5 16  3 15 33.0000000  0  8G01G04G07G08G09G11G16G27             0.000036247
  22437036.414 6  -1354297.508 6  -1006217.74249  22437037.03949
  23441693.547 4    526013.629 4    393001.62946  23441693.39146
  22418416.922 6  -1188579.262 6   -897381.96149  22418413.39149
  20683925.719 6     86396.285 6     65056.55949  20683925.26249
  23282236.852 5    193523.504 5    147626.86748  23282236.89548
  20546755.242 6   -748068.652 6   -564684.24248  20546751.35948
  22988772.133 5    189794.848 5    140352.85946  22988768.41446
  22179344.188 6    537743.898 6    411127.34049  22179343.14549
 20  5 16  3 15 34.0000000  0  8G01G04G07G08G09G11G16G27             0.000035673
  22436207.563 6  -1358651.770 6  -1009610.66849  22436208.37549
  23442021.383 4    527735.477 4    394343.32446  23442021.22346
  22417692.672 6  -1192386.391 6   -900348.55949  22417688.75849
  20683988.242 6     86724.457 6     65312.28549  20683987.59049
  23282366.359 5    194202.395 5    148155.86748  23282366.02748
  20546309.086 6   -750412.004 6   -566510.22748  20546305.37548
  22988889.938 5    190415.594 5    140836.55946  22988886.75846
  22179681.070 6    539512.113 6    412505.16849  22179678.90649
 20  5 16  3 15 35.0000000  0  8G01G04G07G08G09G11G16G27             0.000035101
  22435379.500 6  -1363005.645 6  -1013003.30549  22435380.14549
  23442349.125 4    529457.477 4    395685.12946  23442348.71146
  22416968.148 6  -1196193.113 6   -903314.83249  22416964.39549
  20684050.891 6     87053.020 6     65568.30549  20684049.94149
  23282495.508 5    194881.707 5    148685.20348  23282495.30948
  20545863.313 6   -752754.734 6   -568335.73048  20545859.59448
  22989008.211 5    191036.484 5    141320.37946  22989005.16046
  22180017.383 6    541280.570 6    413883.18449  22180015.54349
 20  5 16  3 15 36.0000000  0  8G01G04G07G08G09G11G16G27             0.000034529
  22434551.328 6  -1367359.164 6  -1016395.65249  22434551.80549
  23442676.891 4    531179.648 4    397027.08246  23442676.74246
  22416244.000 6  -1199999.414 6   -906280.78149  22416239.85249
  20684113.445 6     87382.027 6     65824.67249  20684112.93049
  23282624.844 5    195561.488 5    149214.90248  23282624.73848
  20545417.828 7   -755096.805 7   -570160.72348  20545413.64548
  22989126.563 5    191657.598 5    141804.36746  22989123.09446
  22180353.875 6    543049.238 6    415261.36749  22180352.35949
 20  5 16  3 15 37.0000000  0  8G01G04G07G08G09G11G16G27             0.000033955
  22433722.563 6  -1371712.563 6  -1019787.91049  22433722.71949
  23443003.523 4    532901.746 4    398368.97746  23443004.10546
  22415519.578 6  -1203805.547 6   -909246.60249  22415515.69949
  20684176.164 6     87711.184 6     66081.16449  20684175.51649
  23282754.328 5    196241.449 5    149744.74248  23282754.20748
  20544972.336 6   -757438.449 6   -571985.37948  20544968.27748
  22989244.844 5    192278.648 5    142288.29346  22989241.39546
  22180690.258 6    544817.863 6    416639.51649  22180688.84849
 20  5 16  3 15 38.0000000  0  8G01G04G07G08G09G11G16G27             0.000033382
  22432894.070 6  -1376065.711 6  -1023179.98049  22432894.56649
  23443331.523 4    534623.941 4    399710.94946  23443331.66846
  22414795.219 6  -1207611.371 6   -912212.18049  22414791.70349
  20684238.813 6     88040.707 6     66337.93449  20684238.09449
  23282883.898 5    196921.730 5    150274.83248  23282883.43848
  20544526.578 6   -759779.543 6   -573809.60948  20544522.35548
  22989362.914 5    192899.781 5    142772.28946  22989359.73446
  22181027.305 6    546586.609 6    418017.75449  22181025.57049
 20  5 16  3 15 39.0000000  0  8G01G04G07G08G09G11G16G27             0.000032808
  22432065.602 6  -1380418.508 6  -1026571.77049  22432066.48849
  23443659.492 4    536346.258 4    401053.00046  23443659.46546
  22414071.141 6  -1211416.816 6   -915177.46549  22414067.25049
  20684301.578 6     88370.609 6     66594.99649  20684300.43049
  23283013.664 5    197602.430 5    150805.24648  23283013.29748
  20544081.250 6   -762120.031 6   -575633.36348  20544077.09848
  22989481.172 5    193521.105 5    143256.43046  22989478.16046
  22181363.641 6    548355.500 6    419396.10949  22181361.98449
 20  5 16  3 15 40.0000000  0  8G01G04G07G08G09G11G16G27             0.000032236
  22431237.172 6  -1384771.152 6  -1029963.43849  22431238.59049
  23443987.641 4    538068.570 4    402395.06346  23443987.11346
  22413347.406 6  -1215222.023 6   -918142.55949  22413343.48449
  20684364.359 6     88700.719 6     66852.22749  20684363.89549
  23283143.141 5    198283.352 5    151335.83248  23283142.64548
  20543635.914 6   -764460.031 6   -577456.73848  20543632.33248
  22989599.617 5    194142.449 5    143740.59846  22989596.36746
  22181700.023 6    550124.445 6    420774.50849  22181698.83649
 20  5 16  3 15 41.0000000  0  8G01G04G07G08G09G11G16G27             0.000031664
  22430409.063 6  -1389123.434 6  -1033354.82049  22430410.00449
  23444315.398 4    539791.059 4    403737.25846  23444314.96146
  22412623.391 6  -1219026.809 6   -921107.32849  22412619.22749
  20684427.102 7     89031.270 7     67109.80149  20684426.60249
  23283272.266 5    198964.742 5    151866.78548  23283272.46148
  20543190.766 6   -766799.387 6   -579279.61348  20543186.72348
  22989717.359 5    194763.961 5    144224.88746  22989714.59446
  22182037.086 6    551893.598 6    422153.06649  22182035.19149
 20  5 16  3 15 42.0000000  0  8G01G04G07G08G09G11G16G27             0.000031090
  22429581.102 6  -1393475.402 6  -1036745.96549  22429581.71149
  23444643.188 4    541513.637 4    405079.52746  23444643.05146
  22411899.336 6  -1222831.285 6   -924071.85549  22411895.03549
  20684490.195 6     89362.164 6     67367.63349  20684489.60949
  23283402.273 5    199646.465 5    152398.00048  23283402.09448
  20542745.805 6   -769138.164 6   -581102.04348  20542741.66448
  22989835.594 5    195385.621 5    144709.30146  22989833.18046
  22182373.961 6    553662.871 6    423531.71949  22182372.01249
 20  5 16  3 15 43.0000000  0  8G01G04G07G08G09G11G16G27             0.000030518
  22428753.164 6  -1397827.285 6  -1040137.03549  22428753.74649
  23444970.867 4    543236.121 4    406421.71946  23444970.04746
  22411175.234 6  -1226635.617 6   -927036.27049  22411171.52749
  20684553.164 6     89693.184 6     67625.57049  20684552.40649
  23283531.586 5    200328.371 5    152929.35248  23283531.96148
  20542300.641 6   -771476.582 6   -582924.18848  20542296.97348
  22989954.273 5    196007.152 5    145193.61346  22989951.44146
  22182710.359 6    555432.109 6    424910.35249  22182708.37949
 20  5 16  3 15 44.0000000  0  8G01G04G07G08G09G11G16G27             0.000029945
  22427925.117 6  -1402178.836 6  -1043527.85549  22427925.87949
  23445298.398 4    544958.750 4    407764.02946  23445298.40246
  22410451.234 6  -1230439.566 6   -930000.38749  22410447.68849
  20684616.227 6     90024.613 6     67883.82849  20684615.59849
  23283662.547 5    201010.664 5    153461.00048  23283661.86348
  20541855.656 6   -773814.328 6   -584745.80948  20541852.03548
  22990072.188 6    196628.895 6    145678.08246  22990070.01246
  22183046.836 6    557201.531 6    426289.11749  22183045.39849
 20  5 16  3 15 45.0000000  0  8G01G04G07G08G09G11G16G27             0.000029371
  22427096.469 6  -1406530.152 6  -1046918.48449  22427097.69549
  23445625.750 4    546681.383 4    409106.35246  23445625.70346
  22409727.633 6  -1234243.227 6   -932964.27349  22409723.75849
  20684679.211 6     90356.313 6     68142.29749  20684678.52749
  23283791.969 5    201693.297 5    153992.91848  23283791.75448
  20541410.969 6   -776151.586 6   -586567.04748  20541406.86348
  22990191.266 5    197250.699 5    146162.60546  22990187.96146
  22183383.820 6    558970.988 6    427667.91849  22183382.30549
 20  5 16  3 15 46.0000000  0  8G01G04G07G08G09G11G16G27             0.000028799
  22426269.086 6  -1410881.133 6  -1050308.86349  22426269.47749
  23445954.625 4    548404.215 4    410448.81646  23445954.07846
  22409003.609 6  -1238046.484 6   -935927.85248  22408999.93048
  20684742.906 7     90688.434 7     68401.09049  20684742.06649
  23283921.594 5    202376.293 5    154525.12148  23283921.96148
  20540966.328 6   -778488.180 6   -588387.77048  20540962.49648
  22990308.984 6    197872.699 6    146647.28546  22990306.25446
  22183720.727 6    560740.703 6    429046.90649  22183718.95349
 20  5 16  3 15 47.0000000  0  8G01G04G07G08G09G11G16G27             0.000028227
  22425440.969 6  -1415231.852 6  -1053699.03549  22425441.84049
  23446282.148 4    550127.117 4    411791.33646  23446281.85546
  22408280.086 6  -1241849.434 6   -938891.18849  22408276.21549
  20684806.117 7     91020.820 7     68660.09449  20684805.15249
  23284051.844 5    203059.648 5    155057.60548  23284051.78948
  20540521.609 6   -780824.273 6   -590208.09448  20540517.93448
  22990427.813 6    198494.730 6    147131.98046  22990424.75846
  22184056.961 6    562510.473 6    430425.95349  22184055.84849
 20  5 16  3 15 48.0000000  0  8G01G04G07G08G09G11G16G27             0.000027653
  22424613.219 6  -1419582.363 6  -1057089.04349  22424614.06349
  23446609.914 4    551850.016 4    413133.84446  23446609.83246
  22407556.633 6  -1245652.117 6   -941854.31649  22407552.88349
  20684869.352 6     91353.508 6     68919.32849  20684868.69949
  23284182.008 5    203743.277 5    155590.30148  23284181.87548
  20540077.539 6   -783159.809 6   -592028.00048  20540073.25048
  22990546.109 5    199116.852 5    147616.74646  22990543.26646
  22184394.164 6    564280.324 6    431805.06349  22184392.65649
 20  5 16  3 15 49.0000000  0  8G01G04G07G08G09G11G16G27             0.000027081
  22423785.523 6  -1423932.586 6  -1060478.82449  22423786.67649
  23446938.258 4    553573.012 4    414476.42646  23446937.37946
  22406832.828 6  -1249454.480 6   -944817.20349  22406829.08249
  20684932.703 6     91686.516 6     69178.81649  20684931.76649
  23284312.703 5    204427.273 5    156123.28548  23284312.19148
  20539632.859 6   -785494.785 6   -593847.46148  20539629.28148
  22990664.695 5    199739.094 5    148101.61346  22990661.39546
  22184731.078 6    566050.305 6    433184.25849  22184729.31649
 20  5 16  3 15 50.0000000  0  8G01G04G07G08G09G11G16G27             0.000026508
  22422957.578 6  -1428282.473 6  -1063868.34449  22422958.13349
  23447266.406 4    555296.172 4    415819.14146  23447265.49246
  22406109.516 6  -1253256.402 6   -947779.75049  22406105.64549
  20684996.148 6     92019.945 6     69438.62949  20684995.26249
  23284442.859 5    205111.691 5    156656.59448  23284442.66448
  20539189.102 6   -787829.156 6   -595666.45348  20539184.97748
  22990783.289 6    200361.465 6    148586.58646  22990780.02746
  22185067.664 6    567820.457 6    434563.59849  22185066.06349
 20  5 16  3 15 51.0000000  0  8G01G04G07G08G09G11G16G27             0.000025936
  22422129.891 6  -1432632.090 6  -1067257.64849  22422130.68049
  23447594.195 4    557019.383 4    417161.90246  23447593.27046
  22405385.977 6  -1257058.074 6   -950742.09449  22405382.24649
  20685059.516 7     92353.684 7     69698.68449  20685058.71549
  23284573.094 5    205796.414 5    157190.14148  23284572.49648
  20538744.789 6   -790162.949 6   -597484.99248  20538740.60248
  22990901.336 5    200983.980 5    149071.66446  22990898.13746
  22185404.758 6    569590.746 6    435943.04349  22185403.44549
 20  5 16  3 15 52.0000000  0  8G01G04G07G08G09G11G16G27             0.000025362
  22421302.258 6  -1436981.398 6  -1070646.72749  22421303.28949
  23447921.539 4    558742.684 4    418504.73446  23447921.31646
  22404662.703 6  -1260859.387 6   -953704.15249  22404658.76249
  20685123.133 7     92687.758 7     69959.00449  20685122.37949
  23284703.172 5    206481.535 5    157724.00448  23284703.15248
  20538300.805 6   -792496.172 6   -599303.08648  20538297.04748
  22991019.820 5    201606.594 5    149556.81346  22991016.59846
  22185741.547 6    571361.164 6    437322.59049  22185739.75849
 20  5 16  3 15 53.0000000  0  8G01G04G07G08G09G11G16G27             0.000024790
  22420474.492 6  -1441330.445 6  -1074035.59049  22420474.75449
  23448249.500 4    560466.086 4    419847.64846  23448249.39146
  22403939.320 6  -1264660.383 6   -956665.96549  22403935.50049
  20685186.711 7     93022.145 7     70219.56649  20685186.32849
  23284833.609 5    207166.926 5    158258.06648  23284833.55148
  20537856.563 6   -794828.871 6   -601120.77348  20537853.03948
  22991138.516 5    202229.293 5    150042.03546  22991135.28146
  22186078.438 6    573131.660 6    438702.19149  22186076.88349
 20  5 16  3 15 54.0000000  0  8G01G04G07G08G09G11G16G27             0.000024218
  22419646.742 6  -1445679.316 6  -1077424.32449  22419647.78149
  23448577.211 4    562189.496 4    421190.57046  23448576.79746
  22403216.500 6  -1268461.133 6   -959627.58249  22403212.21949
  20685250.375 7     93356.816 7     70480.34049  20685249.78549
  23284964.055 5    207852.645 5    158792.38748  23284963.96548
  20537413.102 6   -797161.051 6   -602938.06348  20537409.49648
  22991256.602 5    202852.047 5    150527.29346  22991253.62546
  22186415.086 6    574902.234 6    440081.86349  22186414.17649
 20  5 16  3 15 55.0000000  0  8G01G04G07G08G09G11G16G27             0.000023643
  22418819.508 6  -1450027.871 6  -1080812.80549  22418820.33249
  23448905.625 4    563912.992 4    422533.55546  23448905.56646
  22402492.633 6  -1272261.547 6   -962588.94549  22402488.97749
  20685313.953 7     93691.801 7     70741.37149  20685313.61349
  23285094.828 5    208538.699 5    159326.97348  23285094.48448
  20536969.563 6   -799492.668 6   -604754.90248  20536965.78948
  22991375.156 5    203474.902 5    151012.63746  22991372.10946
  22186752.180 6    576672.934 6    441461.62949  22186750.63749
 20  5 16  3 15 56.0000000  0  8G01G04G07G08G09G11G16G27             0.000023071
  22417992.047 6  -1454376.148 6  -1084201.06349  22417992.65649
  23449233.406 4    565636.570 4    423876.59446  23449233.30146
  22401769.633 6  -1276061.617 6   -965550.03549  22401765.96949
  20685377.742 7     94027.121 7     71002.65249  20685377.56349
  23285225.344 5    209225.105 5    159861.84048  23285225.15648
  20536525.898 6   -801823.703 6   -606571.29748  20536521.87948
  22991493.789 5    204097.883 5    151498.07846  22991491.12146
  22187089.133 6    578443.766 6    442841.49649  22187088.02749
 20  5 16  3 15 57.0000000  0  8G01G04G07G08G09G11G16G27             0.000022499
  22417164.898 6  -1458724.051 6  -1087589.04349  22417165.48849
  23449561.281 4    567360.328 4    425219.76646  23449561.27746
  22401046.711 6  -1279861.223 6   -968510.77349  22401043.27349
  20685441.852 7     94362.914 7     71264.31649  20685441.21149
  23285355.688 5    209911.980 5    160397.06648  23285355.83648
  20536082.391 6   -804154.043 6   -608387.14548  20536078.49648
  22991612.453 5    204721.082 5    151983.68046  22991609.58246
  22187426.102 6    580214.816 6    444221.53549  22187424.74249
 20  5 16  3 15 58.0000000  0  8G01G04G07G08G09G11G16G27             0.000021927
  22416337.219 6  -1463071.734 6  -1090976.84449  22416337.98849
  23449889.594 4    569084.137 4    426562.98846  23449889.39146
  22400323.969 6  -1283660.586 6   -971471.33248  22400319.83648
  20685505.633 7     94698.957 7     71526.16849  20685505.14849
  23285486.492 5    210599.133 5    160932.51648  23285486.50848
  20535639.164 6   -806483.887 6   -610202.60548  20535635.18448
  22991731.133 5    205344.340 5    152469.33246  22991728.20746
  22187763.523 6    581985.957 6    445601.64549  22187761.73449
 20  5 16  3 15 59.0000000  0  8G01G04G07G08G09G11G16G27             0.000021353
  22415510.258 6  -1467419.234 6  -1094364.50049  22415510.80949
  23450217.531 4    570807.918 4    427906.19146  23450217.30946
  22399601.141 6  -1287459.719 6   -974431.69949  22399596.75449
  20685569.805 7     95035.266 7     71788.23049  20685569.49249
  23285617.164 5    211286.527 5    161468.14148  23285617.27048
  20535195.891 6   -808813.262 6   -612017.69548  20535191.78148
  22991849.297 5    205967.609 5    152954.99646  22991846.79346
  22188100.656 6    583757.098 6    446981.75449  22188098.90649
 20  5 16  3 16  0.0000000  0  8G01G04G07G08G09G11G16G27             0.000020781
  22414682.977 6  -1471766.391 6  -1097751.89549  22414683.65649
  23450545.391 5    572531.852 5    429249.51646  23450545.41046
  22398878.281 6  -1291258.480 6   -977391.77749  22398874.05549
  20685634.063 7     95371.941 7     72050.57049  20685633.79749
  23285747.906 5    211974.324 5    162004.09048  23285748.04348
  20534752.672 6   -811141.992 6   -613832.29348  20534748.73848
  22991968.125 5    206591.035 5    153440.78946  22991965.39546
  22188437.523 6    585528.434 6    448362.01249  22188435.93049
 20  5 16  3 16  1.0000000  0  8G01G04G07G08G09G11G16G27             0.000020208
  22413855.875 6  -1476113.246 6  -1101139.05149  22413856.58649
  23450873.805 4    574255.887 4    430592.91446  23450873.80946
  22398155.625 6  -1295056.895 6   -980351.58249  22398151.07849
  20685698.242 7     95708.980 7     72313.19549  20685697.66849
  23285878.438 5    212662.520 5    162540.34048  23285879.59048
  20534309.539 6   -813470.145 6   -615646.44548  20534305.68048
  22992087.141 5    207214.586 5    153926.66846  22992084.68046
  22188774.492 6    587299.914 6    449742.38349  22188772.98849
 20  5 16  3 16  2.0000000  0  8G01G04G07G08G09G11G16G27             0.000019636
  22413028.555 6  -1480459.789 6  -1104525.97349  22413029.11349
  23451201.859 5    575980.059 5    431936.43046  23451201.50446
  22397432.398 6  -1298854.930 6   -983311.07049  22397428.68849
  20685762.086 7     96046.371 7     72576.09849  20685761.45749
  23286009.992 5    213351.059 5    163076.85548  23286010.13348
  20533867.031 6   -815797.707 6   -617460.12548  20533862.82448
  22992205.383 5    207838.313 5    154412.68846  22992202.50046
  22189111.523 6    589071.551 6    451122.87949  22189110.06349
 20  5 16  3 16  3.0000000  0  8G01G04G07G08G09G11G16G27             0.000019062
  22412201.383 6  -1484806.191 6  -1107912.78149  22412202.36349
  23451530.086 4    577704.137 4    433279.85946  23451530.04346
  22396709.875 6  -1302652.781 6   -986270.42249  22396705.80549
  20685826.625 7     96383.949 7     72839.14549  20685826.15649
  23286141.219 5    214039.816 5    163613.55148  23286141.32448
  20533423.844 6   -818124.824 6   -619273.46548  20533419.81348
  22992323.914 5    208461.945 5    154898.62946  22992321.14546
  22189449.047 6    590843.188 6    452503.37549  22189447.14549
 20  5 16  3 16  4.0000000  0  8G01G04G07G08G09G11G16G27             0.000018490
  22411374.516 6  -1489152.395 6  -1111299.43049  22411375.38349
  23451858.070 5    579428.219 5    434623.30146  23451857.83646
  22395987.266 6  -1306450.344 6   -989229.55949  22395982.81649
  20685890.734 7     96721.785 7     73102.39549  20685890.50449
  23286272.813 5    214728.852 5    164150.45748  23286272.31648
  20532981.273 6   -820451.477 6   -621086.44548  20532977.19548
  22992442.555 5    209085.684 5    155384.65246  22992440.30946
  22189785.625 6    592614.855 6    453883.89149  22189784.41049
 20  5 16  3 16  5.0000000  0  8G01G04G07G08G09G11G16G27             0.000017918
  22410547.172 6  -1493498.273 6  -1114685.82449  22410547.74249
  23452186.531 4    581152.477 4    435966.87146  23452185.91846
  22395264.820 6  -1310247.547 6   -992188.41449  22395260.71949
  20685955.031 7     97060.012 7     73365.94949  20685954.33649
  23286404.141 5    215418.297 5    164687.68448  23286403.71548
  20532538.742 6   -822777.453 6   -622898.89848  20532534.74248
  22992561.719 5    209709.551 5    155870.78546  22992558.77346
  22190122.961 6    594386.699 6    455264.54749  22190121.74649
 20  5 16  3 16  6.0000000  0  8G01G04G07G08G09G11G16G27             0.000017345
  22409720.336 6  -1497843.883 6  -1118072.00849  22409721.63749
  23452514.906 5    582876.789 5    437310.48446  23452513.91846
  22394541.844 6  -1314044.465 6   -995147.06349  22394537.75049
  20686019.555 7     97398.520 7     73629.72349  20686018.96549
  23286535.250 5    216108.035 5    165225.14548  23286535.09448
  20532096.266 6   -825102.922 6   -624710.94548  20532092.21148
  22992680.266 5    210333.508 5    156356.99246  22992677.38346
  22190460.469 6    596158.648 6    456645.28549  22190458.94149
 20  5 16  3 16  7.0000000  0  8G01G04G07G08G09G11G16G27             0.000016771
  22408893.039 6  -1502189.164 6  -1121457.94149  22408894.55949
  23452842.352 5    584601.211 5    438654.19546  23452842.05546
  22393819.633 6  -1317840.996 6   -998105.39849  22393815.87149
  20686084.055 7     97737.422 7     73893.79749  20686083.14149
  23286666.617 5    216798.168 5    165762.90648  23286666.25448
  20531653.727 6   -827427.773 6   -626522.52048  20531649.81648
  22992799.359 5    210957.617 5    156843.32046  22992796.90246
  22190797.398 6    597930.742 6    458026.13749  22190796.05549
 20  5 16  3 16  8.0000000  0  8G01G04G07G08G09G11G16G27             0.000016199
  22408067.070 6  -1506534.262 6  -1124843.72349  22408067.63349
  23453170.352 5    586325.660 5    439997.91046  23453170.22746
  22393096.922 6  -1321637.293 6  -1001063.55949  22393093.02049
  20686148.750 7     98076.570 7     74158.07049  20686147.80549
  23286797.734 5    217488.559 5    166300.87148  23286797.29348
  20531211.406 6   -829752.156 6   -628333.72748  20531207.46148
  22992917.828 5    211581.738 5    157329.64146  22992915.34446
  22191134.977 6    599702.875 6    459407.02049  22191133.27749
 20  5 16  3 16  9.0000000  0  8G01G04G07G08G09G11G16G27             0.000015627
  22407240.539 6  -1510879.055 6  -1128229.27749  22407240.79749
  23453499.016 5    588050.211 5    441341.71546  23453498.53946
  22392374.742 6  -1325433.199 6  -1004021.40649  22392370.82049
  20686213.039 7     98416.098 7     74422.63749  20686212.96149
  23286929.469 5    218179.371 5    166839.16848  23286929.11748
  20530768.844 6   -832075.895 6   -630144.43048  20530764.91848
  22993037.063 5    212206.039 5    157816.10546  22993033.99246
  22191472.125 6    601475.180 6    460788.03549  22191470.66449
 20  5 16  3 16 10.0000000  0  8G01G04G07G08G09G11G16G27             0.000015055
  22406413.164 6  -1515223.594 6  -1131614.62949  22406413.93849
  23453827.148 5    589774.773 5    442685.52046  23453826.83246
  22391652.430 6  -1329228.867 6  -1006979.07049  22391648.89149
  20686278.047 7     98755.867 7     74687.39149  20686277.29749
  23287060.938 5    218870.430 5    167377.66448  23287060.36748
  20530326.938 6   -834399.152 6   -631954.75848  20530323.10248
  22993155.695 5    212830.352 5    158302.58646  22993153.01246
  22191809.563 6    603247.512 6    462169.07449  22191807.85549
 20  5 16  3 16 11.0000000  0  8G01G04G07G08G09G11G16G27             0.000014481
  22405586.430 6  -1519567.879 6  -1134999.78549  22405587.30149
  23454155.000 5    591499.422 5    444029.41446  23454154.62546
  22390930.086 6  -1333024.164 6  -1009936.43849  22390926.42649
  20686342.438 7     99095.984 7     74952.41449  20686342.17249
  23287192.609 5    219561.844 5    167916.42248  23287192.21148
  20529885.016 6   -836721.836 6   -633764.64548  20529880.73448
  22993274.492 5    213454.793 5    158789.16446  22993271.82846
  22192146.672 6    605020.035 6    463550.26249  22192144.98049
 20  5 16  3 16 12.0000000  0  8G01G04G07G08G09G11G16G27             0.000013908
  22404759.789 6  -1523911.715 6  -1138384.59849  22404760.78549
  23454483.234 5    593224.301 5    445373.46946  23454482.98846
  22390208.289 6  -1336818.984 6  -1012893.43849  22390204.24649
  20686407.430 7     99436.605 7     75217.84049  20686406.94149
  23287324.352 5    220253.762 5    168455.58248  23287324.24248
  20529442.797 6   -839043.781 6   -635573.95348  20529438.89148
  22993392.992 5    214079.484 5    159275.93046  22993390.43846
  22192483.648 6    606792.793 6    464931.62549  22192482.47349
 20  5 16  3 16 13.0000000  0  8G01G04G07G08G09G11G16G27             0.000013336
  22403933.531 6  -1528255.246 6  -1141769.16449  22403934.49649
  23454811.750 5    594949.309 5    446717.64546  23454811.51646
  22389486.203 6  -1340613.477 6  -1015850.18849  22389482.25049
  20686472.328 7     99777.582 7     75483.52749  20686472.12949
  23287455.633 5    220946.051 5    168995.02348  23287455.60248
  20529001.219 6   -841365.160 6   -637382.82048  20528997.09048
  22993512.250 5    214704.316 5    159762.80946  22993509.10946
  22192821.234 6    608565.707 6    466313.11749  22192819.63349
 20  5 16  3 16 14.0000000  0  8G01G04G07G08G09G11G16G27             0.000012764
  22403106.766 6  -1532598.379 6  -1145153.42249  22403107.91849
  23455139.742 5    596674.492 5    448061.94946  23455139.42246
  22388764.133 6  -1344407.512 6  -1018806.58249  22388760.04749
  20686537.398 7    100118.988 7     75749.56349  20686536.77049
  23287587.227 5    221638.805 5    169534.83248  23287587.19148
  20528559.539 6   -843685.859 6   -639191.16048  20528555.50848
  22993631.227 5    215329.379 5    160249.87146  22993628.15646
  22193158.633 6    610338.848 6    467694.78949  22193157.06649
 20  5 16  3 16 15.0000000  0  8G01G04G07G08G09G11G16G27             0.000012192
  22402280.758 6  -1536941.293 6  -1148537.51249  22402281.12549
  23455468.070 5    598399.715 5    449406.28546  23455467.60546
  22388041.969 6  -1348201.250 6  -1021762.74249  22388038.23049
  20686602.445 7    100460.656 7     76015.79349  20686601.69949
  23287719.156 5    222331.813 5    170074.83648  23287719.28548
  20528118.648 6   -846006.023 6   -640999.07448  20528114.18448
  22993750.156 5    215954.500 5    160736.97346  22993747.37546
  22193496.016 6    612112.066 6    469076.50849  22193494.73449
 20  5 16  3 16 16.0000000  0  8G01G04G07G08G09G11G16G27             0.000011620
  22401453.883 6  -1541283.953 6  -1151921.39849  22401454.53949
  23455795.898 5    600125.020 5    450750.66846  23455795.71146
  22387320.109 6  -1351994.691 6  -1024718.67249  22387316.39549
  20686667.461 7    100802.664 7     76282.29349  20686666.95349
  23287850.945 5    223025.176 5    170615.11748  23287851.37548
  20527676.852 6   -848325.645 6   -642806.57048  20527672.94548
  22993869.234 5    216579.730 5    161224.16046  22993865.99246
  22193833.305 6    613885.391 6    470458.32049  22193832.50449
 20  5 16  3 16 17.0000000  0  8G01G04G07G08G09G11G16G27             0.000011047
  22400627.797 6  -1545626.340 6  -1155305.07449  22400628.34049
  23456124.930 5    601850.371 5    452095.08246  23456124.75846
  22386598.406 6  -1355787.824 6  -1027674.35549  22386594.34449
  20686732.758 7    101144.980 7     76549.02749  20686732.18049
  23287983.164 5    223718.898 5    171155.67248  23287983.39548
  20527235.453 6   -850644.715 6   -644613.63748  20527231.32848
  22993988.570 5    217205.016 5    161711.39846  22993985.14146
  22194171.164 6    615658.809 6    471840.20349  22194169.24249
 20  5 16  3 16 18.0000000  0  8G01G04G07G08G09G11G16G27             0.000010475
  22399801.297 6  -1549968.363 6  -1158688.46949  22399802.10549
  23456453.141 5    603575.883 5    453439.62146  23456452.96146
  22385876.641 6  -1359580.559 6  -1030629.73449  22385872.77349
  20686797.758 7    101487.688 7     76816.07849  20686797.18449
  23288115.344 5    224412.984 5    171696.52048  23288115.34448
  20526794.508 6   -852963.156 6   -646420.21948  20526790.46548
  22994107.383 5    217830.484 5    162198.77746  22994103.85546
  22194508.531 6    617432.430 6    473222.24649  22194507.11749
 20  5 16  3 16 19.0000000  0  8G01G04G07G08G09G11G16G27             0.000009903
  22398975.172 6  -1554310.207 6  -1162071.71949  22398976.12149
  23456781.664 5    605301.418 5    454784.19146  23456781.25046
  22385155.070 6  -1363373.051 6  -1033584.93049  22385151.01649
  20686862.992 7    101830.652 7     77083.32049  20686862.53549
  23288247.078 5    225107.332 5    172237.56648  23288247.49648
  20526353.117 6   -855281.125 6   -648226.42648  20526349.09848
  22994226.195 5    218456.000 5    162686.20346  22994223.25446
  22194846.055 6    619206.082 6    474604.30949  22194844.60549
 20  5 16  3 16 20.0000000  0  8G01G04G07G08G09G11G16G27             0.000009329
  22398148.867 6  -1558651.793 6  -1165454.77349  22398149.64849
  23457109.805 5    607026.953 5    456128.77346  23457109.57846
  22384433.078 6  -1367165.207 6  -1036539.85549  22384429.57849
  20686928.211 7    102173.914 7     77350.80549  20686927.82849
  23288379.969 5    225802.063 5    172778.91048  23288379.74248
  20525912.258 6   -857598.531 6   -650032.19548  20525908.16448
  22994345.266 5    219081.590 5    163173.66446  22994342.06346
  22195183.797 6    620979.824 6    475986.44549  22195182.17249
 20  5 16  3 16 21.0000000  0  8G01G04G07G08G09G11G16G27             0.000008759
  22397322.852 6  -1562992.996 6  -1168837.53149  22397323.73049
  23457437.539 5    608752.684 5    457473.48846  23457437.92246
  22383711.914 6  -1370956.961 6  -1039494.46949  22383707.99649
  20686993.820 7    102517.621 7     77618.62949  20686993.44949
  23288512.398 5    226497.180 5    173320.55148  23288511.58648
  20525471.203 6   -859915.262 6   -651837.44148  20525467.52748
  22994464.477 5    219707.383 5    163661.29346  22994461.45346
  22195520.719 6    622753.797 6    477368.76249  22195519.80949
 20  5 16  3 16 22.0000000  0  8G01G04G07G08G09G11G16G27             0.000008184
  22396496.984 6  -1567333.730 6  -1172219.91849  22396497.81349
  23457766.648 4    610478.723 4    458818.43846  23457766.86746
  22382990.352 6  -1374748.176 6  -1042448.66449  22382986.39849
  20687059.039 7    102861.816 7     77886.83249  20687058.98049
  23288644.609 5    227192.824 5    173862.60948  23288644.55548
  20525030.695 6   -862231.262 6   -653642.11348  20525026.47348
  22994583.063 5    220333.480 5    164149.16846  22994580.66846
  22195858.602 6    624528.082 6    478751.32449  22195857.96149
 20  5 16  3 16 23.0000000  0  8G01G04G07G08G09G11G16G27             0.000007614
  22395671.055 6  -1571674.203 6  -1175602.09849  22395671.70349
  23458095.375 5    612204.809 5    460163.43446  23458094.91446
  22382268.969 6  -1378539.109 6  -1045402.63749  22382265.21549
  20687124.758 7    103206.367 7     78155.31349  20687124.53549
  23288776.672 5    227888.828 5    174404.94948  23288776.59848
  20524590.156 6   -864546.680 6   -655446.34048  20524586.06648
  22994702.328 5    220959.680 5    164637.10946  22994699.66446
  22196196.813 6    626302.465 6    480133.96149  22196195.13349
 20  5 16  3 16 24.0000000  0  8G01G04G07G08G09G11G16G27             0.000007040
  22394844.977 6  -1576014.422 6  -1178984.09049  22394845.55549
  23458423.711 5    613930.910 5    461508.44546  23458423.37146
  22381548.156 6  -1382329.730 6  -1048356.36749  22381543.48449
  20687190.266 6    103551.160 6     78423.98049  20687189.53149
  23288909.039 5    228585.113 5    174947.51248  23288909.59848
  20524149.523 6   -866861.582 6   -657250.15648  20524145.74648
  22994821.305 5    221585.965 5    165125.12546  22994818.76646
  22196534.094 6    628076.918 6    481516.64549  22196532.59049
 20  5 16  3 16 25.0000000  0  8G01G04G07G08G09G11G16G27             0.000006468
  22394019.258 6  -1580354.270 6  -1182365.78549  22394020.15649
  23458752.016 5    615657.180 5    462853.59846  23458752.32846
  22380826.422 6  -1386119.938 6  -1051309.77049  22380822.64549
  20687256.281 7    103896.414 7     78693.01249  20687255.93049
  23289041.813 5    229281.836 5    175490.41848  23289041.70748
  20523708.953 6   -869175.855 6   -659053.48848  20523705.25048
  22994940.273 5    222212.398 5    165613.26246  22994937.90646
  22196872.000 6    629851.590 6    482899.50849  22196870.35549
 20  5 16  3 16 26.0000000  0  8G01G04G07G08G09G11G16G27             0.000005898
  22393193.055 6  -1584693.977 6  -1185747.37949  22393194.07849
  23459080.352 5    617383.465 5    464198.75046  23459080.69146
  22380104.813 6  -1389909.945 6  -1054263.02349  22380101.14149
  20687321.742 7    104241.855 7     78962.18449  20687321.25049
  23289174.727 5    229978.785 5    176033.48848  23289174.20748
  20523268.898 6   -871489.656 6   -660856.44948  20523264.89848
  22995060.039 5    222838.852 5    166101.40246  22995057.44946
  22197209.344 6    631626.258 6    484282.36349  22197208.13349
 20  5 16  3 16 27.0000000  0  8G01G04G07G08G09G11G16G27             0.000005325
  22392368.125 6  -1589033.359 6  -1189128.71149  22392368.18849
  23459409.359 5    619109.785 5    465543.94146  23459409.01646
  22379384.094 6  -1393699.559 6  -1057215.97349  22379379.95349
  20687387.758 7    104587.660 7     79231.64149  20687387.44549
  23289307.195 5    230676.074 5    176576.83648  23289306.95748
  20522828.484 6   -873802.840 6   -662658.93448  20522824.91048
  22995179.289 5    223465.445 5    166589.64846  22995176.08246
  22197547.523 6    633401.066 6    485665.33249  22197545.89149
 20  5 16  3 16 28.0000000  0  8G01G04G07G08G09G11G16G27             0.000004753
  22391542.016 6  -1593372.441 6  -1192509.81349  22391542.33649
  23459737.828 5    620836.270 5    466889.24646  23459737.65646
  22378662.914 6  -1397488.852 6  -1060168.67249  22378658.90249
  20687453.281 7    104933.797 7     79501.35549  20687453.09049
  23289439.883 5    231373.785 5    177120.50048  23289439.99648
  20522388.578 6   -876115.473 6   -664460.98448  20522384.63348
  22995298.438 5    224092.152 5    167078.00046  22995295.32446
  22197884.977 6    635176.043 6    487048.42249  22197883.39549
 20  5 16  3 16 29.0000000  0  8G01G04G07G08G09G11G16G27             0.000004181
  22390715.867 6  -1597711.223 6  -1195890.67649  22390716.70349
  23460066.086 5    622562.801 5    468234.58246  23460066.64146
  22377941.859 6  -1401277.770 6  -1063121.07449  22377938.05149
  20687519.117 6    105280.297 6     79771.35549  20687518.91449
  23289572.758 5    232071.828 5    177664.42648  23289572.48048
  20521948.648 6   -878427.484 6   -666262.55148  20521944.35248
  22995418.242 5    224719.016 5    167566.45746  22995414.84046
  22198223.133 6    636951.164 6    488431.63749  22198221.12549
 20  5 16  3 16 30.0000000  0  8G01G04G07G08G09G11G16G27             0.000003609
  22389890.945 6  -1602049.648 6  -1199271.26649  22389891.33649
  23460394.422 5    624289.535 5    469580.09046  23460394.98446
  22377221.250 6  -1405066.289 6  -1066073.16449  22377217.22749
  20687585.352 6    105627.180 6     80041.65649  20687585.31349
  23289706.055 5    232770.293 5    178208.68448  23289705.81348
  20521509.078 6   -880738.859 6   -668063.61748  20521504.74648
  22995537.531 5    225346.035 5    168055.04346  22995533.97346
  22198560.711 6    638726.457 6    489814.97749  22198559.09049
 20  5 16  3 16 31.0000000  0  8G01G04G07G08G09G11G16G27             0.000003036
  22389065.047 6  -1606387.871 6  -1202651.69949  22389065.47349
  23460723.430 5    626016.238 5    470925.57046  23460723.19946
  22376500.195 6  -1408854.582 6  -1069025.07849  22376496.12549
  20687651.367 7    105974.340 7     80312.16849  20687651.03149
  23289838.656 5    233468.965 5    178753.09848  23289838.50848
  20521069.102 6   -883049.754 6   -669864.32048  20521065.28548
  22995656.625 5    225973.086 5    168543.65646  22995653.60246
  22198898.305 6    640501.793 6    491198.35949  22198897.41849
 20  5 16  3 16 32.0000000  0  8G01G04G07G08G09G11G16G27             0.000002464
  22388239.797 6  -1610725.676 6  -1206031.80549  22388240.30149
  23461051.594 5    627743.164 5    472271.22346  23461051.98446
  22375779.016 6  -1412642.375 6  -1071976.60549  22375775.67249
  20687717.523 7    106321.973 7     80583.05549  20687717.44149
  23289971.727 5    234168.203 5    179297.95748  23289971.75448
  20520629.477 6   -885359.941 6   -671664.46548  20520625.33648
  22995776.047 5    226600.402 5    169032.48046  22995773.10946
  22199236.211 6    642277.406 6    492581.95349  22199235.13749
 20  5 16  3 16 33.0000000  0  8G01G04G07G08G09G11G16G27             0.000001892
  22387414.242 6  -1615063.172 6  -1209411.66849  22387414.75449
  23461380.438 5    629470.199 5    473616.97346  23461380.75046
  22375058.836 6  -1416429.859 6  -1074927.89549  22375054.83249
  20687784.055 7    106669.945 7     80854.19549  20687783.25449
  23290104.453 5    234867.773 5    179843.07448  23290104.43048
  20520190.164 6   -887669.539 6   -673464.15248  20520186.19548
  22995895.250 5    227227.824 5    169521.38746  22995892.32446
  22199574.570 6    644053.129 6    493965.63749  22199572.83249
 20  5 16  3 16 34.0000000  0  8G01G04G07G08G09G11G16G27             0.000001320
  22386588.820 6  -1619400.352 6  -1212791.29349  22386589.41849
  23461709.438 5    631197.348 5    474962.79746  23461709.42646
  22374337.594 6  -1420216.934 6  -1077878.85948  22374334.21948
  20687850.281 7    107018.293 7     81125.64149  20687849.94549
  23290237.703 5    235567.727 5    180388.49248  23290237.99648
  20519750.672 6   -889978.523 6   -675263.35548  20519746.90648
  22996014.531 5    227855.434 5    170010.43046  22996011.45746
  22199912.438 6    645829.012 6    495349.43849  22199910.86749
 20  5 16  3 16 35.0000000  0  8G01G04G07G08G09G11G16G27             0.000000748
  22385763.813 6  -1623737.309 6  -1216170.73849  22385763.88749
  23462037.977 5    632924.547 5    476308.64846  23462037.99646
  22373617.016 6  -1424003.758 6  -1080829.63349  22373613.55949
  20687916.383 7    107366.875 7     81397.26649  20687916.30949
  23290370.906 5    236267.984 5    180934.14148  23290371.00848
  20519310.906 6   -892287.004 6   -677062.17648  20519307.10548
  22996134.219 5    228483.055 5    170499.48846  22996131.24646
  22200250.055 6    647604.992 6    496733.32049  22200248.96949
 20  5 16  3 16 36.0000000  0  8G01G04G07G08G09G11G16G27             0.000000177
  22384938.297 6  -1628074.031 6  -1219550.00049  22384939.09849
  23462367.063 5    634651.715 5    477654.48046  23462366.62946
  22372896.609 6  -1427790.324 6  -1083780.20749  22372892.94949
  20687982.961 7    107715.738 7     81669.10549  20687982.74649
  23290504.563 5    236968.492 5    181479.99648  23290504.25848
  20518872.180 6   -894594.973 6   -678860.59048  20518868.26248
  22996253.727 5    229110.758 5    170988.60246  22996250.23046
  22200588.211 6    649381.012 6    498117.22749  22200586.95749
 20  5 16  3 16 37.0000000  0  8G01G04G07G08G09G11G16G27            -0.000000395
  22384112.961 6  -1632410.414 6  -1222929.00449  22384113.75449
  23462695.563 5    636379.055 5    479000.46546  23462695.41446
  22372176.102 6  -1431576.473 6  -1086730.44949  22372172.57849
  20688049.211 7    108064.992 7     81941.24649  20688048.92249
  23290637.250 5    237669.387 5    182026.14548  23290638.15648
  20518433.250 6   -896902.336 6   -680658.53548  20518429.22348
  22996372.805 5    229738.602 5    171477.83646  22996369.88346
  22200926.328 6    651157.219 6    499501.28149  22200924.70749
 20  5 16  3 16 38.0000000  0  8G01G04G07G08G09G11G16G27            -0.000000967
  22383288.789 6  -1636746.594 6  -1226307.84449  22383288.52749
  23463024.648 5    638106.379 5    480346.44546  23463024.00846
  22371455.992 6  -1435362.387 6  -1089680.51249  22371452.10249
  20688115.586 7    108414.504 7     82213.59049  20688115.19549
  23290771.039 5    238370.590 5    182572.52748  23290771.44548
  20517993.859 6   -899209.172 6   -682456.07048  20517989.80948
  22996492.250 5    230366.527 5    171967.12546  22996489.55146
  22201264.203 6    652933.441 6    500885.35249  22201262.99249
 20  5 16  3 16 39.0000000  0  8G01G04G07G08G09G11G16G27            -0.000001539
  22382462.609 6  -1641082.371 6  -1229686.37149  22382463.53149
  23463353.406 5    639833.934 5    481692.59446  23463352.57846
  22370735.844 6  -1439147.828 6  -1092630.20349  22370731.87549
  20688182.617 7    108764.441 7     82486.26649  20688182.11349
  23290904.516 5    239072.238 5    183119.26248  23290905.07848
  20517555.258 6   -901515.328 6   -684253.07848  20517551.19548
  22996612.461 5    230994.637 5    172456.55546  22996609.14546
  22201602.000 6    654709.926 6    502269.62549  22201600.66049
 20  5 16  3 16 40.0000000  0  8G01G04G07G08G09G11G16G27            -0.000002111
  22381638.016 6  -1645417.852 6  -1233064.66849  22381638.27349
  23463681.969 5    641561.535 5    483038.76646  23463681.74646
  22370014.875 6  -1442932.926 6  -1095579.63749  22370011.46949
  20688249.102 7    109114.734 7     82759.22349  20688248.84449
  23291037.859 5    239774.227 5    183666.26248  23291038.58648
  20517116.438 6   -903820.926 6   -686049.65248  20517112.59448
  22996731.758 5    231622.883 5    172946.08646  22996728.78946
  22201940.047 6    656486.527 6    503653.98449  22201939.25849
 20  5 16  3 16 41.0000000  0  8G01G04G07G08G09G11G16G27            -0.000002682
  22380812.703 6  -1649753.074 6  -1236442.76649  22380812.91849
  23464010.219 5    643289.203 5    484384.99646  23464010.43446
  22369295.461 6  -1446717.750 6  -1098528.84449  22369291.48849
  20688315.844 7    109465.297 7     83032.39149  20688315.65649
  23291171.750 5    240476.570 5    184213.54348  23291172.44548
  20516677.563 6   -906125.980 6   -687845.79348  20516674.42248
  22996851.102 5    232251.199 5    173435.68046  22996848.17646
  22202278.766 6    658263.230 6    505038.43049  22202277.13749
 20  5 16  3 16 42.0000000  0  8G01G04G07G08G09G11G16G27            -0.000003254
  22379988.336 6  -1654088.109 6  -1239820.70749  22379988.14149
  23464339.266 5    645016.895 5    485731.24246  23464339.03146
  22368575.031 6  -1450502.262 6  -1101477.81649  22368570.95349
  20688382.617 7    109816.152 7     83305.78949  20688382.38349
  23291305.969 5    241179.145 5    184761.00448  23291306.00048
  20516239.305 6   -908430.516 6   -689641.53548  20516235.51248
  22996970.750 5    232879.559 5    173925.31646  22996967.55546
  22202616.844 6    660039.996 6    506422.92249  22202615.25849
 20  5 16  3 16 43.0000000  0  8G01G04G07G08G09G11G16G27            -0.000003826
  22379163.016 6  -1658422.832 6  -1243198.41049  22379163.17649
  23464667.773 5    646744.645 5    487077.54346  23464668.20346
  22367854.922 6  -1454286.488 6  -1104426.56649  22367851.14849
  20688449.266 7    110167.332 7     83579.43449  20688449.06649
  23291439.648 5    241882.074 5    185308.73448  23291439.77348
  20515800.719 6   -910734.488 6   -691436.83648  20515796.76248
  22997090.219 5    233508.035 5    174415.03946  22997087.24246
  22202954.547 6    661816.836 6    507807.47349  22202953.43849
 20  5 16  3 16 44.0000000  0  8G01G04G07G08G09G11G16G27            -0.000004398
  22378338.289 6  -1662757.277 6  -1246575.90249  22378338.77749
  23464996.641 5    648472.469 5    488423.90646  23464996.60946
  22367134.164 6  -1458070.352 6  -1107375.02749  22367130.80549
  20688516.102 7    110518.813 7     83853.31349  20688515.79749
  23291573.297 5    242585.344 5    185856.73448  23291573.37948
  20515362.227 6   -913037.906 6   -693231.70348  20515358.45748
  22997209.453 5    234136.602 5    174904.83246  22997206.83246
  22203292.852 6    663593.813 6    509192.13349  22203291.43849
 20  5 16  3 16 45.0000000  0  8G01G04G07G08G09G11G16G27            -0.000004971
  22377513.320 6  -1667091.367 6  -1249953.11349  22377514.02049
  23465325.813 5    650200.461 5    489770.39146  23465325.13746
  22366415.180 6  -1461853.844 6  -1110323.20349  22366411.10949
  20688583.086 7    110870.707 7     84127.51649  20688582.88749
  23291706.945 5    243288.980 5    186405.02348  23291707.49648
  20514924.484 6   -915340.688 6   -695026.08248  20514920.65248
  22997329.633 5    234765.344 5    175394.75846  22997326.33246
  22203630.906 6    665370.988 6    510576.93849  22203629.83249
 20  5 16  3 16 46.0000000  0  8G01G04G07G08G09G11G16G27            -0.000005541
  22376688.711 6  -1671425.113 6  -1253330.05549  22376689.25849
  23465654.266 5    651928.613 5    491117.00046  23465654.25046
  22365694.680 6  -1465636.895 6  -1113271.03549  22365691.29749
  20688650.266 7    111222.977 7     84402.01649  20688649.94949
  23291840.719 5    243993.066 5    186953.66848  23291841.39548
  20514486.148 6   -917642.836 6   -696819.96548  20514482.09448
  22997449.547 5    235394.289 5    175884.84446  22997446.21546
  22203969.320 6    667148.352 6    511961.89849  22203967.95349
 20  5 16  3 16 47.0000000  0  8G01G04G07G08G09G11G16G27            -0.000006113
  22375864.477 6  -1675758.449 6  -1256706.68049  22375864.54749
  23465983.281 5    653656.913 5    492463.72446  23465982.74246
  22364975.109 6  -1469419.516 6  -1116218.53149  22364971.49249
  20688717.422 7    111575.746 7     84676.89849  20688717.18049
  23291975.281 5    244697.633 5    187502.67648  23291975.31348
  20514048.555 6   -919944.293 6   -698613.30548  20514044.73848
  22997569.672 5    236023.445 5    176375.09846  22997565.68846
  22204307.313 6    668925.961 6    513347.04749  22204306.18049
 20  5 16  3 16 48.0000000  0  8G01G04G07G08G09G11G16G27            -0.000006685
  22375039.773 6  -1680091.441 6  -1260083.04349  22375039.95349
  23466312.195 5    655385.414 5    493810.59446  23466311.78146
  22364255.344 6  -1473201.723 6  -1119165.70349  22364251.63349
  20688784.602 7    111928.879 7     84952.06649  20688784.20349
  23292109.805 5    245402.594 5    188051.98848  23292109.87948
  20513610.414 6   -922245.086 6   -700406.13348  20513606.42648
  22997688.563 5    236652.773 5    176865.47746  22997685.50846
  22204645.750 6    670703.742 6    514732.33249  22204644.48849
 20  5 16  3 16 49.0000000  0  8G01G04G07G08G09G11G16G27            -0.000007256
  22374215.266 6  -1684424.301 6  -1263459.29349  22374215.80149
  23466641.438 5    657113.832 5    495157.41446  23466640.99246
  22363535.891 6  -1476983.742 6  -1122112.73449  22363531.84049
  20688851.602 7    112282.199 7     85227.37949  20688851.24649
  23292243.867 5    246107.730 5    188601.44548  23292243.94148
  20513172.570 6   -924545.484 6   -702198.65648  20513168.83648
  22997808.430 5    237282.094 5    177355.85546  22997805.05146
  22204984.188 6    672481.473 6    516117.57449  22204982.82049
 20  5 16  3 16 50.0000000  0  8G01G04G07G08G09G11G16G27            -0.000007828
  22373390.570 6  -1688756.949 6  -1266835.38349  22373391.13349
  23466970.383 4    658842.234 4    496504.21946  23466969.78546
  22362815.375 6  -1480765.520 6  -1125059.56649  22362812.44549
  20688919.070 7    112635.766 7     85502.88749  20688918.76649
  23292377.883 5    246813.117 5    189151.09448  23292378.06648
  20512734.484 6   -926845.383 6   -703990.78148  20512731.16048
  22997928.469 5    237911.430 5    177846.24246  22997924.75846
  22205322.086 6    674259.285 6    517502.87949  22205321.39549
 20  5 16  3 16 51.0000000  0  8G01G04G07G08G09G11G16G27            -0.000008400
  22372566.297 6  -1693089.133 6  -1270211.10949  22372566.79749
  23467298.984 5    660570.914 5    497851.24246  23467298.89546
  22362096.438 6  -1484546.746 6  -1128005.98049  22362092.53949
  20688986.375 7    112989.828 7     85778.78149  20688985.93449
  23292512.773 5    247519.059 5    189701.17648  23292512.52748
  20512297.367 6   -929144.535 6   -705782.32848  20512293.50048
  22998047.922 5    238541.063 5    178336.87146  22998044.69146
  22205660.602 6    676037.398 6    518888.42649  22205659.30949
 20  5 16  3 16 52.0000000  0  8G01G04G07G08G09G11G16G27            -0.000008970
  22371741.977 6  -1697421.000 6  -1273586.59049  22371742.34049
  23467628.305 5    662299.672 5    499198.31646  23467627.71946
  22361377.031 6  -1488327.660 6  -1130952.14549  22361373.16049
  20689053.672 7    113344.250 7     86054.94949  20689053.13349
  23292647.406 5    248225.371 5    190251.55148  23292646.66048
  20511859.938 6   -931443.086 6   -707573.41048  20511856.41048
  22998168.078 5    239170.820 5    178827.59846  22998164.77046
  22205999.055 6    677815.621 6    520274.04749  22205998.07449
 20  5 16  3 16 53.0000000  0  8G01G04G07G08G09G11G16G27            -0.000009542
  22370917.664 6  -1701752.602 6  -1276961.86349  22370917.91049
  23467957.195 5    664028.527 5    500545.47746  23467956.53546
  22360657.680 6  -1492108.215 6  -1133898.03549  22360653.96949
  20689121.289 7    113699.000 7     86331.37949  20689121.10549
  23292780.672 5    248931.996 5    190802.16448  23292781.26648
  20511422.516 6   -933741.086 6   -709364.05548  20511419.04748
  22998287.602 5    239800.691 5    179318.40246  22998284.75446
  22206337.344 6    679593.992 6    521659.79749  22206336.25049
 20  5 16  3 16 54.0000000  0  8G01G04G07G08G09G11G16G27            -0.000010113
  22370093.203 6  -1706083.855 6  -1280336.86749  22370093.74249
  23468285.602 5    665757.461 5    501892.71146  23468285.92646
  22359938.258 6  -1495888.430 6  -1136843.65249  22359934.45349
  20689188.734 6    114054.109 6     86608.08649  20689188.70349
  23292915.422 5    249638.996 5    191353.06648  23292916.21948
  20510985.820 6   -936038.449 6   -711154.21548  20510981.89148
  22998407.586 5    240430.688 5    179809.30146  22998404.21546
  22206675.945 6    681372.484 6    523045.62949  22206674.68449
 20  5 16  3 16 55.0000000  0  8G01G04G07G08G09G11G16G27            -0.000010685
  22369269.430 6  -1710414.926 6  -1283711.73049  22369269.96949
  23468615.453 5    667486.449 5    503239.96546  23468614.85946
  22359218.602 6  -1499668.363 6  -1139789.05549  22359215.12949
  20689256.391 7    114409.465 7     86884.98449  20689255.84449
  23293050.055 5    250346.266 5    191904.18848  23293050.53548
  20510548.594 6   -938335.363 6   -712944.00848  20510544.55548
  22998527.313 5    241060.762 5    180300.26246  22998524.24246
  22207014.336 6    683151.023 6    524431.50449  22207013.42649
 20  5 16  3 16 56.0000000  0  8G01G04G07G08G09G11G16G27            -0.000011257
  22368445.586 6  -1714745.656 6  -1287086.31649  22368445.55949
  23468943.641 5    669215.508 5    504587.27046  23468944.02746
  22358499.602 6  -1503447.910 6  -1142734.15649  22358495.82849
  20689324.148 6    114765.184 6     87162.16449  20689323.63749
  23293185.070 5    251053.957 5    192455.63748  23293185.20348
  20510111.500 6   -940631.633 6   -714733.31348  20510107.45348
  22998647.922 5    241690.965 5    180791.33246  22998644.18046
  22207352.883 6    684929.770 6    525817.53949  22207351.64849
 20  5 16  3 16 57.0000000  0  8G01G04G07G08G09G11G16G27            -0.000011827
  22367621.375 6  -1719076.094 6  -1290460.68049  22367621.39549
  23469273.078 5    670944.695 5    505934.69546  23469272.80546
  22357780.359 6  -1507227.121 6  -1145678.99249  22357776.95749
  20689391.844 6    115121.215 6     87439.59449  20689391.77049
  23293319.398 5    251761.953 5    193007.31648  23293320.10948
  20509674.336 6   -942927.328 6   -716522.16848  20509670.71548
  22998767.867 5    242321.301 5    181282.49646  22998764.05946
  22207691.164 6    686708.570 6    527203.61349  22207689.90249
 20  5 16  3 16 58.0000000  0  8G01G04G07G08G09G11G16G27            -0.000012400
  22366797.195 6  -1723406.195 6  -1293834.78149  22366797.43849
  23469601.672 4    672673.918 4    507282.13346  23469602.02046
  22357061.305 6  -1511006.012 6  -1148623.58249  22357057.50449
  20689459.727 6    115477.602 6     87717.29749  20689459.51649
  23293454.375 5    252470.297 5    193559.27348  23293454.53548
  20509238.313 6   -945222.445 6   -718310.57048  20509234.19548
  22998887.375 5    242951.734 5    181773.75046  22998883.81346
  22208029.547 6    688487.578 6    528589.85249  22208029.00849
 20  5 16  3 16 59.0000000  0  8G01G04G07G08G09G11G16G27            -0.000012970
  22365972.750 6  -1727736.082 6  -1297208.72349  22365973.41449
  23469931.195 5    674403.258 5    508629.67246  23469930.81346
  22356342.297 6  -1514784.547 6  -1151567.89149  22356338.79749
  20689527.523 6    115834.289 6     87995.24249  20689527.67249
  23293589.352 5    253179.004 5    194111.51248  23293589.43048
  20508801.211 6   -947516.992 6   -720098.53148  20508797.18048
  22999007.586 5    243582.289 5    182265.09846  22999004.21546
  22208368.594 6    690266.648 6    529976.14149  22208367.49649
 20  5 16  3 17  0.0000000  0  8G01G04G07G08G09G11G16G27            -0.000013542
  22365149.469 6  -1732065.637 6  -1300582.39849  22365149.72349
  23470260.461 5    676132.652 5    509977.24246  23470260.16446
  22355623.391 6  -1518562.750 6  -1154511.94949  22355619.64549
  20689595.609 6    116191.320 6     88273.44549  20689595.44149
  23293724.148 5    253888.043 5    194663.99648  23293724.37148
  20508365.133 6   -949810.984 6   -721886.05548  20508360.84448
  22999127.336 5    244212.953 5    182756.52046  22999124.45746
  22208706.625 6    692045.859 6    531362.53549  22208705.93049
 20  5 16  3 17  1.0000000  0  8G01G04G07G08G09G11G16G27            -0.000014112
  22364325.602 6  -1736394.945 6  -1303955.88749  22364325.82049
  23470589.313 5    677862.133 5    511324.88346  23470589.28546
  22354904.203 6  -1522340.617 6  -1157455.73849  22354900.80149
  20689663.609 7    116548.715 7     88551.93049  20689663.08249
  23293859.148 5    254597.395 5    195216.73848  23293859.22748
  20507928.344 6   -952104.410 6   -723673.14548  20507924.09048
  22999247.297 5    244843.719 5    183248.01646  22999244.10946
  22209045.602 6    693825.180 6    532749.01649  22209044.40649
 20  5 16  3 17  2.0000000  0  8G01G04G07G08G09G11G16G27            -0.000014685
  22363502.023 6  -1740723.773 6  -1307329.00049  22363502.05149
  23470918.836 5    679591.867 5    512672.73046  23470918.49646
  22354185.672 6  -1526117.988 6  -1160399.14849  22354181.91849
  20689731.781 7    116906.566 7     88830.77349  20689731.27749
  23293994.305 5    255307.277 5    195769.88748  23293994.30548
  20507491.914 6   -954397.066 6   -725459.62148  20507488.00848
  22999367.289 5    245474.773 5    183739.74246  22999364.12946
  22209384.617 6    695604.789 6    534135.72749  22209382.84049
 20  5 16  3 17  3.0000000  0  8G01G04G07G08G09G11G16G27            -0.000015255
  22362678.383 6  -1745052.230 6  -1310701.82449  22362678.91849
  23471247.945 4    681321.723 4    514020.67246  23471247.64146
  22353467.055 6  -1529894.957 6  -1163342.24249  22353463.34849
  20689799.852 7    117264.816 7     89109.93049  20689799.20349
  23294129.648 5    256017.563 5    196323.35948  23294129.50448
  20507056.102 6   -956689.109 6   -727245.63348  20507052.18848
  22999487.930 5    246106.008 5    184231.61346  22999484.48446
  22209722.859 6    697384.566 6    535522.57049  22209722.19949
 20  5 16  3 17  4.0000000  0  8G01G04G07G08G09G11G16G27            -0.000015827
  22361854.445 6  -1749380.375 6  -1314074.39849  22361855.09849
  23471577.016 5    683051.719 5    515368.72346  23471576.69946
  22352748.461 6  -1533671.539 6  -1166285.02749  22352744.55549
  20689868.539 7    117623.449 7     89389.38749  20689867.99649
  23294265.086 5    256728.250 5    196877.14148  23294264.64548
  20506619.703 6   -958980.547 6   -729031.17248  20506616.08248
  22999607.477 5    246737.406 5    184723.60946  22999604.68046
  22210061.023 6    699164.535 6    536909.55149  22210060.37149
 20  5 16  3 17  5.0000000  0  8G01G04G07G08G09G11G16G27            -0.000016397
  22361030.797 6  -1753708.262 6  -1317446.78149  22361031.51249
  23471905.883 4    684781.801 4    516716.83246  23471906.11746
  22352029.359 6  -1537447.805 6  -1169227.57449  22352025.51249
  20689936.773 7    117982.371 7     89669.06349  20689935.94549
  23294400.102 5    257439.246 5    197431.16448  23294400.12948
  20506184.039 6   -961271.398 6   -730816.25048  20506180.26648
  22999728.219 5    247368.879 5    185215.66846  22999724.39146
  22210400.477 6    700944.566 6    538296.59449  22210399.52749
 20  5 16  3 17  6.0000000  0  8G01G04G07G08G09G11G16G27            -0.000016970
  22360207.297 6  -1758035.938 6  -1320818.99249  22360208.23849
  23472235.281 5    686511.867 5    518064.92246  23472235.10246
  22351310.680 6  -1541223.781 6  -1172169.89149  22351307.51249
  20690004.977 7    118341.555 7     89948.95349  20690004.34049
  23294535.758 5    258150.527 5    197985.40648  23294535.86348
  20505747.844 6   -963561.777 6   -732600.95748  20505744.07048
  22999848.375 5    248000.379 5    185707.75446  22999844.99646
  22210739.391 6    702724.672 6    539683.68049  22210737.93449
 20  5 16  3 17  7.0000000  0  8G01G04G07G08G09G11G16G27            -0.000017540
  22359383.844 6  -1762363.082 6  -1324190.79349  22359384.28149
  23472565.070 5    688242.238 5    519413.26046  23472564.33646
  22350592.602 6  -1544999.270 6  -1175111.82849  22350589.03149
  20690073.172 7    118701.258 7     90229.23449  20690072.76649
  23294670.891 5    258862.320 5    198540.05548  23294671.11348
  20505312.594 6   -965851.379 6   -734385.06648  20505308.73048
  22999968.273 5    248632.207 5    186200.09446  22999964.89546
  22211077.977 6    704505.102 6    541071.03549  22211076.94149
 20  5 16  3 17  8.0000000  0  8G01G04G07G08G09G11G16G27            -0.000018110
  22358560.695 6  -1766690.063 6  -1327562.46549  22358561.15249
  23472894.141 5    689972.531 5    520761.53546  23472893.58646
  22349874.305 6  -1548774.492 6  -1178053.55949  22349870.62149
  20690141.922 7    119061.223 7     90509.73049  20690141.44549
  23294805.844 5    259574.406 5    199094.91448  23294806.14548
  20504876.523 6   -968140.473 6   -736168.77348  20504873.15248
  23000088.547 5    249264.090 5    186692.46146  23000085.34446
  22211416.641 6    706285.547 6    542458.39149  22211415.83249
 20  5 16  3 17  9.0000000  0  8G01G04G07G08G09G11G16G27            -0.000018682
  22357737.094 6  -1771016.629 6  -1330933.81349  22357737.89549
  23473224.031 5    691703.070 5    522110.01646  23473223.27346
  22349155.688 6  -1552549.234 6  -1180994.91849  22349152.04349
  20690210.320 7    119421.621 7     90790.55949  20690209.73449
  23294941.742 5    260286.910 5    199650.11348  23294942.21548
  20504441.117 6   -970428.891 6   -737951.96148  20504437.78548
  23000208.789 5    249896.195 5    187184.99646  23000205.49246
  22211755.398 6    708066.258 6    543845.95349  22211754.78149
 20  5 16  3 17 10.0000000  0  8G01G04G07G08G09G11G16G27            -0.000019253
  22356914.117 6  -1775342.859 6  -1334304.89849  22356914.86349
  23473552.406 5    693433.684 5    523458.55146  23473552.64546
  22348437.594 6  -1556323.656 6  -1183936.02049  22348433.67649
  20690278.695 7    119782.379 7     91071.66449  20690278.16849
  23295077.727 5    260999.801 5    200205.61748  23295077.80948
  20504005.766 6   -972716.734 6   -739734.69148  20504002.05948
  23000329.914 5    250528.398 5    187677.61746  23000326.23446
  22212094.555 6    709847.086 6    545233.61749  22212093.52749
 20  5 16  3 17 11.0000000  0  8G01G04G07G08G09G11G16G27            -0.000019823
  22356091.031 6  -1779668.828 6  -1337675.78549  22356091.43049
  23473882.117 5    695164.375 5    524807.13746  23473881.96146
  22347719.586 6  -1560097.707 6  -1186876.84049  22347715.58249
  20690347.633 7    120143.445 7     91353.02049  20690347.44149
  23295213.391 5    261713.031 5    200761.37948  23295212.98848
  20503570.641 6   -975003.984 6   -741516.96148  20503567.04748
  23000449.391 5    251160.711 5    188170.32446  23000446.03546
  22212433.641 6    711628.051 6    546621.37549  22212432.25449
 20  5 16  3 17 12.0000000  0  8G01G04G07G08G09G11G16G27            -0.000020395
  22355267.563 6  -1783994.559 6  -1341046.48049  22355268.18449
  23474211.359 5    696895.117 5    526155.76246  23474210.99246
  22347001.336 6  -1563871.488 6  -1189817.44949  22346997.28949
  20690416.617 7    120504.820 7     91634.61349  20690415.92249
  23295348.805 5    262426.522 5    201317.34548  23295349.45748
  20503135.695 6   -977290.703 6   -743298.82048  20503131.85248
  23000569.883 5    251793.133 5    188663.14146  23000566.53546
  22212772.398 6    713409.066 6    548009.18049  22212771.27349
 20  5 16  3 17 13.0000000  0  8G01G04G07G08G09G11G16G27            -0.000020966
  22354444.695 6  -1788320.016 6  -1344416.96949  22354445.33249
  23474540.781 5    698625.914 5    527504.43446  23474540.79346
  22346283.586 6  -1567644.945 6  -1192757.80949  22346279.26249
  20690485.258 7    120866.484 7     91916.42249  20690484.87949
  23295485.555 5    263140.391 5    201873.60548  23295485.13748
  20502700.586 6   -979576.891 6   -745080.27048  20502696.67648
  23000690.242 5    252425.633 5    189155.98846  23000686.84046
  22213111.148 6    715190.191 6    549397.06349  22213110.07849
 20  5 16  3 17 14.0000000  0  8G01G04G07G08G09G11G16G27            -0.000021536
  22353621.633 6  -1792645.078 6  -1347787.14549  22353622.20749
  23474870.414 4    700356.852 4    528853.20746  23474869.96946
  22345565.008 6  -1571417.969 6  -1195697.82449  22345561.25449
  20690554.047 7    121228.586 7     92198.58249  20690553.63349
  23295621.078 5    263854.656 5    202430.17248  23295621.19948
  20502265.375 6   -981862.402 6   -746861.19148  20502261.98848
  23000810.750 5    253058.340 5    189648.99646  23000807.19146
  22213450.055 6    716971.523 6    550785.11749  22213449.05149
 20  5 16  3 17 15.0000000  0  8G01G04G07G08G09G11G16G27            -0.000022106
  22352798.352 6  -1796969.941 6  -1351157.16449  22352799.48449
  23475199.305 4    702087.805 4    530202.00446  23475199.86346
  22344847.320 6  -1575190.750 6  -1198637.65649  22344843.41849
  20690623.578 7    121590.922 7     92480.92249  20690622.60949
  23295756.992 5    264569.184 5    202986.94548  23295757.00848
  20501830.828 6   -984147.430 6   -748641.73048  20501826.77048
  23000930.891 5    253691.051 5    190142.02746  23000928.09046
  22213788.938 6    718752.859 6    552173.17249  22213787.94949
 20  5 16  3 17 16.0000000  0  8G01G04G07G08G09G11G16G27            -0.000022678
  22351975.305 6  -1801294.406 6  -1354526.88349  22351976.75849
  23475528.492 4    703818.949 4    531550.93846  23475528.75446
  22344129.875 6  -1578963.070 6  -1201577.12549  22344125.46149
  20690692.719 7    121953.695 7     92763.60249  20690691.94949
  23295893.180 5    265284.141 5    203544.04348  23295892.96548
  20501395.930 6   -986431.789 6   -750421.74248  20501392.20748
  23001051.430 5    254323.980 5    190635.21946  23001047.82846
  22214128.477 6    720534.469 6    553561.43849  22214127.25049
 20  5 16  3 17 17.0000000  0  8G01G04G07G08G09G11G16G27            -0.000023249
  22351152.625 6  -1805618.480 6  -1357896.28549  22351153.81649
  23475858.156 4    705550.254 4    532900.00046  23475858.52346
  22343411.492 6  -1582734.980 6  -1204516.27049  22343407.89149
  20690761.617 7    122316.887 7     93046.60949  20690760.57449
  23296029.000 5    265999.570 5    204101.52048  23296029.53148
  20500961.492 6   -988715.488 6   -752201.25048  20500957.58648
  23001171.695 5    254957.117 5    191128.58246  23001168.47346
  22214467.898 6    722316.250 6    554949.84049  22214466.52749
 20  5 16  3 17 18.0000000  0  8G01G04G07G08G09G11G16G27            -0.000023819
  22350329.914 6  -1809942.180 6  -1361265.40249  22350330.35949
  23476187.930 4    707281.723 4    534249.19146  23476187.73846
  22342693.805 6  -1586506.445 6  -1207455.07849  22342690.29749
  20690830.281 7    122680.527 7     93329.96149  20690829.87549
  23296165.203 5    266715.410 5    204659.31648  23296165.37948
  20500527.258 6   -990998.496 6   -753980.21948  20500523.41048
  23001292.656 5    255590.484 5    191622.10946  23001288.80546
  22214806.328 6    724098.277 6    556338.43049  22214805.32049
 20  5 16  3 17 19.0000000  0  8G01G04G07G08G09G11G16G27            -0.000024389
  22349507.516 6  -1814265.684 6  -1364634.36749  22349508.05549
  23476517.719 5    709013.220 5    535598.41546  23476517.02046
  22341976.594 6  -1590277.680 6  -1210393.70349  22341972.46949
  20690900.000 7    123044.383 7     93613.48449  20690899.55549
  23296301.742 5    267431.484 5    205217.29348  23296301.64548
  20500092.844 6   -993281.027 6   -755758.81348  20500089.24248
  23001413.023 5    256223.875 5    192115.66446  23001409.60546
  22215145.352 6    725880.313 6    557727.03149  22215144.64849
 20  5 16  3 17 20.0000000  0  8G01G04G07G08G09G11G16G27            -0.000024961
  22348684.234 6  -1818589.063 6  -1368003.23449  22348685.10949
  23476847.789 5    710744.551 5    536947.49246  23476846.72746
  22341258.914 6  -1594048.695 6  -1213332.15249  22341254.79349
  20690969.102 7    123408.395 7     93897.13349  20690968.28549
  23296438.031 5    268147.777 5    205775.44548  23296438.00448
  20499658.641 6   -995563.164 6   -757537.10548  20499654.85948
  23001533.648 5    256857.191 5    192609.15246  23001530.14846
  22215484.617 6    727662.297 6    559115.58649  22215483.82449
 20  5 16  3 17 21.0000000  0  8G01G04G07G08G09G11G16G27            -0.000025532
  22347861.859 6  -1822912.059 6  -1371371.79749  22347862.32449
  23477176.516 5    712476.090 5    538296.73846  23477176.26646
  22340540.922 6  -1597819.324 6  -1216270.30949  22340537.26249
  20691038.367 7    123772.844 7     94181.12549  20691037.52749
  23296574.719 5    268864.445 5    206333.88748  23296574.34848
  20499224.211 6   -997844.625 6   -759314.86748  20499220.78548
  23001654.383 5    257490.730 5    193102.81646  23001650.70746
  22215823.680 6    729444.520 6    560504.32849  22215822.75449
 20  5 16  3 17 22.0000000  0  8G01G04G07G08G09G11G16G27            -0.000026102
  22347039.086 6  -1827234.773 6  -1374740.14149  22347040.07049
  23477505.789 5    714207.723 5    539646.07046  23477505.94946
  22339824.047 6  -1601589.598 6  -1219208.18448  22339820.22348
  20691107.906 7    124137.586 7     94465.33649  20691107.13749
  23296710.742 5    269581.484 5    206892.61348  23296710.72748
  20498790.234 6  -1000125.516 6   -761092.18448  20498786.75848
  23001774.461 5    258124.379 5    193596.57046  23001771.11346
  22216162.883 6    731226.836 6    561893.14849  22216162.02349
 20  5 16  3 17 23.0000000  0  8G01G04G07G08G09G11G16G27            -0.000026672
  22346216.563 6  -1831557.211 6  -1378108.28149  22346217.32049
  23477835.602 5    715939.367 5    540995.40646  23477834.92646
  22339106.273 6  -1605359.559 6  -1222145.81649  22339102.48449
  20691177.289 7    124502.664 7     94749.81349  20691176.64849
  23296847.617 5    270298.832 5    207451.59048  23296847.29348
  20498356.383 6  -1002405.863 6   -762869.07848  20498352.29748
  23001895.492 5    258758.133 5    194090.39146  23001891.61746
  22216501.883 6    733009.277 6    563282.07049  22216501.10249
 20  5 16  3 17 24.0000000  0  8G01G04G07G08G09G11G16G27            -0.000027243
  22345394.156 6  -1835879.332 6  -1381476.16449  22345395.34449
  23478164.922 5    717671.180 5    542344.86746  23478164.51246
  22338389.117 6  -1609129.172 6  -1225083.17649  22338385.33249
  20691247.016 7    124868.051 7     95034.53549  20691246.15249
  23296983.414 5    271016.527 5    208010.82848  23296984.01248
  20497922.570 6  -1004685.609 6   -764645.50848  20497918.64548
  23002016.227 5    259391.992 5    194584.31346  23002012.50846
  22216841.352 6    734791.836 6    564671.07049  22216840.35249
 20  5 16  3 17 25.0000000  0  8G01G04G07G08G09G11G16G27            -0.000027815
  22344571.664 6  -1840201.070 6  -1384843.75049  22344572.36749
  23478493.977 5    719403.125 5    543694.42646  23478494.19946
  22337671.891 6  -1612898.332 6  -1228020.18049  22337667.66849
  20691316.625 7    125233.867 7     95319.57849  20691315.71549
  23297120.148 5    271734.688 5    208570.43048  23297120.18848
  20497488.781 6  -1006964.707 6   -766421.43048  20497484.88348
  23002137.031 5    260026.086 5    195078.41846  23002133.13346
  22217180.609 6    736574.594 6    566060.22749  22217179.73849
 20  5 16  3 17 26.0000000  0  8G01G04G07G08G09G11G16G27            -0.000028385
  22343750.031 6  -1844522.520 6  -1388211.10949  22343750.18449
  23478823.969 5    721135.072 5    545044.00746  23478823.68846
  22336954.203 6  -1616667.180 6  -1230956.94949  22336950.89149
  20691386.219 7    125599.984 7     95604.86749  20691385.69149
  23297256.867 5    272453.156 5    209130.27748  23297257.14548
  20497055.250 6  -1009243.223 6   -768196.89148  20497051.16048
  23002257.438 5    260660.262 5    195572.57846  23002253.96946
  22217519.945 6    738357.480 6    567449.48849  22217518.80949
 20  5 16  3 17 27.0000000  0  8G01G04G07G08G09G11G16G27            -0.000028955
  22342927.492 6  -1848843.637 6  -1391578.21149  22342927.87949
  23479153.391 5    722867.230 5    546393.73846  23479153.62146
  22336237.805 6  -1620435.621 6  -1233893.39149  22336233.68049
  20691456.039 7    125966.484 7     95890.45349  20691455.26249
  23297393.750 5    273172.020 5    209690.43048  23297393.98048
  20496621.805 6  -1011521.121 6   -769971.87948  20496618.24648
  23002377.969 5    261294.625 5    196066.88346  23002374.74646
  22217858.969 6    740140.535 6    568838.87949  22217858.51249
 20  5 16  3 17 28.0000000  0  8G01G04G07G08G09G11G16G27            -0.000029526
  22342105.156 6  -1853164.469 6  -1394945.09049  22342105.87549
  23479483.445 5    724599.484 5    547743.53946  23479483.26246
  22335520.664 6  -1624203.723 6  -1236829.57849  22335516.48049
  20691525.719 7    126333.289 7     96176.27049  20691524.93449
  23297530.922 5    273891.246 5    210250.86348  23297530.49248
  20496188.211 6  -1013798.473 6   -771746.43848  20496185.13348
  23002498.617 5    261929.090 5    196561.26646  23002494.87146
  22218198.570 6    741923.707 6    570228.36349  22218197.58649
 20  5 16  3 17 29.0000000  0  8G01G04G07G08G09G11G16G27            -0.000030096
  22341282.547 6  -1857485.027 6  -1398311.75849  22341283.71949
  23479811.922 5    726331.746 5    549093.35546  23479812.72746
  22334803.273 6  -1627971.527 6  -1239765.52749  22334799.56349
  20691595.359 7    126700.410 7     96462.34049  20691595.05949
  23297668.070 5    274610.766 5    210811.52748  23297667.66448
  20495754.773 6  -1016075.238 6   -773520.54348  20495751.30948
  23002619.406 5    262563.641 5    197055.71546  23002615.62146
  22218537.320 6    743706.957 6    571617.91049  22218536.44949
 20  5 16  3 17 30.0000000  0  8G01G04G07G08G09G11G16G27            -0.000030666
  22340460.719 6  -1861805.336 6  -1401678.23449  22340461.36749
  23480142.211 5    728064.031 5    550443.19146  23480142.35946
  22334086.578 6  -1631739.020 6  -1242701.23849  22334082.87949
  20691665.219 6    127067.797 6     96748.61349  20691664.43449
  23297804.289 5    275330.574 5    211372.41848  23297804.90648
  20495322.117 6  -1018351.480 6   -775294.23448  20495318.42248
  23002740.078 5    263198.266 5    197550.23046  23002736.65646
  22218877.375 6    745490.273 6    573007.50449  22218876.47349
 20  5 16  3 17 31.0000000  0  8G01G04G07G08G09G11G16G27            -0.000031237
  22339638.578 6  -1866125.453 6  -1405044.55949  22339639.55949
  23480472.195 5    729796.320 5    551793.02046  23480471.91046
  22333369.758 6  -1635506.266 6  -1245636.75049  22333366.10249
  20691735.250 7    127435.473 7     97035.11749  20691734.55949
  23297941.250 5    276050.645 5    211933.50448  23297941.66848
  20494888.633 6  -1020627.238 6   -777067.55548  20494885.15648
  23002861.078 5    263832.922 5    198044.77346  23002857.64146
  22219216.367 6    747273.664 6    574397.15649  22219215.87149
 20  5 16  3 17 32.0000000  0  8G01G04G07G08G09G11G16G27            -0.000031807
  22338816.523 6  -1870445.207 6  -1408410.59049  22338817.75049
  23480801.820 5    731528.738 5    553142.94946  23480801.59046
  22332653.055 6  -1639273.094 6  -1248571.94549  22332649.39849
  20691805.500 7    127803.543 7     97321.92649  20691804.81349
  23298079.281 5    276771.133 5    212494.92248  23298078.39848
  20494456.328 6  -1022902.371 6   -778840.38748  20494452.17248
  23002981.977 5    264467.738 5    198539.43046  23002978.28546
  22219555.820 6    749057.227 6    575786.94549  22219554.89549
 20  5 16  3 17 33.0000000  0  8G01G04G07G08G09G11G16G27            -0.000032377
  22337994.578 6  -1874764.539 6  -1411776.31349  22337995.52049
  23481131.766 5    733261.340 5    554493.02746  23481131.25046
  22331935.930 6  -1643039.508 6  -1251506.81349  22331932.09849
  20691875.445 7    128172.039 7     97609.06349  20691874.94549
  23298215.906 5    277492.035 5    213056.65648  23298215.87148
  20494022.648 6  -1025176.836 6   -780612.69548  20494019.30548
  23003101.820 5    265102.766 5    199034.25846  23003099.22746
  22219895.297 6    750840.980 6    577176.88749  22219894.51249
 20  5 16  3 17 34.0000000  0  8G01G04G07G08G09G11G16G27            -0.000032948
  22337172.617 6  -1879083.703 6  -1415141.88749  22337173.57449
  23481460.789 5    734993.941 5    555843.10546  23481461.13746
  22331219.398 6  -1646805.633 6  -1254441.45349  22331215.64549
  20691945.711 7    128540.762 7     97896.38349  20691945.47749
  23298353.406 5    278213.215 5    213618.61748  23298353.08248
  20493590.438 6  -1027450.785 6   -782384.60248  20493586.90648
  23003223.297 5    265737.855 5    199529.13346  23003220.09446
  22220235.047 6    752624.793 6    578566.87149  22220234.32449
 20  5 16  3 17 35.0000000  0  8G01G04G07G08G09G11G16G27            -0.000033518
  22336351.133 6  -1883402.527 6  -1418507.20349  22336351.51649
  23481790.984 4    736726.637 4    557193.25046  23481790.82046
  22330502.422 6  -1650571.430 6  -1257375.84049  22330498.92249
  20692015.961 7    128909.824 7     98183.96149  20692015.20349
  23298490.492 5    278934.699 5    214180.81348  23298490.60948
  20493157.617 6  -1029724.172 6   -784156.07448  20493153.98448
  23003343.922 5    266373.031 5    200024.06346  23003340.76646
  22220574.516 6    754408.719 6    579956.93849  22220573.42649
 20  5 16  3 17 36.0000000  0  8G01G04G07G08G09G11G16G27            -0.000034090
  22335528.875 6  -1887721.113 6  -1421872.33649  22335529.85949
  23482120.852 5    738459.363 5    558543.43046  23482120.76246
  22329786.469 6  -1654336.895 6  -1260309.96549  22329782.23849
  20692086.453 7    129279.184 7     98471.77349  20692086.06649
  23298627.875 5    279656.535 5    214743.27748  23298627.67248
  20492725.273 6  -1031997.004 6   -785927.10948  20492721.58648
  23003465.195 5    267008.305 5    200519.07846  23003461.60946
  22220913.391 6    756192.734 6    581347.07849  22220912.71549
 20  5 16  3 17 37.0000000  0  8G01G04G07G08G09G11G16G27            -0.000034660
  22334707.617 6  -1892039.414 6  -1425237.24249  22334707.95749
  23482450.336 4    740192.148 4    559893.65646  23482449.98846
  22329069.875 6  -1658102.047 6  -1263243.85249  22329065.80549
  20692156.828 7    129648.879 7     98759.84449  20692156.32049
  23298765.445 5    280378.688 5    215305.99648  23298765.12548
  20492293.000 6  -1034269.305 6   -787697.73048  20492289.50848
  23003586.117 5    267643.684 5    201014.18446  23003582.45746
  22221253.313 6    757976.859 6    582737.30549  22221252.25049
 20  5 16  3 17 38.0000000  0  8G01G04G07G08G09G11G16G27            -0.000035231
  22333885.797 6  -1896357.379 6  -1428601.89149  22333886.39549
  23482779.836 5    741925.074 5    561243.98846  23482779.81346
  22328353.258 6  -1661866.809 6  -1266177.43049  22328349.69149
  20692226.984 7    130018.957 7     99048.21549  20692226.60249
  23298903.148 5    281101.227 5    215869.00848  23298902.58648
  20491860.461 6  -1036540.930 6   -789467.83648  20491856.98848
  23003706.984 5    268279.246 5    201509.42646  23003703.91846
  22221592.586 6    759761.164 6    584127.66849  22221591.39849
 20  5 16  3 17 39.0000000  0  8G01G04G07G08G09G11G16G27            -0.000035801
  22333064.414 6  -1900675.063 6  -1431966.32049  22333065.02349
  23483110.141 5    743658.059 5    562594.36346  23483109.78146
  22327637.133 6  -1665631.254 6  -1269110.76249  22327633.37149
  20692297.844 6    130389.301 6     99336.79749  20692297.30549
  23299039.867 5    281824.078 5    216432.26648  23299040.41448
  20491428.320 6  -1038812.047 6   -791237.53548  20491424.58248
  23003827.477 5    268914.867 5    202004.71946  23003824.68446
  22221932.352 6    761545.527 6    585518.08249  22221931.38749
 20  5 16  3 17 40.0000000  0  8G01G04G07G08G09G11G16G27            -0.000036371
  22332242.508 6  -1904992.449 6  -1435330.51249  22332243.45349
  23483439.563 4    745391.129 4    563944.80146  23483439.53146
  22326920.633 6  -1669395.348 6  -1272043.82449  22326916.90649
  20692368.133 6    130760.000 6     99625.65649  20692367.22349
  23299177.477 5    282547.273 5    216995.79748  23299178.09848
  20490996.125 6  -1041082.563 6   -793006.76648  20490992.64548
  23003949.156 5    269550.625 5    202500.11746  23003945.92246
  22222272.031 6    763330.039 6    586908.60949  22222271.28949
 20  5 16  3 17 41.0000000  0  8G01G04G07G08G09G11G16G27            -0.000036942
  22331421.297 6  -1909309.602 6  -1438694.52749  22331422.06649
  23483769.828 4    747124.188 4    565295.23446  23483769.46146
  22326204.297 6  -1673159.117 6  -1274976.64149  22326200.75049
  20692438.516 7    131130.973 7     99914.72349  20692438.25449
  23299315.781 5    283270.758 5    217559.54748  23299315.57048
  20490564.445 6  -1043352.555 6   -794775.59448  20490560.68448
  23004070.148 5    270186.430 5    202995.54346  23004066.79746
  22222611.258 6    765114.637 6    588299.19949  22222610.50849
 20  5 16  3 17 42.0000000  0  8G01G04G07G08G09G11G16G27            -0.000037512
  22330599.641 6  -1913626.406 6  -1442058.27049  22330600.07049
  23484099.602 5    748857.333 5    566645.73746  23484099.22346
  22325488.289 6  -1676922.570 6  -1277909.20349  22325485.10949
  20692509.023 7    131502.270 7    100204.03949  20692508.84849
  23299454.344 5    283994.645 5    218123.61348  23299453.50048
  20490132.531 6  -1045621.965 6   -796543.96948  20490129.12948
  23004190.852 5    270822.379 5    203491.07846  23004187.66446
  22222950.836 6    766899.332 6    589689.87149  22222950.42249
 20  5 16  3 17 43.0000000  0  8G01G04G07G08G09G11G16G27            -0.000038082
  22329778.414 6  -1917942.938 6  -1445421.79749  22329779.00849
  23484429.258 4    750590.617 4    567996.35246  23484429.07046
  22324771.781 6  -1680685.695 6  -1280841.50449  22324768.18049
  20692579.867 7    131873.926 7    100493.64549  20692579.43049
  23299591.195 5    284718.820 5    218687.89848  23299591.11748
  20489700.695 6  -1047890.824 6   -798311.90248  20489697.32448
  23004312.344 5    271458.449 5    203986.70746  23004308.54346
  22223290.703 6    768684.156 6    591080.64549  22223289.98849
 20  5 16  3 17 44.0000000  0  8G01G04G07G08G09G11G16G27            -0.000038652
  22328956.961 6  -1922259.207 6  -1448785.12149  22328957.57449
  23484759.172 5    752323.879 5    569346.92646  23484758.45746
  22324055.984 6  -1684448.465 6  -1283773.52749  22324052.64849
  20692650.781 7    132245.863 7    100783.46949  20692650.50049
  23299729.570 5    285443.316 5    219252.44148  23299729.18848
  20489269.133 6  -1050159.141 6   -800079.42248  20489265.45348
  23004433.094 5    272094.613 5    204482.43446  23004429.21146
  22223629.906 6    770469.090 6    592471.50049  22223629.60549
 20  5 16  3 17 45.0000000  0  8G01G04G07G08G09G11G16G27            -0.000039223
  22328135.680 6  -1926575.219 6  -1452148.24649  22328136.32849
  23485088.938 5    754057.234 5    570697.59046  23485088.25446
  22323339.945 6  -1688210.922 6  -1286705.31349  22323336.50849
  20692721.578 7    132618.094 7    101073.52049  20692721.09849
  23299867.273 5    286168.121 5    219817.22348  23299866.93848
  20488837.672 6  -1052426.891 6   -801846.50048  20488834.22748
  23004554.250 5    272730.840 5    204978.18846  23004550.79346
  22223970.031 6    772254.121 6    593862.43049  22223968.90649
 20  5 16  3 17 46.0000000  0  8G01G04G07G08G09G11G16G27            -0.000039793
  22327314.375 6  -1930890.977 6  -1455511.17249  22327315.21549
  23485418.805 5    755790.645 5    572048.29746  23485418.12946
  22322624.094 6  -1691973.082 6  -1289636.86349  22322620.55549
  20692792.602 7    132990.621 7    101363.80149  20692791.94149
  23300005.445 5    286893.238 5    220382.25048  23300004.86348
  20488406.188 6  -1054694.094 6   -803613.15248  20488402.29748
  23004675.461 5    273367.148 5    205474.01646  23004671.30546
  22224309.930 6    774039.215 6    595253.42249  22224308.94549
 20  5 16  3 17 47.0000000  0  8G01G04G07G08G09G11G16G27            -0.000040363
  22326492.875 6  -1935206.328 6  -1458873.78149  22326493.93049
  23485748.453 5    757524.164 5    573399.09046  23485748.38746
  22321908.367 6  -1695734.797 6  -1292568.06649  22321904.55949
  20692863.445 7    133363.559 7    101654.39849  20692863.22349
  23300143.273 5    287618.746 5    220947.59048  23300143.31348
  20487974.641 6  -1056960.660 6   -805379.31348  20487971.04348
  23004796.344 5    274003.672 5    205970.00446  23004792.66846
  22224649.711 6    775824.496 6    596644.54749  22224648.50449
 20  5 16  3 17 48.0000000  0  8G01G04G07G08G09G11G16G27            -0.000040932
  22325671.984 6  -1939521.449 6  -1462236.21549  22325672.50049
  23486078.617 5    759257.754 5    574749.93846  23486078.05146
  22321192.633 6  -1699496.254 6  -1295499.07049  22321189.08249
  20692934.766 6    133736.770 6    101945.21149  20692934.08249
  23300281.398 5    288344.594 5    221513.18048  23300281.41048
  20487543.805 6  -1059226.672 6   -807145.03548  20487539.87548
  23004917.320 5    274640.262 5    206466.03946  23004913.54746
  22224989.266 6    777609.867 6    598035.74649  22224988.44549
 20  5 16  3 17 49.0000000  0  8G01G04G07G08G09G11G16G27            -0.000041502
  22324851.367 6  -1943836.156 6  -1465598.32449  22324851.86749
  23486408.586 5    760991.488 5    576100.89846  23486407.94946
  22320476.883 6  -1703257.254 6  -1298429.71949  22320473.26649
  20693005.742 6    134110.414 6    102236.36349  20693005.01649
  23300419.344 5    289070.816 5    222079.06348  23300419.41848
  20487112.398 6  -1061492.023 6   -808910.24248  20487108.52048
  23005038.609 5    275277.035 5    206962.23846  23005034.83246
  22225329.172 6    779395.438 6    599427.09449  22225328.11349
 20  5 16  3 17 50.0000000  0  8G01G04G07G08G09G11G16G27            -0.000042072
  22324029.977 6  -1948150.574 6  -1468960.21149  22324030.56349
  23486737.953 5    762725.355 5    577451.96546  23486737.98846
  22319761.281 6  -1707017.867 6  -1301360.07449  22319757.74649
  20693076.953 7    134484.379 7    102527.76249  20693076.61349
  23300557.992 5    289797.445 5    222645.26648  23300557.94148
  20486681.398 6  -1063756.777 6   -810674.98048  20486677.68848
  23005159.703 5    275913.996 5    207458.57046  23005156.27046
  22225668.789 6    781181.160 6    600818.56649  22225667.62149
 20  5 16  3 17 51.0000000  0  8G01G04G07G08G09G11G16G27            -0.000042643
  22323208.813 6  -1952464.746 6  -1472321.90249  22323209.77049
  23487068.703 5    764459.205 5    578803.01546  23487067.75446
  22319045.188 6  -1710778.223 6  -1304290.21949  22319042.17649
  20693148.102 6    134858.637 6    102819.39149  20693147.54749
  23300695.695 5    290524.352 5    223211.68848  23300696.10248
  20486250.859 6  -1066021.031 6   -812439.34048  20486247.09048
  23005280.875 5    276550.957 5    207954.90246  23005277.39846
  22226008.844 6    782966.914 6    602210.06349  22226007.53149
 20  5 16  3 17 52.0000000  0  8G01G04G07G08G09G11G16G27            -0.000043213
  22322387.961 6  -1956778.734 6  -1475683.44949  22322388.90249
  23487398.484 5    766192.992 5    580154.00446  23487397.78946
  22318330.266 6  -1714538.348 6  -1307220.18849  22318326.51649
  20693219.102 6    135233.078 6    103111.16049  20693218.74249
  23300834.492 5    291251.457 5    223778.25848  23300834.77048
  20485819.688 6  -1068284.820 6   -814203.33248  20485816.43048
  23005402.258 5    277187.934 5    208451.25046  23005398.81346
  22226348.961 6    784752.684 6    603601.57049  22226347.42249
 20  5 16  3 17 53.0000000  0  8G01G04G07G08G09G11G16G27            -0.000043783
  22321567.133 6  -1961092.504 6  -1479044.82849  22321567.78949
  23487728.922 5    767926.809 5    581505.03146  23487727.87546
  22317614.750 6  -1718298.211 6  -1310149.94949  22317611.12149
  20693290.641 6    135607.781 6    103403.14149  20693289.80549
  23300972.680 5    291978.820 5    224345.03948  23300973.00848
  20485389.188 6  -1070548.082 6   -815966.91448  20485385.42648
  23005523.719 5    277824.957 5    208947.62546  23005519.75046
  22226688.102 6    786538.520 6    604993.12949  22226687.39549
 20  5 16  3 17 54.0000000  0  8G01G04G07G08G09G11G16G27            -0.000044353
  22320746.148 6  -1965406.066 6  -1482406.03949  22320747.11749
  23488058.992 5    769660.621 5    582856.05546  23488057.92246
  22316899.586 6  -1722057.805 6  -1313079.50049  22316895.73449
  20693362.000 7    135982.723 7    103695.29749  20693361.84849
  23301111.406 5    292706.473 5    224912.03148  23301111.38348
  20484958.742 6  -1072810.879 6   -817730.12548  20484954.87948
  23005644.820 5    278461.988 5    209444.01646  23005640.75446
  22227028.352 6    788324.375 6    606384.70349  22227027.05949
 20  5 16  3 17 55.0000000  0  8G01G04G07G08G09G11G16G27            -0.000044924
  22319925.242 6  -1969719.324 6  -1485767.02349  22319926.42249
  23488388.055 5    771394.520 5    584207.14146  23488387.79746
  22316183.906 6  -1725817.055 6  -1316008.78549  22316180.30949
  20693433.273 7    136358.020 7    103987.73849  20693432.81649
  23301250.063 5    293434.453 5    225479.27748  23301249.70348
  20484528.188 6  -1075073.078 6   -819492.88348  20484524.24248
  23005765.852 5    279099.188 5    209940.53146  23005762.37546
  22227368.203 6    790110.375 6    607776.39149  22227367.33649
 20  5 16  3 17 56.0000000  0  8G01G04G07G08G09G11G16G27            -0.000045494
  22319104.492 6  -1974032.289 6  -1489127.77349  22319105.23049
  23488718.344 5    773128.434 5    585558.24246  23488717.53946
  22315468.672 6  -1729575.973 6  -1318937.81349  22315465.12949
  20693504.781 7    136733.602 7    104280.40249  20693504.57849
  23301388.250 5    294162.750 5    226046.78148  23301388.54348
  20484097.695 6  -1077334.746 6   -821255.22348  20484093.95748
  23005887.555 5    279736.434 5    210437.07846  23005883.23846
  22227707.641 6    791896.441 6    609168.12949  22227706.84449
 20  5 16  3 17 57.0000000  0  8G01G04G07G08G09G11G16G27            -0.000046064
  22318283.602 6  -1978345.000 6  -1492488.32449  22318284.42649
  23489047.906 5    774862.457 5    586909.43446  23489047.55546
  22314753.844 6  -1733334.566 6  -1321866.58249  22314749.91849
  20693576.375 7    137109.496 7    104573.30949  20693575.77349
  23301527.250 5    294891.387 5    226614.54748  23301527.27048
  20483667.609 6  -1079595.813 6   -823017.09048  20483663.81648
  23006008.727 5    280373.840 5    210933.75446  23006005.27346
  22228047.633 6    793682.633 6    610559.96549  22228047.02049
 20  5 16  3 17 58.0000000  0  8G01G04G07G08G09G11G16G27            -0.000046635
  22317463.602 6  -1982657.465 6  -1495848.67649  22317464.11749
  23489378.352 5    776596.465 5    588260.61746  23489377.68046
  22314038.180 6  -1737092.855 6  -1324795.12549  22314034.43849
  20693647.977 6    137485.652 6    104866.41849  20693647.84049
  23301665.531 5    295620.281 5    227182.52048  23301665.93048
  20483237.109 6  -1081856.410 6   -824778.59048  20483233.74648
  23006129.570 5    281011.258 5    211430.44946  23006126.73846
  22228387.781 6    795468.852 6    611951.82849  22228386.45749
 20  5 16  3 17 59.0000000  0  8G01G04G07G08G09G11G16G27            -0.000047205
  22316642.656 6  -1986969.570 6  -1499208.75849  22316643.34049
  23489708.000 5    778330.605 5    589611.89546  23489706.91046
  22313323.133 6  -1740850.762 6  -1327723.35949  22313319.70749
  20693719.336 6    137862.195 6    105159.82849  20693718.94549
  23301805.344 5    296349.582 5    227750.80548  23301804.59448
  20482807.266 6  -1084116.336 6   -826539.57048  20482803.82048
  23006251.719 5    281648.887 5    211927.30146  23006247.84846
  22228727.719 6    797255.270 6    613343.84049  22228726.81649
 20  5 16  3 18  0.0000000  0  8G01G04G07G08G09G11G16G27            -0.000047775
  22315822.781 6  -1991281.438 6  -1502568.66049  22315823.05949
  23490037.461 5    780064.746 5    590963.15646  23490037.32846
  22312608.250 6  -1744608.395 6  -1330651.38749  22312604.64849
  20693791.141 7    138238.977 7    105453.41849  20693790.55149
  23301943.836 5    297079.129 5    228319.28148  23301943.50048
  20482377.273 6  -1086375.793 6   -828300.19148  20482373.84048
  23006372.875 5    282286.543 5    212424.17646  23006369.27046
  22229067.750 6    799041.723 6    614735.88349  22229066.84449
 20  5 16  3 18  1.0000000  0  8G01G04G07G08G09G11G16G27            -0.000048346
  22315001.805 6  -1995592.961 6  -1505928.28949  22315002.75449
  23490368.180 5    781799.070 5    592314.55946  23490367.47746
  22311893.078 6  -1748365.594 6  -1333579.07449  22311889.50849
  20693863.148 6    138616.152 6    105747.32449  20693862.63349
  23302082.328 5    297809.117 5    228888.10248  23302082.32048
  20481947.219 6  -1088634.566 6   -830060.27748  20481943.86748
  23006494.336 5    282924.391 5    212921.19546  23006490.53546
  22229407.711 6    800828.375 6    616128.07849  22229406.66449
 20  5 16  3 18  2.0000000  0  8G01G04G07G08G09G11G16G27            -0.000048916
  22314181.180 6  -1999904.168 6  -1509287.66849  22314182.41449
  23490698.375 5    783533.473 5    593666.03946  23490697.44946
  22311178.031 6  -1752122.457 6  -1336506.50049  22311174.53949
  20693935.000 6    138993.688 6    106041.50449  20693934.57849
  23302221.180 5    298539.453 5    229457.19548  23302221.53148
  20481517.914 6  -1090892.734 6   -831819.89148  20481514.29348
  23006615.875 5    283562.363 5    213418.32046  23006611.91846
  22229748.086 6    802615.156 6    617520.37549  22229746.78549
 20  5 16  3 18  3.0000000  0  8G01G04G07G08G09G11G16G27            -0.000049486
  22313360.477 6  -2004215.031 6  -1512646.78149  22313361.98449
  23491028.000 5    785267.945 5    595017.58246  23491027.79746
  22310463.875 6  -1755878.938 6  -1339433.62549  22310460.01249
  20694006.922 6    139371.566 6    106335.95749  20694006.50049
  23302359.930 5    299270.148 5    230026.56348  23302360.22748
  20481088.078 6  -1093150.355 6   -833579.07848  20481084.36348
  23006736.914 5    284200.480 5    213915.54746  23006733.54346
  22230088.188 6    804402.059 6    618912.75849  22230086.84849
 20  5 16  3 18  4.0000000  0  8G01G04G07G08G09G11G16G27            -0.000050056
  22312540.711 6  -2008525.523 6  -1516005.60549  22312541.37949
  23491358.555 5    787002.621 5    596369.27346  23491357.68446
  22309748.836 6  -1759634.980 6  -1342360.41449  22309745.10949
  20694078.727 6    139749.891 6    106630.75049  20694078.17649
  23302499.211 5    300001.273 5    230596.26648  23302499.38348
  20480658.875 6  -1095407.258 6   -835337.69948  20480654.75848
  23006858.102 5    284838.805 5    214412.93846  23006854.94146
  22230427.461 6    806189.219 6    620305.35249  22230426.76649
 20  5 16  3 18  5.0000000  0  8G01G04G07G08G09G11G16G27            -0.000050627
  22311720.945 6  -2012835.750 6  -1519364.22349  22311721.52049
  23491688.625 5    788737.328 5    597720.98846  23491687.56346
  22309033.469 6  -1763390.699 6  -1345286.94949  22309030.27049
  20694150.836 6    140128.480 6    106925.75849  20694150.49649
  23302638.797 5    300732.676 5    231166.18848  23302638.77748
  20480229.336 6  -1097663.645 6   -837095.92648  20480225.66448
  23006979.484 5    285477.223 5    214910.41446  23006975.99246
  22230767.953 6    807976.438 6    621697.98849  22230766.90249
 20  5 16  3 18  6.0000000  0  8G01G04G07G08G09G11G16G27            -0.000051195
  22310900.180 6  -2017145.590 6  -1522722.53549  22310901.13349
  23492018.641 5    790472.160 5    599072.80946  23492017.89546
  22308319.297 6  -1767146.035 6  -1348213.18049  22308315.66849
  20694222.859 6    140507.488 6    107221.09049  20694222.67649
  23302777.852 5    301464.516 5    231736.45348  23302778.11348
  20479799.938 6  -1099919.371 6   -838853.63348  20479796.27748
  23007101.125 5    286115.820 5    215408.03546  23007097.71946
  22231108.070 6    809763.844 6    623090.77049  22231107.21149
 20  5 16  3 18  7.0000000  0  8G01G04G07G08G09G11G16G27            -0.000051765
  22310080.672 6  -2021455.117 6  -1526080.60549  22310081.18049
  23492349.039 5    792207.109 5    600424.71546  23492348.22346
  22307604.758 6  -1770900.984 6  -1351139.11749  22307601.27349
  20694295.289 6    140886.813 6    107516.66849  20694294.65249
  23302917.352 5    302196.715 5    232306.99648  23302917.44948
  20479370.734 6  -1102174.527 6   -840610.89848  20479367.34048
  23007222.578 5    286754.531 5    215905.71946  23007219.21946
  22231448.211 6    811551.375 6    624483.65249  22231447.44149
 20  5 16  3 18  8.0000000  0  8G01G04G07G08G09G11G16G27            -0.000052336
  22309260.508 6  -2025764.305 6  -1529438.41449  22309261.14149
  23492678.430 5    793942.125 5    601776.68046  23492678.10946
  22306890.492 6  -1774655.574 6  -1354064.77349  22306886.52349
  20694367.477 6    141266.535 6    107812.55149  20694367.31349
  23303056.813 5    302929.270 5    232877.81648  23303056.81648
  20478941.617 6  -1104429.055 6   -842367.66448  20478938.17248
  23007343.859 5    287393.402 5    216403.53546  23007340.85946
  22231788.773 6    813339.074 6    625876.66449  22231787.47349
 20  5 16  3 18  9.0000000  0  8G01G04G07G08G09G11G16G27            -0.000052906
  22308440.117 6  -2030073.297 6  -1532796.07049  22308441.19149
  23493009.031 5    795677.184 5    603128.66446  23493008.51646
  22306175.758 6  -1778409.848 6  -1356990.18449  22306172.18049
  20694439.859 6    141646.531 6    108108.64849  20694439.41449
  23303196.195 5    303662.121 5    233448.86748  23303195.90248
  20478512.844 6  -1106683.070 6   -844124.04348  20478509.50848
  23007465.680 5    288032.363 5    216901.43046  23007462.79346
  22232128.828 6    815126.813 6    627269.70349  22232127.77049
 20  5 16  3 18 10.0000000  0  8G01G04G07G08G09G11G16G27            -0.000053476
  22307620.203 6  -2034381.945 6  -1536153.45349  22307621.30149
  23493339.305 5    797412.313 5    604480.71146  23493338.94146
  22305461.508 6  -1782163.789 6  -1359915.32849  22305457.82449
  20694512.148 6    142026.828 6    108404.98849  20694511.72749
  23303335.484 5    304395.281 5    234020.15248  23303335.64548
  20478083.859 6  -1108936.539 6   -845879.99648  20478080.35948
  23007587.719 5    288671.371 5    217399.35946  23007584.45746
  22232468.953 6    816914.672 6    628662.84049  22232467.79349
 20  5 16  3 18 11.0000000  0  8G01G04G07G08G09G11G16G27            -0.000054045
  22306800.813 6  -2038690.422 6  -1539510.70749  22306801.35549
  23493669.406 5    799147.430 5    605832.74646  23493668.69546
  22304747.438 6  -1785917.477 6  -1362840.27749  22304743.25849
  20694584.648 7    142407.355 7    108701.50449  20694584.16449
  23303474.836 5    305128.688 5    234591.62948  23303475.30148
  20477655.703 6  -1111189.492 6   -847635.53948  20477651.94148
  23007709.102 5    289310.465 5    217897.34846  23007705.51646
  22232809.008 6    818702.543 6    630055.98849  22232808.38349
 20  5 16  3 18 12.0000000  0  8G01G04G07G08G09G11G16G27            -0.000054615
  22305980.844 6  -2042998.641 6  -1542867.75849  22305981.23449
  23494000.164 5    800882.547 5    607184.76646  23493999.39546
  22304032.820 6  -1789670.859 6  -1365764.99249  22304029.07849
  20694657.055 6    142788.160 6    108998.23049  20694656.52049
  23303614.508 5    305862.410 5    235163.36348  23303614.74648
  20477226.594 6  -1113441.922 6   -849390.68448  20477223.10548
  23007830.898 5    289949.602 5    218395.37546  23007827.55546
  22233149.195 6    820490.516 6    631449.21549  22233148.09849
 20  5 16  3 18 13.0000000  0  8G01G04G07G08G09G11G16G27            -0.000055185
  22305161.016 6  -2047306.578 6  -1546224.59049  22305161.91849
  23494330.305 5    802617.715 5    608536.85246  23494329.26246
  22303318.836 6  -1793423.949 6  -1368689.48049  22303314.69949
  20694729.398 6    143169.234 6    109295.17249  20694729.01649
  23303754.867 5    306596.369 5    235735.27748  23303754.55948
  20476798.406 6  -1115693.832 6   -851145.42248  20476794.63748
  23007952.250 5    290588.801 5    218893.45746  23007949.06646
  22233489.156 6    822278.543 6    632842.48049  22233488.42649
 20  5 16  3 18 14.0000000  0  8G01G04G07G08G09G11G16G27            -0.000055756
  22304341.344 6  -2051614.230 6  -1549581.20749  22304341.79349
  23494660.242 5    804352.934 5    609888.97346  23494659.86346
  22302604.984 6  -1797176.688 6  -1371613.69149  22302601.01249
  20694801.875 6    143550.645 6    109592.37149  20694801.29349
  23303893.813 5    307330.711 5    236307.49648  23303894.04348
  20476369.797 6  -1117945.152 6   -852899.69148  20476366.28548
  23008074.539 5    291228.145 5    219391.65646  23008070.74246
  22233829.711 6    824066.691 6    634235.84049  22233828.93049
 20  5 16  3 18 15.0000000  0  8G01G04G07G08G09G11G16G27            -0.000056326
  22303521.688 6  -2055921.684 6  -1552937.66049  22303522.36349
  23494990.578 5    806088.172 5    611241.11346  23494990.01646
  22301890.750 6  -1800929.188 6  -1374537.72349  22301886.45349
  20694874.750 6    143932.281 6    109889.75449  20694874.34849
  23304034.125 5    308065.313 5    236879.91848  23304034.24648
  20475941.516 6  -1120195.996 6   -854653.59848  20475937.84848
  23008195.555 5    291867.508 5    219889.85546  23008192.22346
  22234169.758 6    825854.867 6    635629.22749  22234169.30949
 20  5 16  3 18 16.0000000  0  8G01G04G07G08G09G11G16G27            -0.000056894
  22302702.016 6  -2060228.859 6  -1556293.90249  22302702.61349
  23495320.445 5    807823.441 5    612593.28146  23495320.35546
  22301176.906 6  -1804681.324 6  -1377461.46549  22301172.68049
  20694947.594 7    144314.250 7    110187.38749  20694946.78549
  23304173.609 5    308800.195 5    237452.54748  23304173.89548
  20475513.523 6  -1122446.281 6   -856407.07048  20475509.75848
  23008317.414 5    292506.949 5    220388.11746  23008313.91046
  22234510.422 6    827643.137 6    637022.68449  22234509.08649
 20  5 16  3 18 17.0000000  0  8G01G04G07G08G09G11G16G27            -0.000057465
  22301882.344 6  -2064535.684 6  -1559649.86749  22301883.02749
  23495650.352 5    809558.793 5    613945.49646  23495650.36346
  22300463.063 6  -1808433.113 6  -1380384.93849  22300458.83649
  20695020.500 6    144696.559 6    110485.28949  20695019.60549
  23304314.109 5    309535.457 5    238025.47348  23304313.96548
  20475085.313 6  -1124695.980 6   -858160.08248  20475081.49248
  23008439.164 5    293146.523 5    220886.48046  23008435.84446
  22234850.773 6    829431.539 6    638416.23849  22234849.75449
 20  5 16  3 18 18.0000000  0  8G01G04G07G08G09G11G16G27            -0.000058035
  22301062.875 6  -2068842.180 6  -1563005.57849  22301063.57849
  23495981.273 5    811294.277 5    615297.80946  23495980.90646
  22299749.141 6  -1812184.500 6  -1383308.10249  22299744.94149
  20695093.125 7    145079.250 7    110783.49249  20695092.50449
  23304453.453 5    310271.090 5    238598.69148  23304453.69548
  20474656.977 6  -1126945.035 6   -859912.58648  20474653.38348
  23008561.172 5    293786.277 5    221384.98846  23008557.63746
  22235191.070 6    831220.098 6    639809.91849  22235190.42649
 20  5 16  3 18 19.0000000  0  8G01G04G07G08G09G11G16G27            -0.000058605
  22300242.813 6  -2073148.414 6  -1566361.08249  22300243.96549
  23496310.773 5    813029.863 5    616650.19546  23496310.83646
  22299034.813 6  -1815935.566 6  -1386231.00449  22299030.99649
  20695165.797 7    145462.250 7    111081.93849  20695165.21949
  23304594.508 5    311007.043 5    239172.16448  23304593.88748
  20474229.328 6  -1129193.539 6   -861664.67248  20474225.60948
  23008682.813 5    294426.125 5    221883.55946  23008679.17646
  22235531.531 6    833008.762 6    641203.68449  22235530.61349
 20  5 16  3 18 20.0000000  0  8G01G04G07G08G09G11G16G27            -0.000059175
  22299423.563 6  -2077454.391 6  -1569716.39549  22299424.52349
  23496640.789 5    814765.430 5    618002.56646  23496640.86746
  22298321.813 6  -1819686.324 6  -1389153.67649  22298317.49649
  20695238.930 7    145845.523 7    111380.59449  20695238.55149
  23304734.242 5    311743.297 5    239745.85948  23304733.98448
  20473801.852 6  -1131441.516 6   -863416.34448  20473798.04748
  23008804.164 5    295066.035 5    222382.19546  23008801.12946
  22235872.227 6    834797.512 6    642597.51249  22235871.22749
 20  5 16  3 18 21.0000000  0  8G01G04G07G08G09G11G16G27            -0.000059744
  22298604.477 6  -2081760.051 6  -1573071.44949  22298605.30549
  23496971.961 5    816501.090 5    619355.03546  23496971.10246
  22297607.898 6  -1823436.734 6  -1392076.07049  22297603.74249
  20695311.781 6    146229.105 6    111679.48449  20695311.13349
  23304874.180 5    312479.895 5    240319.82448  23304874.25448
  20473374.039 6  -1133688.910 6   -865167.55948  20473370.24648
  23008926.555 5    295706.082 5    222880.93846  23008923.12546
  22236212.555 6    836586.363 6    643991.42649  22236211.29349
 20  5 16  3 18 22.0000000  0  8G01G04G07G08G09G11G16G27            -0.000060314
  22297785.516 6  -2086065.496 6  -1576426.33249  22297786.25049
  23497301.719 5    818236.738 5    620707.49246  23497301.44146
  22296894.461 6  -1827186.879 6  -1394998.25849  22296890.19949
  20695384.820 7    146612.938 7    111978.57449  20695384.37549
  23305014.563 5    313216.734 5    240893.98848  23305014.03948
  20472946.422 6  -1135935.789 6   -866918.37148  20472942.42248
  23009048.250 5    296346.176 5    223379.71146  23009044.96546
  22236552.758 6    838375.289 6    645385.39149  22236551.53949
 20  5 16  3 18 23.0000000  0  8G01G04G07G08G09G11G16G27            -0.000060884
  22296965.930 6  -2090370.535 6  -1579780.91049  22296966.74649
  23497632.391 5    819972.547 5    622060.07446  23497631.85246
  22296180.758 6  -1830936.582 6  -1397920.10949  22296176.30949
  20695458.273 7    146997.168 7    112277.97349  20695457.50449
  23305155.086 5    313954.008 5    241468.48448  23305154.68048
  20472519.195 6  -1138182.016 6   -868668.67648  20472514.89548
  23009169.914 5    296986.449 5    223878.62546  23009166.55146
  22236893.570 6    840164.375 6    646779.48049  22236892.06649
 20  5 16  3 18 24.0000000  0  8G01G04G07G08G09G11G16G27            -0.000061455
  22296146.992 6  -2094675.254 6  -1583135.23049  22296147.87549
  23497962.586 5    821708.441 5    623412.72746  23497962.28146
  22295467.313 6  -1834685.934 6  -1400841.68449  22295463.05149
  20695531.195 7    147381.734 7    112577.63349  20695530.78549
  23305295.094 5    314691.602 5    242043.23048  23305294.93448
  20472091.578 6  -1140427.629 6   -870418.50848  20472087.80548
  23009291.945 5    297626.867 5    224377.65246  23009288.16846
  22237233.898 6    841953.605 6    648173.68449  22237232.86749
 20  5 16  3 18 25.0000000  0  8G01G04G07G08G09G11G16G27            -0.000062025
  22295327.820 6  -2098979.781 6  -1586489.40649  22295328.59049
  23498293.063 5    823444.289 5    624765.33246  23498292.67646
  22294753.875 6  -1838435.031 6  -1403763.05949  22294749.68049
  20695604.102 7    147766.551 7    112877.48849  20695603.64149
  23305435.172 5    315429.445 5    242618.16848  23305435.63748
  20471664.328 6  -1142672.789 6   -872167.98448  20471660.63348
  23009413.641 5    298267.297 5    224876.68046  23009410.29746
  22237574.297 6    843742.867 6    649567.90649  22237573.39549
 20  5 16  3 18 26.0000000  0  8G01G04G07G08G09G11G16G27            -0.000062593
  22294508.563 6  -2103283.957 6  -1589843.31349  22294509.68049
  23498623.359 5    825180.250 5    626118.02346  23498622.78146
  22294040.461 6  -1842183.719 6  -1406684.11349  22294036.12149
  20695677.773 7    148151.750 7    113177.64849  20695677.26649
  23305575.797 5    316167.730 5    243193.46548  23305575.87548
  20471237.523 6  -1144917.301 6   -873916.95348  20471233.69948
  23009535.484 5    298907.914 5    225375.85546  23009532.15246
  22237914.469 6    845532.309 6    650962.27749  22237913.41849
 20  5 16  3 18 27.0000000  0  8G01G04G07G08G09G11G16G27            -0.000063164
  22293689.961 6  -2107587.941 6  -1593197.06649  22293690.42649
  23498953.672 5    826916.246 5    627470.73046  23498953.18846
  22293327.242 6  -1845932.184 6  -1409604.99649  22293322.94549
  20695750.914 7    148537.168 7    113477.97349  20695750.44149
  23305716.008 5    316906.211 5    243768.90248  23305716.58648
  20470810.367 6  -1147161.355 6   -875665.57448  20470806.68848
  23009657.688 5    299548.523 5    225875.03146  23009654.41046
  22238255.289 6    847321.719 6    652356.62149  22238254.29349
 20  5 16  3 18 28.0000000  0  8G01G04G07G08G09G11G16G27            -0.000063734
  22292870.250 6  -2111891.621 6  -1596550.58249  22292871.67649
  23499283.906 5    828652.246 5    628823.45346  23499283.55946
  22292613.992 6  -1849680.285 6  -1412525.59849  22292609.95749
  20695824.602 7    148922.891 7    113778.53549  20695824.10949
  23305857.070 5    317645.008 5    244344.58648  23305856.56648
  20470383.297 6  -1149404.824 6   -877413.72748  20470379.95348
  23009779.297 5    300189.254 5    226374.30546  23009776.10546
  22238596.109 6    849111.258 6    653751.06649  22238594.58249
 20  5 16  3 18 29.0000000  0  8G01G04G07G08G09G11G16G27            -0.000064304
  22292051.703 6  -2116195.004 6  -1599903.86749  22292052.80949
  23499614.367 5    830388.371 5    630176.28946  23499614.15646
  22291900.742 6  -1853428.039 6  -1415445.92249  22291896.51249
  20695897.906 7    149308.910 7    114079.32849  20695897.37549
  23305997.781 5    318384.156 5    244920.53948  23305997.56348
  20469956.867 6  -1151647.734 6   -879161.44948  20469952.84848
  23009901.922 5    300830.078 5    226873.64846  23009898.34846
  22238936.539 6    850900.930 6    655145.61349  22238934.94549
 20  5 16  3 18 30.0000000  0  8G01G04G07G08G09G11G16G27            -0.000064873
  22291232.734 6  -2120498.094 6  -1603256.92249  22291234.00449
  23499945.117 5    832124.566 5    631529.16446  23499944.66046
  22291188.070 6  -1857175.441 6  -1418365.97749  22291183.59049
  20695971.383 7    149695.285 7    114380.40649  20695971.17649
  23306138.641 5    319123.645 5    245496.75848  23306138.64848
  20469529.742 6  -1153890.047 6   -880908.70748  20469526.27048
  23010023.305 5    301471.059 5    227373.10546  23010020.05546
  22239276.344 6    852690.695 6    656540.23849  22239275.91049
 20  5 16  3 18 31.0000000  0  8G01G04G07G08G09G11G16G27            -0.000065443
  22290414.289 6  -2124800.895 6  -1606609.74649  22290414.85949
  23500275.188 5    833860.785 5    632882.05546  23500274.83646
  22290474.516 6  -1860922.543 6  -1421285.79749  22290470.49249
  20696044.797 7    150081.949 7    114681.69549  20696044.44149
  23306278.563 5    319863.438 5    246073.21948  23306279.06648
  20469103.234 6  -1156131.816 6   -882655.53548  20469099.55548
  23010145.219 5    302112.117 5    227872.62946  23010141.85946
  22239617.211 6    854480.578 6    657934.94949  22239616.62549
 20  5 16  3 18 32.0000000  0  8G01G04G07G08G09G11G16G27            -0.000066013
  22289595.617 6  -2129103.512 6  -1609962.43049  22289596.28549
  23500605.156 5    835596.938 5    634234.89146  23500605.17246
  22289761.539 6  -1864669.391 6  -1424205.41449  22289757.40249
  20696118.672 7    150468.824 7    114983.16049  20696118.21149
  23306420.148 5    320603.426 5    246649.83648  23306419.77348
  20468676.820 6  -1158373.125 6   -884402.01248  20468672.91048
  23010267.469 5    302753.172 5    228372.15646  23010263.86346
  22239957.758 6    856270.430 6    659329.63749  22239957.26249
 20  5 16  3 18 33.0000000  0  8G01G04G07G08G09G11G16G27            -0.000066584
  22288776.180 6  -2133405.715 6  -1613314.78949  22288777.56349
  23500936.203 5    837333.305 5    635587.90246  23500935.76646
  22289048.539 6  -1868415.762 6  -1427124.66449  22289044.43849
  20696192.359 7    150856.141 7    115284.96949  20696191.81649
  23306560.906 5    321343.895 5    247226.81648  23306560.81348
  20468250.258 6  -1160613.730 6   -886147.93848  20468246.56648
  23010390.344 5    303394.461 5    228871.86346  23010386.44946
  22240298.359 6    858060.609 6    660724.58649  22240297.62549
 20  5 16  3 18 34.0000000  0  8G01G04G07G08G09G11G16G27            -0.000067152
  22287958.164 6  -2137707.625 6  -1616666.92249  22287958.79749
  23501266.234 5    839069.727 5    636940.96546  23501266.07846
  22288335.617 6  -1872161.789 6  -1430043.64549  22288331.20749
  20696265.859 7    151243.777 7    115587.02049  20696265.38349
  23306702.016 5    322084.707 5    247804.07448  23306701.66048
  20467824.234 6  -1162853.742 6   -887893.40248  20467819.89148
  23010511.359 5    304035.898 5    229371.68046  23010508.41446
  22240638.930 6    859850.809 6    662119.54749  22240638.25449
 20  5 16  3 18 35.0000000  0  8G01G04G07G08G09G11G16G27            -0.000067722
  22287139.844 6  -2142009.234 6  -1620018.82449  22287140.43049
  23501596.813 5    840806.223 5    638294.09046  23501596.66846
  22287623.164 6  -1875907.516 6  -1432962.39149  22287619.01649
  20696339.992 7    151631.723 7    115889.31349  20696339.42249
  23306842.898 5    322825.820 5    248381.56648  23306842.96148
  20467398.086 6  -1165093.223 6   -889638.45348  20467394.22748
  23010633.586 5    304677.391 5    229871.54346  23010630.21946
  22240980.484 6    861641.121 6    663514.59449  22240979.06649
 20  5 16  3 18 36.0000000  0  8G01G04G07G08G09G11G16G27            -0.000068293
  22286321.219 6  -2146310.535 6  -1623370.48849  22286321.88349
  23501927.008 5    842542.785 5    639647.25846  23501927.07046
  22286910.266 6  -1879652.832 6  -1435880.82049  22286905.88749
  20696413.867 7    152019.992 7    116191.85549  20696413.15649
  23306984.453 5    323567.313 5    248959.35248  23306983.82848
  20466971.953 6  -1167332.125 6   -891383.05548  20466968.15248
  23010755.641 5    305319.066 5    230371.55146  23010752.34846
  22241320.438 6    863431.551 6    664909.72749  22241319.87149
 20  5 16  3 18 37.0000000  0  8G01G04G07G08G09G11G16G27            -0.000068861
  22285502.609 6  -2150611.566 6  -1626721.94149  22285503.63349
  23502258.383 5    844279.383 5    641000.43846  23502257.63746
  22286197.875 6  -1883397.891 6  -1438799.05149  22286193.47749
  20696487.859 7    152408.543 7    116494.62149  20696487.29349
  23307125.430 5    324309.031 5    249537.31348  23307125.11348
  20466545.805 6  -1169570.480 6   -893127.22748  20466542.38348
  23010877.086 5    305960.742 5    230871.55146  23010874.42246
  22241661.430 6    865222.043 6    666304.91449  22241660.40649
 20  5 16  3 18 38.0000000  0  8G01G04G07G08G09G11G16G27            -0.000069431
  22284684.617 6  -2154912.398 6  -1630073.24649  22284685.00449
  23502588.703 5    846015.945 5    642353.59046  23502587.90646
  22285485.063 6  -1887142.703 6  -1441717.09049  22285480.87949
  20696561.586 7    152797.320 7    116797.57049  20696561.08649
  23307266.039 5    325051.004 5    250115.46948  23307266.24648
  20466119.992 6  -1171808.367 6   -894871.03948  20466116.49648
  23010999.734 5    306602.457 5    231371.58646  23010996.49246
  22242001.844 6    867012.559 6    667700.12549  22242001.49249
 20  5 16  3 18 39.0000000  0  8G01G04G07G08G09G11G16G27            -0.000070002
  22283865.555 6  -2159213.004 6  -1633424.36349  22283866.77349
  23502919.008 5    847752.523 5    643706.76646  23502918.62546
  22284772.102 6  -1890887.207 6  -1444634.88349  22284768.46549
  20696635.836 7    153186.352 7    117100.71149  20696635.30549
  23307407.227 5    325793.250 5    250693.84048  23307407.52048
  20465694.508 6  -1174045.711 6   -896614.42248  20465690.81648
  23011122.117 5    307244.258 5    231871.68846  23011118.79346
  22242342.438 6    868803.133 6    669095.37149  22242341.95349
 20  5 16  3 18 40.0000000  0  8G01G04G07G08G09G11G16G27            -0.000070572
  22283047.383 6  -2163513.352 6  -1636775.28149  22283047.90249
  23503249.500 5    849489.129 5    645059.97346  23503248.94546
  22284060.031 6  -1894631.398 6  -1447552.44149  22284055.85249
  20696709.844 7    153575.656 7    117404.05949  20696709.37549
  23307549.336 5    326535.828 5    251272.46948  23307548.47348
  20465268.969 6  -1176282.535 6   -898357.39848  20465265.05548
  23011244.188 5    307886.109 5    232371.83246  23011241.19146
  22242683.828 6    870593.793 6    670490.69149  22242682.66049
 20  5 16  3 18 41.0000000  0  8G01G04G07G08G09G11G16G27            -0.000071140
  22282229.094 6  -2167813.434 6  -1640125.99249  22282230.17249
  23503580.242 5    851225.754 5    646413.18846  23503579.45746
  22283347.391 6  -1898375.305 6  -1450469.76249  22283343.50449
  20696784.023 7    153965.246 7    117707.63749  20696783.11349
  23307690.898 5    327278.672 5    251851.31348  23307690.31348
  20464843.125 6  -1178518.836 6   -900099.97348  20464839.46548
  23011366.352 5    308528.051 5    232872.04746  23011363.15246
  22243024.297 6    872384.516 6    671886.06349  22243023.00449
 20  5 16  3 18 42.0000000  0  8G01G04G07G08G09G11G16G27            -0.000071711
  22281410.813 6  -2172113.094 6  -1643476.37549  22281411.58249
  23503910.648 5    852962.551 5    647766.52046  23503909.66846
  22282634.813 6  -1902118.727 6  -1453386.71549  22282631.33249
  20696858.070 7    154355.262 7    118011.54749  20696857.48049
  23307832.313 5    328021.938 5    252430.47748  23307831.51248
  20464417.617 6  -1180754.441 6   -901842.00048  20464413.89548
  23011488.289 5    309170.195 5    233372.42246  23011484.84446
  22243365.523 6    874175.461 6    673281.59849  22243364.14149
 20  5 16  3 18 43.0000000  0  8G01G04G07G08G09G11G16G27            -0.000072281
  22280592.688 6  -2176412.535 6  -1646826.58649  22280593.57449
  23504240.867 5    854699.383 5    649119.89146  23504240.50046
  22281922.492 6  -1905861.879 6  -1456303.45349  22281919.03549
  20696932.570 7    154745.559 7    118315.66849  20696931.76249
  23307973.266 5    328765.516 5    253009.89148  23307972.42248
  20463992.203 6  -1182989.543 6   -903583.64148  20463988.71148
  23011611.109 5    309812.394 5    233872.83846  23011607.32846
  22243706.195 6    875966.469 6    674677.18849  22243705.02049
 20  5 16  3 18 44.0000000  0  8G01G04G07G08G09G11G16G27            -0.000072849
  22279774.688 6  -2180711.602 6  -1650176.50449  22279775.53949
  23504571.617 5    856436.316 5    650473.34446  23504570.73846
  22281210.641 6  -1909604.629 6  -1459219.87949  22281206.66049
  20697006.688 7    155136.203 7    118620.07049  20697006.27749
  23308114.719 5    329509.449 5    253589.57848  23308114.35248
  20463566.859 6  -1185224.004 6   -905324.77748  20463563.46548
  23011733.289 5    310454.813 5    234373.42646  23011729.46546
  22244046.656 6    877757.613 6    676072.88749  22244046.05149
 20  5 16  3 18 45.0000000  0  8G01G04G07G08G09G11G16G27            -0.000073420
  22278956.508 6  -2185010.531 6  -1653526.32049  22278957.65649
  23504901.797 5    858173.234 5    651826.78146  23504901.44546
  22280498.477 6  -1913347.180 6  -1462136.14849  22280494.17649
  20697081.430 7    155527.059 7    118924.63349  20697080.61349
  23308256.063 5    330253.559 5    254169.39548  23308256.21948
  20463142.125 6  -1187458.039 6   -907065.58248  20463138.02348
  23011855.102 5    311097.172 5    234873.96146  23011851.64546
  22244387.688 6    879548.746 6    677468.57449  22244386.99649
 20  5 16  3 18 46.0000000  0  8G01G04G07G08G09G11G16G27            -0.000073990
  22278139.016 6  -2189309.164 6  -1656875.90249  22278139.29749
  23505232.555 5    859910.105 5    653180.18846  23505232.13346
  22279786.133 6  -1917089.410 6  -1465052.17649  22279782.39849
  20697155.742 7    155918.207 7    119229.42649  20697154.94549
  23308398.117 5    330997.996 5    254749.47348  23308397.73848
  20462717.203 6  -1189691.539 6   -908805.97348  20462713.24248
  23011977.461 5    311739.609 5    235374.56346  23011974.14546
  22244728.617 6    881339.977 6    678864.34049  22244727.54349
 20  5 16  3 18 47.0000000  0  8G01G04G07G08G09G11G16G27            -0.000074560
  22277320.914 6  -2193607.535 6  -1660225.27749  22277321.68849
  23505562.656 5    861647.078 5    654533.67646  23505562.54746
  22279074.227 6  -1920831.316 6  -1467967.94549  22279070.63749
  20697229.844 7    156309.652 7    119534.44549  20697229.59049
  23308539.859 5    331742.719 5    255329.77048  23308539.71948
  20462292.188 6  -1191924.473 6   -910545.91448  20462288.12948
  23012099.742 5    312382.148 5    235875.23446  23012096.42246
  22245069.484 6    883131.258 6    680260.14149  22245068.69549
 20  5 16  3 18 48.0000000  0  8G01G04G07G08G09G11G16G27            -0.000075129
  22276503.063 6  -2197905.613 6  -1663574.43049  22276503.45749
  23505893.547 5    863384.078 5    655887.18046  23505892.97746
  22278362.039 6  -1924572.879 6  -1470883.45349  22278358.50449
  20697304.242 6    156701.414 6    119839.71549  20697303.73049
  23308681.539 5    332487.770 5    255910.33248  23308681.37948
  20461867.203 6  -1194156.859 6   -912285.44148  20461863.85248
  23012221.891 5    313024.801 5    236376.00846  23012218.67646
  22245410.328 6    884922.664 6    681656.03949  22245409.41049
 20  5 16  3 18 49.0000000  0  8G01G04G07G08G09G11G16G27            -0.000075699
  22275684.852 6  -2202203.422 6  -1666923.37149  22275685.65249
  23506224.266 5    865121.117 5    657240.70346  23506223.82846
  22277650.086 6  -1928314.145 6  -1473798.72749  22277646.28949
  20697379.234 7    157093.449 7    120145.19549  20697378.76249
  23308824.148 5    333233.137 5    256491.12948  23308823.19148
  20461442.625 6  -1196388.691 6   -914024.53548  20461439.22748
  23012343.969 5    313667.520 5    236876.83646  23012340.86746
  22245751.195 6    886714.141 6    683051.99249  22245750.35549
 20  5 16  3 18 50.0000000  0  8G01G04G07G08G09G11G16G27            -0.000076269
  22274867.055 6  -2206500.918 6  -1670272.07449  22274867.88749
  23506554.188 5    866858.195 5    658594.26246  23506554.19146
  22276938.289 6  -1932055.055 6  -1476713.71549  22276934.37549
  20697453.797 7    157485.777 7    120450.90649  20697452.98049
  23308966.031 5    333978.805 5    257072.17248  23308965.25048
  20461018.023 6  -1198619.945 6   -915763.18048  20461014.39548
  23012466.844 5    314310.344 5    237377.72746  23012463.49646
  22246092.203 6    888505.719 6    684448.02749  22246091.37949
 20  5 16  3 18 51.0000000  0  8G01G04G07G08G09G11G16G27            -0.000076839
  22274049.086 6  -2210798.090 6  -1673620.52049  22274050.16849
  23506884.219 5    868595.410 5    659947.94546  23506884.50046
  22276226.375 6  -1935795.578 6  -1479628.41049  22276222.89849
  20697528.359 7    157878.496 7    120756.92249  20697527.69549
  23309107.148 5    334724.855 5    257653.51248  23309106.84448
  20460593.508 6  -1200850.586 6   -917501.33648  20460589.87948
  23012588.820 5    314953.324 5    237878.74646  23012585.86746
  22246432.898 6    890297.461 6    685844.19149  22246432.26649
 20  5 16  3 18 52.0000000  0  8G01G04G07G08G09G11G16G27            -0.000077408
  22273231.773 6  -2215094.965 6  -1676968.73449  22273233.03149
  23507215.375 5    870332.688 5    661301.67646  23507215.18446
  22275514.805 6  -1939535.727 6  -1482542.80949  22275511.26649
  20697603.313 7    158271.520 7    121063.17649  20697602.78549
  23309249.211 5    335471.250 5    258235.11748  23309249.06648
  20460169.078 6  -1203080.645 6   -919239.04348  20460165.50048
  23012711.766 5    315596.461 5    238379.88346  23012708.38346
  22246774.102 6    892089.332 6    687240.45349  22246773.28149
 20  5 16  3 18 53.0000000  0  8G01G04G07G08G09G11G16G27            -0.000077978
  22272414.063 6  -2219391.586 6  -1680316.74649  22272414.91049
  23507545.953 5    872069.988 5    662655.42646  23507545.83646
  22274803.625 6  -1943275.621 6  -1485457.01249  22274799.67649
  20697678.383 7    158664.785 7    121369.60949  20697677.80149
  23309391.875 5    336217.898 5    258816.91448  23309391.18048
  20459744.602 6  -1205310.207 6   -920976.37148  20459741.14548
  23012833.961 5    316239.605 5    238881.03946  23012830.51646
  22247115.234 6    893881.234 6    688636.73849  22247113.79349
 20  5 16  3 18 54.0000000  0  8G01G04G07G08G09G11G16G27            -0.000078547
  22271596.414 6  -2223687.875 6  -1683664.50049  22271597.27749
  23507876.836 5    873807.379 5    664009.22746  23507876.89546
  22274091.953 6  -1947015.113 6  -1488370.89849  22274087.91849
  20697752.992 7    159058.426 7    121676.34449  20697752.37149
  23309533.281 5    336964.906 5    259399.00448  23309533.39148
  20459320.883 6  -1207539.148 6   -922713.20748  20459317.01648
  23012956.188 5    316882.922 5    239382.32046  23012953.26646
  22247456.320 6    895673.301 6    690033.14849  22247455.35249
 20  5 16  3 18 55.0000000  0  8G01G04G07G08G09G11G16G27            -0.000079117
  22270779.227 6  -2227983.871 6  -1687012.02349  22270780.01249
  23508207.406 5    875544.813 5    665363.05146  23508207.39546
  22273380.023 6  -1950754.277 6  -1491284.53949  22273376.42249
  20697828.195 7    159452.375 7    121983.32049  20697827.22349
  23309676.008 5    337712.254 5    259981.35548  23309675.60548
  20458896.320 6  -1209767.504 6   -924449.58648  20458892.83648
  23013078.578 5    317526.344 5    239883.69146  23013075.44946
  22247797.078 6    897465.449 6    691429.62549  22247795.85549
 20  5 16  3 18 56.0000000  0  8G01G04G07G08G09G11G16G27            -0.000079687
  22269961.664 6  -2232279.598 6  -1690359.34049  22269962.64149
  23508537.766 5    877282.297 5    666716.93846  23508537.77346
  22272668.664 6  -1954493.117 6  -1494197.91849  22272665.16849
  20697903.078 7    159846.633 7    122290.53549  20697902.48049
  23309818.242 5    338459.910 5    260563.94148  23309818.06348
  20458472.633 6  -1211995.313 6   -926185.53548  20458468.88348
  23013201.344 5    318169.871 5    240385.14546  23013198.19146
  22248138.469 6    899257.691 6    692826.18449  22248137.12949
 20  5 16  3 18 57.0000000  0  8G01G04G07G08G09G11G16G27            -0.000080256
  22269144.273 6  -2236574.918 6  -1693706.35249  22269144.94549
  23508868.805 5    879019.973 5    668070.95746  23508868.47346
  22271956.844 6  -1958231.516 6  -1497110.95749  22271953.32449
  20697978.117 7    160241.320 7    122598.07849  20697977.68849
  23309960.797 5    339207.977 5    261146.84448  23309960.11748
  20458048.695 6  -1214222.469 6   -927920.98448  20458045.48448
  23013323.273 5    318813.578 5    240886.74246  23013320.30546
  22248479.281 6    901050.148 6    694222.89549  22248478.29349
 20  5 16  3 18 58.0000000  0  8G01G04G07G08G09G11G16G27            -0.000080826
  22268326.547 6  -2240869.965 6  -1697053.14149  22268327.75049
  23509199.391 5    880757.629 5    669424.96946  23509199.14146
  22271246.047 6  -1961969.574 6  -1500023.73049  22271242.61749
  20698053.250 7    160636.266 7    122905.83249  20698052.36749
  23310103.148 5    339956.375 5    261730.01248  23310102.76248
  20457625.305 6  -1216449.070 6   -929656.00448  20457621.44948
  23013446.266 5    319457.375 5    241388.40646  23013442.94946
  22248820.336 6    902842.668 6    695619.66849  22248819.60949
