     2.10           OBSERVATION DATA    GPS(GPS)            RINEX VERSION / TYPE
cnvtToRINEX 3.07.0  convertToRINEX OPR  19-May-20 12:30 UTC PGM / RUN BY / DATE 
----------------------------------------------------------- COMMENT             
GBA0                                                        MARKER NAME         
GBA0                                                        MARKER NUMBER       
GNSS Observer       Trimble                                 OBSERVER / AGENCY   
0220380050          TRIMBLE 5700        2.32                REC # / TYPE / VERS 
                    UNKNOWN EXT                             ANT # / TYPE        
 -3050773.7056  4927513.4411  2654425.0076                  APPROX POSITION XYZ 
        0.0000        0.0000        0.0000                  ANTENNA: DELTA H/E/N
     1     1     0                                          WAVELENGTH FACT L1/2
     4    C1    L1    L2    P2                              # / TYPES OF OBSERV 
  2020     5    16     3    41   57.0000000     GPS         TIME OF FIRST OBS   
  2020     5    16     5     0   46.0000000     GPS         TIME OF LAST OBS    
     0                                                      RCV CLOCK OFFS APPL 
    18                                                      LEAP SECONDS        
    10                                                      # OF SATELLITES     
   G01  4730  4730  4730  4730                              PRN / # OF OBS      
   G03  1173  1171  1173  1173                              PRN / # OF OBS      
   G07  4730  4730  4730  4730                              PRN / # OF OBS      
   G08  4498  4436  4480  4480                              PRN / # OF OBS      
   G11  4730  4730  4730  4730                              PRN / # OF OBS      
   G16  1123  1026   743   743                              PRN / # OF OBS      
   G22  2577  2458  2099  2099                              PRN / # OF OBS      
   G27  1572  1361   708   708                              PRN / # OF OBS      
   G28  1048  1048  1048  1048                              PRN / # OF OBS      
   G30  4714  4714  4714  4714                              PRN / # OF OBS      
CARRIER PHASE MEASUREMENTS: PHASE SHIFTS REMOVED            COMMENT             
                                                            END OF HEADER       
 20  5 16  3 41 57.0000000  0  4G01G07G08G11                        -0.000360176
  21352962.66416   -177754.98416    -72187.50459  21352964.07059
  21509224.32016   -148171.18016    -67022.78959  21509221.26659
  20999976.74216    -25625.07016    -10868.92259  20999976.52059
  20126530.68816    -93864.44516    -40373.06659  20126527.51259
 20  5 16  3 41 58.0000000  0  4G01G07G08G11                        -0.000361712
  21351949.852 6   -183077.645 6    -76335.03149  21351951.06649
  21508326.336 6   -152888.746 6    -70698.81649  21508323.77749
  20999825.258 6    -26421.340 6    -11489.39549  20999824.92649
  20125965.055 6    -96835.285 6    -42688.00848  20125962.21148
 20  5 16  3 41 59.0000000  0  4G01G07G08G11                        -0.000363247
  21350936.883 6   -188399.895 6    -80482.24249  21350938.19149
  21507428.617 6   -157605.871 6    -74374.49649  21507425.87549
  20999673.742 6    -27217.457 6    -12109.74649  20999673.50849
  20125400.359 6    -99805.570 6    -45002.52048  20125396.74648
 20  5 16  3 42  0.0000000  0  4G01G07G08G11                        -0.000364782
  21349924.383 6   -193721.766 6    -84629.15249  21349925.62149
  21506530.984 6   -162322.574 6    -78049.84849  21506528.34849
  20999522.289 6    -28013.406 6    -12729.96149  20999521.80949
  20124835.273 7   -102775.344 7    -47316.62549  20124831.84449
 20  5 16  3 42  1.0000000  0  4G01G07G08G11                        -0.000366320
  21348911.523 6   -199043.203 6    -88775.72749  21348912.79349
  21505633.547 6   -167038.848 6    -81724.86349  21505630.93449
  20999370.938 6    -28809.203 6    -13350.06349  20999370.72349
  20124269.859 7   -105744.578 7    -49630.31349  20124266.85949
 20  5 16  3 42  2.0000000  0  4G01G07G08G11                        -0.000367853
  21347898.875 6   -204364.219 6    -92921.96949  21347900.67649
  21504735.969 6   -171754.664 6    -85399.53149  21504733.58649
  20999219.172 6    -29604.832 6    -13970.03949  20999219.34849
  20123705.258 7   -108713.219 7    -51943.53949  20123701.65249
 20  5 16  3 42  3.0000000  0  4G01G07G08G11                        -0.000369390
  21346886.820 6   -209684.805 6    -97067.88349  21346887.80149
  21503838.727 6   -176470.020 6    -89073.83249  21503836.23449
  20999067.883 6    -30400.266 6    -14589.85549  20999068.10249
  20123140.516 7   -111681.316 7    -54256.34448  20123137.34048
 20  5 16  3 42  4.0000000  0  4G01G07G08G11                        -0.000370926
  21345873.867 6   -215004.961 6   -101213.45349  21345875.33649
  21502941.594 6   -181184.938 6    -92747.78949  21502938.92649
  20998916.477 6    -31195.555 6    -15209.56649  20998916.62949
  20122575.953 7   -114648.852 7    -56568.71148  20122572.45748
 20  5 16  3 42  5.0000000  0  4G01G07G08G11                        -0.000372461
  21344861.461 6   -220324.719 6   -105358.72349  21344863.04349
  21502044.625 6   -185899.422 6    -96421.42249  21502042.35949
  20998765.484 6    -31990.652 6    -15829.12149  20998765.25449
  20122011.016 7   -117615.844 7    -58880.65248  20122008.00048
 20  5 16  3 42  6.0000000  0  4G01G07G08G11                        -0.000373999
  21343849.633 6   -225644.016 6   -109503.63349  21343850.83249
  21501147.477 6   -190613.406 6   -100094.65649  21501145.04349
  20998614.031 6    -32785.551 6    -16448.52749  20998614.09849
  20121446.617 7   -120582.250 7    -61192.14148  20121443.67648
 20  5 16  3 42  7.0000000  0  4G01G07G08G11                        -0.000375534
  21342837.609 6   -230962.879 6   -113648.19149  21342838.81649
  21500250.594 6   -195326.961 6   -103767.55549  21500248.07049
  20998462.664 6    -33580.277 6    -17067.79349  20998462.97749
  20120882.047 7   -123548.117 7    -63503.20748  20120879.00448
 20  5 16  3 42  8.0000000  0  4G01G07G08G11                        -0.000377069
  21341825.570 6   -236281.344 6   -117792.44949  21341827.03149
  21499353.680 6   -200040.082 6   -107440.11349  21499351.10949
  20998311.422 6    -34374.844 6    -17686.93849  20998312.37149
  20120318.039 7   -126513.406 7    -65813.82049  20120314.57849
 20  5 16  3 42  9.0000000  0  4G01G07G08G11                        -0.000378605
  21340813.852 6   -241599.348 6   -121936.34849  21340814.68449
  21498456.789 6   -204752.738 6   -111112.32049  21498454.52349
  20998160.477 6    -35169.215 6    -18305.92649  20998160.91049
  20119753.938 7   -129478.133 7    -68123.99249  20119751.04349
 20  5 16  3 42 10.0000000  0  4G01G07G08G11                        -0.000380142
  21339801.758 6   -246916.867 6   -126079.87149  21339803.27049
  21497560.109 6   -209464.879 6   -114784.11749  21497557.53149
  20998008.867 6    -35963.359 6    -18924.73449  20998009.55549
  20119189.703 7   -132442.266 7    -70433.70349  20119186.12949
 20  5 16  3 42 11.0000000  0  4G01G07G08G11                        -0.000381678
  21338790.102 6   -252233.945 6   -130223.04349  21338791.27349
  21496663.797 6   -214176.547 6   -118455.54349  21496661.21549
  20997858.070 6    -36757.285 6    -19543.37949  20997858.28549
  20118625.633 7   -135405.801 7    -72742.96149  20118622.55149
 20  5 16  3 42 12.0000000  0  4G01G07G08G11                        -0.000383213
  21337778.063 6   -257550.594 6   -134365.89149  21337779.54349
  21495766.938 7   -218887.754 7   -122126.61749  21495764.67649
  20997707.391 6    -37551.008 6    -20161.87149  20997707.43849
  20118062.031 7   -138368.801 7    -75051.78949  20118058.80949
 20  5 16  3 42 13.0000000  0  5G01G07G08G11G30                     -0.000384748
  21336766.680 6   -262866.793 6   -138508.37949  21336767.69149
  21494870.906 7   -223598.488 7   -125797.32049  21494868.25049
  20997556.188 6    -38344.539 6    -20780.21149  20997556.78149
  20117498.188 7   -141331.176 7    -77360.13749  20117494.74249
  23949245.75814   -198254.78914   -100747.47358  23949247.43458
 20  5 16  3 42 14.0000000  0  5G01G07G08G11G30                     -0.000386286
  21335754.602 6   -268182.547 6   -142650.52349  21335756.19149
  21493974.313 6   -228308.781 6   -129467.67649  21493971.96949
  20997405.063 6    -39137.910 6    -21398.42249  20997405.55549
  20116934.883 7   -144293.008 7    -79668.05949  20116931.69549
  23948157.453 4   -203976.004 4   -105205.56348  23948158.80548
 20  5 16  3 42 15.0000000  0  5G01G07G08G11G30                     -0.000387821
  21334743.500 6   -273497.824 6   -146792.29749  21334745.03549
  21493077.734 6   -233018.547 6   -133137.62149  21493075.34449
  20997254.438 6    -39931.031 6    -22016.44149  20997255.05149
  20116371.180 7   -147254.230 7    -81975.50448  20116367.80548
  23947069.445 4   -209697.063 4   -109663.53548  23947070.32448
 20  5 16  3 42 16.0000000  0  5G01G07G08G11G30                     -0.000389359
  21333731.930 6   -278812.625 6   -150933.69549  21333733.63349
  21492181.961 6   -237727.813 6   -136807.18049  21492179.24649
  20997103.867 6    -40723.949 6    -22634.30149  20997103.52749
  20115807.539 7   -150214.832 7    -84282.46548  20115804.35948
  23945980.375 4   -215417.824 4   -114121.27048  23945981.80948
 20  5 16  3 42 17.0000000  0  5G01G07G08G11G30                     -0.000390894
  21332720.594 6   -284126.992 6   -155074.76649  21332722.17249
  21491286.141 6   -242436.617 6   -140476.38349  21491283.35549
  20996952.695 6    -41516.691 6    -23252.02749  20996952.98449
  20115244.664 7   -153174.883 7    -86588.99649  20115240.99249
  23944892.422 4   -221138.418 4   -118578.87948  23944892.83648
 20  5 16  3 42 18.0000000  0  5G01G07G08G11G30                     -0.000392429
  21331709.703 6   -289440.891 6   -159215.46149  21331711.17249
  21490389.859 6   -247144.934 6   -144145.19149  21490387.66449
  20996801.734 6    -42309.219 6    -23869.57849  20996802.03949
  20114681.461 7   -156134.344 7    -88895.07048  20114678.06348
  23943804.000 4   -226858.805 4   -123036.32048  23943804.34048
 20  5 16  3 42 19.0000000  0  6G01G07G08G11G16G30                  -0.000393965
  21330698.297 6   -294754.313 6   -163355.78549  21330700.13749
  21489493.539 6   -251852.797 6   -147813.65249  21489491.46149
  20996651.078 6    -43101.523 6    -24486.95749  20996651.34049
  20114118.641 7   -159093.199 7    -91200.67649  20114114.83649
  23348906.52312    -17387.35512     -8761.92256  23348903.58256
  23942715.586 5   -232578.992 5   -127493.60948  23942715.54748
 20  5 16  3 42 20.0000000  0  7G01G07G08G11G16G27G30               -0.000395498
  21329687.406 6   -300067.266 6   -167495.75049  21329688.92249
  21488597.906 6   -256560.109 6   -151481.69549  21488595.39149
  20996500.383 6    -43893.598 6    -25104.15649  20996500.81649
  20113555.539 7   -162051.426 7    -93505.78148  20113551.90648
  23348767.297 2    -18116.008 2     -9329.70746  23348765.22346
  22881530.82814     11039.34814      5948.81657  22881529.77057
  23941626.867 5   -238298.906 5   -131950.68048  23941627.15648
 20  5 16  3 42 21.0000000  0  7G01G07G08G11G16G27G30               -0.000397034
  21328676.563 6   -305379.711 6   -171635.31649  21328678.16449
  21487702.859 6   -261266.906 6   -155149.32049  21487700.13749
  20996349.961 6    -44685.453 6    -25721.18049  20996350.04349
  20112992.578 7   -165009.051 7    -95810.43448  20112989.00048
  23348628.258 3    -18844.504 3     -9897.36346  23348626.67246
  22881591.484 3     11360.527 3      6199.07847  22881591.03547
  23940538.109 5   -244018.566 5   -136407.56648  23940538.59448
 20  5 16  3 42 22.0000000  0  7G01G07G08G11G16G27G30               -0.000398569
  21327665.672 6   -310691.648 6   -175774.48049  21327667.25049
  21486807.219 6   -265973.203 6   -158816.56649  21486804.82049
  20996199.172 6    -45477.051 6    -26338.00849  20996199.65249
  20112430.000 7   -167966.055 7    -98114.58648  20112426.37548
  23348489.836 3    -19572.863 3    -10464.91846  23348488.25446
  22881652.234 3     11681.770 3      6449.38747  22881652.31347
  23939449.797 4   -249738.020 4   -140864.28948  23939450.24648
 20  5 16  3 42 23.0000000  0  7G01G07G08G11G16G27G30               -0.000400105
  21326654.453 6   -316003.148 6   -179913.30949  21326656.75849
  21485911.344 6   -270679.000 6   -162483.42249  21485909.00849
  20996048.289 6    -46268.469 6    -26954.70349  20996048.52749
  20111866.930 7   -170922.461 7   -100418.27348  20111863.59848
  23348352.500 3    -20301.086 3    -11032.34446  23348349.60546
  22881713.031 4     12002.992 4      6699.68447  22881712.86347
  23938361.359 4   -255457.195 4   -145320.79748  23938361.94948
 20  5 16  3 42 24.0000000  0  7G01G07G08G11G16G27G30               -0.000401640
  21325643.992 6   -321314.148 6   -184051.75449  21325645.98449
  21485016.133 6   -275384.301 6   -166149.88749  21485013.61749
  20995897.594 6    -47059.664 6    -27571.21549  20995898.69149
  20111304.797 7   -173878.246 7   -102721.48848  20111300.98048
  23348213.852 2    -21029.059 2    -11599.60246  23348210.57446
  22881775.453 3     12324.320 3      6950.06647  22881773.87547
  23937272.930 4   -261176.191 4   -149777.15648  23937273.77348
 20  5 16  3 42 25.0000000  0  7G01G07G08G11G16G27G30               -0.000403173
  21324633.836 6   -326624.680 6   -188189.82449  21324635.62949
  21484120.648 6   -280089.090 6   -169815.95749  21484118.34849
  20995747.258 6    -47850.598 6    -28187.53149  20995747.85549
  20110742.453 7   -176833.438 7   -105024.24248  20110739.00448
  23348074.008 2    -21756.930 2    -12166.78546  23348072.46546
  22881836.047 3     12645.613 3      7200.41047  22881835.01247
  23936184.570 4   -266894.945 4   -154233.34048  23936185.70348
 20  5 16  3 42 26.0000000  0  7G01G07G08G11G16G27G30               -0.000404711
  21323623.031 6   -331934.719 6   -192327.52049  21323625.00849
  21483225.391 6   -284793.375 6   -173481.62949  21483223.30549
  20995596.617 6    -48641.289 6    -28803.64849  20995597.39149
  20110180.109 7   -179788.004 7   -107326.50048  20110176.81648
  23347935.148 3    -22484.570 3    -12733.76646  23347933.70346
  22881898.047 3     12966.988 3      7450.82447  22881896.41047
  23935096.891 4   -272613.461 4   -158689.32848  23935097.35248
 20  5 16  3 42 27.0000000  0  7G01G07G08G11G16G27G30               -0.000406246
  21322612.453 6   -337244.289 6   -196464.84449  21322614.61749
  21482330.156 6   -289497.145 6   -177146.90649  21482327.82449
  20995446.250 6    -49431.793 6    -29419.62949  20995447.21549
  20109617.789 7   -182741.965 7   -109628.28948  20109614.68048
  23347797.281 3    -23212.055 3    -13300.65646  23347795.64846
  22881957.438 3     13288.391 3      7701.27347  22881957.20347
  23934008.828 4   -278331.730 4   -163145.12148  23934009.10248
 20  5 16  3 42 28.0000000  0  7G01G07G08G11G16G27G30               -0.000407782
  21321602.117 6   -342553.367 6   -200601.78949  21321604.22349
  21481435.281 6   -294200.434 6   -180811.80549  21481432.84849
  20995295.797 6    -50222.070 6    -30035.42649  20995296.64149
  20109055.742 7   -185695.301 7   -111929.59048  20109052.60548
  23347658.438 3    -23939.426 3    -13867.45746  23347657.02346
  22882018.484 3     13609.738 3      7951.66847  22882018.64847
  23932920.734 4   -284049.770 4   -167600.73448  23932921.11748
 20  5 16  3 42 29.0000000  0  7G01G07G08G11G16G27G30               -0.000409317
  21320592.414 6   -347861.953 6   -204738.35249  21320594.17649
  21480540.164 6   -298903.191 6   -184476.29349  21480538.03149
  20995145.492 6    -51012.086 6    -30651.02749  20995146.45349
  20108494.031 7   -188648.051 7   -114230.42648  20108490.64848
  23347520.695 3    -24666.613 3    -14434.09846  23347518.85546
  22882080.188 3     13931.176 3      8202.14547  22882079.39147
  23931832.867 4   -289767.555 4   -172056.14848  23931832.62148
 20  5 16  3 42 30.0000000  0  7G01G07G08G11G16G27G30               -0.000410852
  21319582.055 6   -353170.066 6   -208874.54349  21319584.17249
  21479645.375 6   -303605.473 6   -188140.41049  21479643.23849
  20994995.133 6    -51801.926 6    -31266.48449  20994996.21549
  20107932.211 7   -191600.172 7   -116530.78548  20107928.69148
  23347382.289 3    -25393.648 3    -15000.63746  23347380.20346
  22882141.859 3     14252.652 3      8452.65247  22882140.67247
  23930744.656 4   -295485.121 4   -176511.39148  23930745.11348
 20  5 16  3 42 31.0000000  0  7G01G07G08G11G16G27G30               -0.000412386
  21318572.539 6   -358477.711 6   -213010.37149  21318574.19549
  21478750.773 6   -308307.238 6   -191804.13349  21478748.63749
  20994844.930 6    -52591.516 6    -31881.75449  20994845.53949
  20107370.664 7   -194551.707 7   -118830.68448  20107367.49648
  23347243.930 3    -26120.512 3    -15567.02046  23347242.15246
  22882203.523 3     14574.109 3      8703.13747  22882201.61347
  23929656.930 4   -301202.512 4   -180966.50848  23929656.60548
 20  5 16  3 42 32.0000000  0  7G01G07G08G11G16G27G30               -0.000413921
  21317562.352 6   -363784.992 6   -217145.91849  21317564.16449
  21477856.281 6   -313008.668 6   -195467.58249  21477854.21949
  20994694.547 6    -53381.020 6    -32496.94949  20994695.34449
  20106809.250 7   -197502.754 7   -121130.20349  20106805.84049
  23347105.617 3    -26847.359 3    -16133.39146  23347103.54746
  22882263.758 3     14895.555 3      8953.61747  22882263.20747
  23928568.578 4   -306919.730 4   -185421.49648  23928568.42648
 20  5 16  3 42 33.0000000  0  7G01G07G08G11G16G27G30               -0.000415457
  21316552.047 6   -369091.730 6   -221281.03549  21316554.66049
  21476961.461 6   -317709.461 6   -199130.53149  21476959.33649
  20994544.625 6    -54170.211 6    -33111.89849  20994545.09849
  20106247.797 7   -200453.109 7   -123429.18448  20106244.49648
  23346968.242 3    -27573.938 3    -16699.55946  23346965.52746
  22882324.281 2     15217.039 2      9204.12547  22882324.29747
  23927480.617 4   -312636.676 4   -189876.25448  23927480.82848
 20  5 16  3 42 34.0000000  0  7G01G07G08G11G16G27G30               -0.000416992
  21315542.492 6   -374397.852 6   -225415.67249  21315544.77749
  21476066.883 6   -322409.652 6   -202793.02349  21476064.95349
  20994394.219 6    -54959.078 6    -33726.60549  20994394.85949
  20105686.258 7   -203402.742 7   -125727.59848  20105683.16048
  23346829.180 3    -28300.277 3    -17265.52746  23346827.26646
  22882385.680 2     15538.730 2      9454.79747  22882385.49247
  23926392.656 5   -318353.242 5   -194330.72748  23926393.09048
 20  5 16  3 42 35.0000000  0  7G01G07G08G11G16G27G30               -0.000418528
  21314532.914 6   -379703.324 6   -229549.80549  21314535.13749
  21475173.016 6   -327109.148 6   -206454.96549  21475170.55949
  20994244.406 6    -55747.508 6    -34340.96549  20994244.90649
  20105125.133 7   -206351.602 7   -128025.40248  20105121.70748
  23346691.500 3    -29026.188 3    -17831.18446  23346689.09046
  22882447.383 2     15860.547 2      9705.55147  22882446.18447
  23925304.992 4   -324069.395 4   -198784.87148  23925305.31648
 20  5 16  3 42 36.0000000  0  7G01G07G08G11G16G27G30               -0.000420063
  21313524.039 6   -385008.035 6   -233683.34849  21313526.08249
  21474278.516 6   -331807.906 6   -210116.33249  21474276.28149
  20994094.695 6    -56535.426 6    -34954.92649  20994095.04749
  20104563.984 7   -209299.520 7   -130322.48049  20104560.70749
  23346553.125 3    -29751.738 3    -18396.55146  23346550.93046
  22882507.602 2     16182.703 2      9956.57047  22882508.37947
  23924218.000 4   -329785.008 4   -203238.59448  23924217.82048
 20  5 16  3 42 37.0000000  0  7G01G07G08G11G16G27G30               -0.000421597
  21312514.625 6   -390311.930 6   -237816.24649  21312516.84049
  21473384.750 6   -336505.770 6   -213777.00449  21473382.35249
  20993944.719 6    -57322.820 6    -35568.47749  20993944.87549
  20104003.508 7   -212246.551 7   -132618.87149  20104000.01649
  23346415.328 3    -30476.762 3    -18961.52046  23346413.14846
  22882569.250 2     16505.258 2     10207.91847  22882569.16847
  23923129.758 4   -335500.137 4   -207691.93848  23923130.08248
 20  5 16  3 42 38.0000000  0  7G01G07G08G11G16G27G30               -0.000423132
  21311505.266 6   -395615.031 6   -241948.53549  21311507.11749
  21472490.648 6   -341202.871 6   -217437.09449  21472488.72349
  20993795.016 6    -58109.664 6    -36181.60249  20993795.49249
  20103442.953 7   -215192.652 7   -134914.53548  20103439.46548
  23346276.586 3    -31201.355 3    -19526.14546  23346275.07446
  22882630.406 1     16828.145 1     10459.52347  22882630.58647
  23922042.594 4   -341214.652 4   -212144.80548  23922042.82048
 20  5 16  3 42 39.0000000  0  7G01G07G08G11G16G27G30               -0.000424665
  21310495.984 6   -400917.480 6   -246080.30949  21310497.96949
  21471596.914 6   -345899.254 6   -221096.60249  21471594.75449
  20993645.547 6    -58896.098 6    -36794.39849  20993645.70749
  20102882.266 7   -218137.941 7   -137209.57048  20102878.99648
  23346139.711 3    -31925.563 3    -20090.46546  23346137.13346
  22882693.070 1     17151.230 1     10711.27747  22882692.44947
  23920955.156 4   -346928.738 4   -216597.34848  23920955.60948
 20  5 16  3 42 40.0000000  0  7G01G07G08G11G16G27G30               -0.000426201
  21309487.375 6   -406219.426 6   -250211.69549  21309489.33649
  21470703.281 6   -350595.156 6   -224755.75049  21470701.43049
  20993495.836 6    -59682.336 6    -37407.05149  20993496.02049
  20102321.602 7   -221082.660 7   -139504.14848  20102318.88748
  23346002.070 3    -32649.605 3    -20654.63746  23345999.66046
  22882753.461 1     17474.414 1     10963.12147  22882753.62147
  23919868.055 4   -352642.629 4   -221049.73048  23919868.02348
 20  5 16  3 42 41.0000000  0  7G01G07G08G11G16G27G30               -0.000427734
  21308478.281 6   -411521.074 6   -254342.85949  21308480.22349
  21469809.672 6   -355290.672 6   -228414.59449  21469808.18449
  20993346.430 6    -60468.434 6    -38019.59849  20993346.50049
  20101761.586 7   -224026.906 7   -141798.36748  20101758.05148
  23345864.219 3    -33373.703 3    -21218.87546  23345861.50846
  22882813.984 1     17797.324 1     11214.73447  22882814.31647
  23918780.625 4   -358356.453 4   -225502.05948  23918781.03948
 20  5 16  3 42 42.0000000  0  7G01G07G08G11G16G27G30               -0.000429270
  21307469.227 6   -416822.391 6   -258473.75449  21307471.27749
  21468916.656 6   -359985.887 6   -232073.19949  21468913.78949
  20993197.133 6    -61254.547 6    -38632.15649  20993196.93449
  20101201.523 6   -226970.707 6   -144092.23848  20101198.36748
  23345726.516 3    -34097.723 3    -21783.05146  23345724.14146
  22882874.289 1     18120.074 1     11466.23447  22882877.03947
  23917693.469 4   -364070.164 4   -229954.28948  23917693.21148
 20  5 16  3 42 43.0000000  0  7G01G07G08G11G16G27G30               -0.000430803
  21306460.828 6   -422123.375 6   -262604.39549  21306462.94149
  21468022.883 6   -364680.730 6   -235731.52749  21468021.14149
  20993047.320 6    -62040.555 6    -39244.62549  20993047.27749
  20100641.031 6   -229914.074 6   -146385.76649  20100637.77749
  23345588.906 3    -34821.781 3    -22347.25046  23345586.15246
  22882935.35911                     11717.77357  22882937.55557
  23916606.359 4   -369783.855 4   -234406.51648  23916606.01648
 20  5 16  3 42 44.0000000  0  7G01G07G08G11G16G27G30               -0.000432339
  21305451.953 6   -427424.008 6   -266734.74649  21305454.13749
  21467129.781 6   -369375.176 6   -239389.54349  21467127.69149
  20992897.914 6    -62826.473 6    -39857.03549  20992897.77749
  20100081.055 6   -232856.926 6   -148678.90249  20100077.71549
  23345450.805 3    -35545.781 3    -22911.40646  23345448.51246
  22882996.96911     18765.44911     11969.13357  22882999.59857
  23915519.063 4   -375497.395 4   -238858.62548  23915518.50848
 20  5 16  3 42 45.0000000  0  7G01G07G08G11G16G27G30               -0.000433872
  21304443.555 6   -432724.289 6   -270864.83249  21304445.37949
  21466236.742 6   -374069.266 6   -243047.27049  21466234.36349
  20992747.977 6    -63612.289 6    -40469.35549  20992747.91049
  20099521.516 6   -235799.297 6   -150971.65249  20099518.02749
  23345312.570 3    -36269.703 3    -23475.49246  23345310.32846
  22883056.383 1     19088.113 1     12220.57047  22883060.09847
  23914431.195 4   -381210.852 4   -243310.67648  23914431.76248
 20  5 16  3 42 46.0000000  0  7G01G07G08G11G16G27G30               -0.000435408
  21303434.789 6   -438024.176 6   -274994.60949  21303437.08649
  21465343.313 6   -378762.930 6   -246704.67649  21465341.15249
  20992598.164 6    -64397.977 6    -41081.57849  20992598.46549
  20098961.211 6   -238741.168 6   -153264.02049  20098958.30549
  23345174.953 3    -36993.609 3    -24039.57446  23345173.26246
  22883117.43011     19410.41411     12471.71157  22883121.79357
  23913344.477 5   -386924.164 5   -247762.60548  23913343.88348
 20  5 16  3 42 47.0000000  0  7G01G07G08G11G16G27G30               -0.000436941
  21302426.414 6   -443323.656 6   -279124.07449  21302428.84449
  21464449.977 6   -383456.176 6   -250361.75049  21464447.63749
  20992449.109 6    -65183.516 6    -41693.68849  20992449.30949
  20098401.859 7   -241682.492 7   -155555.96149  20098398.51249
  23345036.375 3    -37717.414 3    -24603.56646  23345034.81646
  22883180.26611                     12723.00057  22883182.91057
  23912257.148 5   -392637.293 5   -252214.38748  23912257.11348
 20  5 16  3 42 48.0000000  0  7G01G07G08G11G16G27G30               -0.000438477
  21301418.250 6   -448622.750 6   -283253.24249  21301420.08649
  21463557.234 6   -388149.039 6   -254018.52749  21463554.90249
  20992299.461 6    -65969.000 6    -42305.75449  20992299.19549
  20097842.242 7   -244623.363 7   -157847.55149  20097838.82849
  23344899.117 3    -38441.188 3    -25167.55546  23344896.81646
  22883242.43811                     12974.21557  22883244.46957
  23911170.414 4   -398350.277 4   -256666.06348  23911169.84048
 20  5 16  3 42 49.0000000  0  7G01G07G08G11G16G27G30               -0.000440010
  21300409.797 6   -453921.555 6   -287382.17649  21300412.02749
  21462664.617 6   -392841.543 6   -257675.02749  21462662.05949
  20992150.289 6    -66754.391 6    -42917.74649  20992150.30949
  20097282.773 6   -247563.766 6   -160138.77048  20097279.43848
  23344761.625 4    -39164.979 4    -25731.55446  23344759.46146
  22883301.79711                     13225.24257  22883305.93857
  23910082.906 4   -404063.305 4   -261117.77748  23910082.69948
 20  5 16  3 42 50.0000000  0  7G01G07G08G11G16G27G30               -0.000441545
  21299401.781 6   -459219.977 6   -291510.82049  21299403.94949
  21461771.594 6   -397533.648 6   -261331.21149  21461769.18049
  20992000.430 6    -67539.633 6    -43529.62149  20992000.58649
  20096723.016 7   -250503.664 7   -162429.59448  20096719.96548
  23344624.563 4    -39888.684 4    -26295.48046  23344622.00846
  22883364.60211                     13476.27357  22883366.96157
  23908995.422 4   -409776.109 4   -265569.31648  23908995.49648
 20  5 16  3 42 51.0000000  0  7G01G07G08G11G16G27G30               -0.000443081
  21298393.789 6   -464517.980 6   -295639.13749  21298395.39849
  21460878.883 6   -402225.355 6   -264987.09049  21460876.35949
  20991851.945 6    -68324.777 6    -44141.41849  20991850.77749
  20096164.094 7   -253443.043 7   -164720.02048  20096160.41848
  23344486.164 3    -40612.250 3    -26859.30946  23344484.56646
  22883425.66411                     13727.16457  22883428.98857
  23907908.680 4   -415488.758 4   -270020.73448  23907908.74248
 20  5 16  3 42 52.0000000  0  7G01G07G08G11G16G27G30               -0.000444614
  21297385.391 6   -469815.609 6   -299767.15649  21297387.23049
  21459986.242 6   -406916.609 6   -268642.61749  21459983.53149
  20991702.195 6    -69109.719 6    -44753.07049  20991701.79749
  20095604.438 6   -256381.867 6   -167010.00848  20095600.93848
  23344348.734 3    -41335.840 3    -27423.14846  23344346.85946
  22883485.80511                     13978.10957  22883489.73457
  23906821.094 4   -421201.316 4   -274472.09048  23906821.57448
 20  5 16  3 42 53.0000000  0  7G01G07G08G11G16G27G30               -0.000446150
  21296377.625 6   -475112.840 6   -303894.87149  21296379.19149
  21459093.430 6   -411607.465 6   -272297.82849  21459090.64149
  20991552.641 6    -69894.574 6    -45364.64549  20991552.45749
  20095045.617 6   -259320.203 6   -169299.62549  20095042.48449
  23344210.648 2    -42059.270 2    -27986.85946  23344208.93046
  22883548.24211                     14228.96557  22883551.30557
  23905734.289 4   -426913.648 4   -278923.25348  23905734.39548
 20  5 16  3 42 54.0000000  0  7G01G07G08G11G16G27G30               -0.000447685
  21295369.594 6   -480409.684 6   -308022.28149  21295371.30949
  21458201.242 6   -416297.910 6   -275952.71549  21458198.28949
  20991403.227 6    -70679.285 6    -45976.09849  20991402.96149
  20094486.180 6   -262258.027 6   -171588.84049  20094483.28149
  23344073.688 3    -42782.730 3    -28550.58246  23344070.94546
  22883608.75811                     14479.85557  22883612.59057
  23904647.977 4   -432625.910 4   -283374.36348  23904647.80548
 20  5 16  3 42 55.0000000  0  7G01G07G08G11G16G27G30               -0.000449221
  21294361.789 6   -485706.141 6   -312149.39549  21294363.39849
  21457308.422 6   -420987.938 6   -279607.28549  21457305.62949
  20991253.805 6    -71463.863 6    -46587.45749  20991253.69149
  20093927.125 6   -265195.340 6   -173877.66049  20093924.50449
  23343936.008 3    -43506.078 3    -29114.21146  23343933.71546
  22883671.32011                     14730.50057  22883673.10557
  23903560.234 4   -438338.016 4   -287825.35248  23903561.12148
 20  5 16  3 42 56.0000000  0  7G01G07G08G11G16G27G30               -0.000450756
  21293353.984 6   -491002.191 6   -316276.18449  21293355.26649
  21456416.648 6   -425677.539 6   -283261.52349  21456413.18449
  20991104.680 6    -72248.301 6    -47198.71549  20991104.48849
  20093368.531 6   -268132.098 6   -176166.04748  20093365.53948
  23343796.930 2    -44229.305 2    -29677.77046  23343796.66446
  22883734.836 1     22630.977 1     14981.29747  22883734.87547
  23902473.211 4   -444049.969 4   -292276.21948  23902474.02048
 20  5 16  3 42 57.0000000  0  7G01G07G08G11G16G27G30               -0.000452291
  21292345.836 6   -496297.773 6   -320402.60949  21292347.96149
  21455523.836 6   -430366.668 6   -286915.39549  21455521.37949
  20990955.531 6    -73032.555 6    -47809.82049  20990955.10249
  20092810.008 6   -271068.270 6   -178453.96149  20092807.02049
  23343659.961 3    -44952.410 3    -30241.23046  23343658.00446
  22883793.820 1     22952.754 1     15232.03947  22883795.46147
  23901386.406 4   -449761.680 4   -296726.89148  23901387.27348
 20  5 16  3 42 58.0000000  0  7G01G07G08G11G16G27G30               -0.000453827
  21291338.406 6   -501592.949 6   -324528.71949  21291339.96149
  21454631.656 6   -435055.352 6   -290568.91049  21454628.64149
  20990806.086 6    -73816.664 6    -48420.81349  20990806.09049
  20092251.445 6   -274003.895 6   -180741.46149  20092248.59049
  23343521.984 2    -45675.426 2    -30804.60546  23343520.96146
  22883857.625 1     23274.473 1     15482.73847  22883857.44547
  23900299.602 4   -455473.234 4   -301177.44948  23900299.93048
 20  5 16  3 42 59.0000000  0  7G01G07G08G11G16G27G30               -0.000455360
  21290330.852 6   -506887.676 6   -328654.47349  21290332.67649
  21453739.539 6   -439743.574 6   -294222.07049  21453736.78549
  20990656.859 6    -74600.586 6    -49031.66449  20990656.85549
  20091692.805 6   -276938.941 6   -183028.50849  20091689.80149
  23343384.695 2    -46398.340 2    -31367.93446  23343383.01646
  22883917.695 1     23596.180 1     15733.43847  22883919.11747
  23899213.359 4   -461184.574 4   -305627.85248  23899213.21548
 20  5 16  3 43  0.0000000  0  7G01G07G08G11G16G27G30               -0.000456896
  21289322.852 6   -512181.977 6   -332779.89849  21289325.11349
  21452847.242 6   -444431.324 6   -297874.85549  21452844.54349
  20990507.906 6    -75384.324 6    -49642.37149  20990507.68849
  20091134.391 6   -279873.449 6   -185315.13748  20091131.12948
  23343247.594 2    -47121.125 2    -31931.14546  23343245.64846
  22883979.555 2     23917.934 2     15984.13747  22883980.02347
  23898125.727 4   -466895.773 4   -310078.13348  23898126.70748
 20  5 16  3 43  1.0000000  0  7G01G07G08G11G16G27G30               -0.000458431
  21288316.297 6   -517475.813 6   -336904.96949  21288317.74649
  21451955.195 6   -449118.609 6   -301527.28149  21451952.95749
  20990358.922 6    -76167.883 6    -50252.93049  20990358.66049
  20090575.891 6   -282807.383 6   -187601.32049  20090573.03149
  23343110.070 3    -47843.750 3    -32494.23846  23343107.89146
  22884041.383 2     24239.684 2     16234.83647  22884041.15247
  23897038.961 4   -472606.754 4   -314528.24648  23897039.79748
 20  5 16  3 43  2.0000000  0  7G01G07G08G11G16G27G30               -0.000459967
  21287308.734 6   -522769.266 6   -341029.73049  21287310.70749
  21451063.555 6   -453805.473 6   -305179.38749  21451061.08649
  20990209.383 6    -76951.289 6    -50863.38349  20990209.62949
  20090017.938 6   -285740.805 6   -189887.10548  20090015.21548
  23342971.625 2    -48566.281 2    -33057.24246  23342970.24646
  22884101.766 2     24561.289 2     16485.41847  22884101.90647
  23895952.305 4   -478317.590 4   -318978.24648  23895952.77748
 20  5 16  3 43  3.0000000  0  7G01G07G08G11G16G27G30               -0.000461500
  21286301.008 6   -528062.266 6   -345154.14149  21286303.53949
  21450171.422 6   -458491.863 6   -308831.12149  21450169.14849
  20990060.641 6    -77734.496 6    -51473.67649  20990060.81349
  20089459.578 6   -288673.629 6   -192172.41449  20089456.95749
  23342834.680 2    -49288.754 2    -33620.19946  23342833.07446
  22884163.523 3     24882.941 3     16736.05947  22884163.37547
  23894866.445 4   -484028.195 4   -323428.06648  23894866.04748
 20  5 16  3 43  4.0000000  0  7G01G07G08G11G16G27G30               -0.000463036
  21285294.266 6   -533354.855 6   -349278.24249  21285295.92649
  21449280.031 6   -463177.824 6   -312482.52049  21449277.69149
  20989911.711 6    -78517.570 6    -52083.86349  20989911.57849
  20088901.633 6   -291605.926 6   -194457.32849  20088899.28149
  23342696.836 2    -50011.059 2    -34183.07046  23342695.54346
  22884225.758 3     25204.496 3     16986.62147  22884224.34047
  23893779.359 4   -489738.668 4   -327877.79748  23893779.19948
 20  5 16  3 43  5.0000000  0  7G01G07G08G11G16G27G30               -0.000464571
  21284286.914 6   -538646.969 6   -353401.96949  21284289.18049
  21448388.438 6   -467863.313 6   -316133.55149  21448386.21549
  20989762.742 6    -79300.449 6    -52693.89849  20989762.50449
  20088344.055 6   -294537.648 6   -196741.78149  20088340.98449
  23342559.688 2    -50733.281 2    -34745.84846  23342557.90246
  22884286.141 3     25526.098 3     17237.22347  22884286.29747
  23892692.516 4   -495448.883 4   -332327.31648  23892692.62548
 20  5 16  3 43  6.0000000  0  7G01G07G08G11G16G27G30               -0.000466106
  21283280.188 6   -543938.617 6   -357525.34049  21283282.05949
  21447496.617 6   -472548.301 6   -319784.18849  21447494.54749
  20989613.461 6    -80083.109 6    -53303.76649  20989613.55949
  20087785.750 6   -297468.766 6   -199025.77349  20087783.02049
  23342422.547 2    -51455.344 2    -35308.46546  23342421.01246
  22884347.523 3     25847.750 3     17487.86347  22884346.81347
  23891606.070 4   -501158.914 4   -336776.69548  23891605.87548
 20  5 16  3 43  7.0000000  0  7G01G07G08G11G16G27G30               -0.000467642
  21282272.859 6   -549229.836 6   -361648.35949  21282275.30549
  21446605.422 6   -477232.816 6   -323434.46149  21446602.99249
  20989464.766 6    -80865.609 6    -53913.50849  20989465.27349
  20087228.375 6   -300399.320 6   -201309.32049  20087225.34049
  23342286.039 3    -52177.297 3    -35871.03146  23342283.07446
  22884409.578 3     26169.367 3     17738.46947  22884408.27047
  23890519.531 4   -506868.711 4   -341225.88348  23890519.36748
 20  5 16  3 43  8.0000000  0  7G01G07G08G11G16G27G30               -0.000469177
  21281266.031 6   -554520.563 6   -365771.00449  21281268.18049
  21445714.273 6   -481916.836 6   -327084.34849  21445711.86749
  20989315.969 6    -81647.910 6    -54523.09449  20989315.75849
  20086671.000 6   -303329.281 6   -203592.40649  20086667.87149
  23342148.305 3    -52899.070 3    -36433.46146  23342145.86346
  22884470.539 3     26490.973 3     17989.07047  22884469.72347
  23889433.148 4   -512578.355 4   -345674.96148  23889432.98448
 20  5 16  3 43  9.0000000  0  7G01G07G08G11G16G27G30               -0.000470711
  21280259.781 6   -559810.809 6   -369893.27349  21280261.37149
  21444822.953 6   -486600.355 6   -330733.84449  21444820.80549
  20989166.922 6    -82429.969 6    -55132.48449  20989166.86349
  20086113.406 6   -306258.637 6   -205875.02749  20086110.21949
  23342011.094 3    -53620.711 3    -36995.78546  23342008.70346
  22884531.266 3     26812.621 3     18239.69947  22884530.89547
  23888346.414 4   -518287.695 4   -350123.79748  23888346.57048
 20  5 16  3 43 10.0000000  0  7G01G07G08G11G16G27G30               -0.000472246
  21279252.867 6   -565100.598 6   -374015.18449  21279255.03949
  21443932.008 6   -491283.379 6   -334382.94949  21443929.44149
  20989018.328 6    -83211.840 6    -55741.73449  20989018.12549
  20085556.016 6   -309187.383 6   -208157.16849  20085553.16049
  23341873.430 2    -54342.152 2    -37557.94946  23341871.36346
  22884592.977 3     27134.344 3     18490.38747  22884592.14547
  23887259.984 4   -523996.875 4   -354572.50448  23887260.03548
 20  5 16  3 43 11.0000000  0  7G01G07G08G11G16G27G30               -0.000473782
  21278246.805 6   -570389.906 6   -378136.72749  21278248.66849
  21443040.805 6   -495965.895 6   -338031.66449  21443038.41449
  20988869.672 6    -83993.461 6    -56350.79349  20988869.24649
  20084998.602 6   -312115.551 6   -210438.85949  20084996.12149
  23341736.344 3    -55063.477 3    -38120.02746  23341734.00446
  22884653.477 3     27456.039 3     18741.05947  22884653.34447
  23886174.414 4   -529705.789 4   -359021.01648  23886173.37148
 20  5 16  3 43 12.0000000  0  7G01G07G08G11G16G27G30               -0.000475317
  21277240.336 6   -575678.695 6   -382257.86749  21277241.98449
  21442149.414 6   -500647.898 6   -341679.98449  21442147.34449
  20988720.758 6    -84774.844 6    -56959.66449  20988721.09849
  20084441.742 6   -315043.078 6   -212720.04749  20084438.99249
  23341599.492 3    -55784.621 3    -38681.94946  23341596.67246
  22884715.516 4     27777.695 4     18991.69547  22884714.89147
  23885088.055 4   -535414.453 4   -363469.32448  23885087.37548
 20  5 16  3 43 13.0000000  0  7G01G07G08G11G16G27G30               -0.000476851
  21276233.445 6   -580966.988 6   -386378.61349  21276235.09849
  21441258.852 6   -505329.348 6   -345327.85949  21441256.74649
  20988572.516 6    -85555.980 6    -57568.34849  20988572.09049
  20083884.578 6   -317969.938 6   -215000.71549  20083882.05149
  23341461.836 3    -56505.535 3    -39243.68046  23341459.71946
  22884776.461 3     28099.480 3     19242.44147  22884776.23447
  23884001.531 4   -541122.820 4   -367917.40648  23884000.41448
 20  5 16  3 43 14.0000000  0  7G01G07G08G11G16G27G30               -0.000478386
  21275227.789 6   -586254.785 6   -390498.97349  21275229.39849
  21440368.273 6   -510010.328 6   -348975.37549  21440365.68849
  20988423.688 6    -86336.898 6    -58176.85949  20988423.87149
  20083328.125 6   -320896.277 6   -217280.98048  20083325.18848
  23341324.602 3    -57226.313 3    -39805.32846  23341322.69946
  22884837.758 3     28421.266 3     19493.18847  22884837.62147
  23882915.336 5   -546831.012 5   -372365.34848  23882914.94948
 20  5 16  3 43 15.0000000  0  7G01G07G08G11G16G27G30               -0.000479921
  21274221.461 6   -591542.125 6   -394618.97749  21274223.48049
  21439477.328 6   -514690.762 6   -352622.46949  21439475.16849
  20988274.828 6    -87117.609 6    -58785.20349  20988275.15249
  20082771.078 6   -323821.953 6   -219560.72749  20082768.33649
  23341187.828 3    -57946.953 3    -40366.88746  23341185.96546
  22884897.328 3     28743.125 3     19743.97347  22884898.85547
  23881829.258 5   -552538.930 5   -376813.08248  23881828.87148
 20  5 16  3 43 16.0000000  0  7G01G07G08G11G16G27G30               -0.000481457
  21273215.266 6   -596828.953 6   -398738.58249  21273217.03549
  21438586.703 6   -519370.715 6   -356269.17649  21438584.33649
  20988126.563 6    -87898.074 6    -59393.35949  20988126.55549
  20082214.555 6   -326747.020 6   -221840.00049  20082211.70349
  23341050.141 3    -58667.422 3    -40928.30946  23341048.15246
  22884960.117 3     29064.980 3     19994.75847  22884959.78547
  23880742.719 4   -558246.629 4   -381260.64548  23880742.97748
 20  5 16  3 43 17.0000000  0  7G01G07G08G11G16G27G30               -0.000482990
  21272209.711 6   -602115.328 6   -402857.84049  21272211.65249
  21437696.297 6   -524050.152 6   -359915.49649  21437694.28949
  20987978.016 6    -88678.340 6    -60001.35549  20987978.15649
  20081658.086 6   -329671.492 6   -224118.80949  20081654.89849
  23340913.516 3    -59387.727 3    -41489.60246  23340911.58646
  22885020.445 3     29386.930 3     20245.62947  22885021.54347
  23879656.391 4   -563954.051 4   -385707.97348  23879656.29748
 20  5 16  3 43 18.0000000  0  7G01G07G08G11G16G27G30               -0.000484526
  21271203.758 6   -607401.191 6   -406976.68849  21271205.40649
  21436805.992 6   -528729.090 6   -363561.42249  21436803.23049
  20987829.836 6    -89458.434 6    -60609.22349  20987829.96149
  20081102.281 6   -332595.371 6   -226397.15649  20081098.76649
  23340777.063 3    -60107.820 3    -42050.70746  23340774.50846
  22885082.055 3     29708.773 3     20496.41047  22885082.78147
  23878570.563 4   -569661.277 4   -390155.16448  23878570.44148
 20  5 16  3 43 19.0000000  0  7G01G07G08G11G16G27G30               -0.000486059
  21270197.500 6   -612686.605 6   -411095.19149  21270199.73849
  21435915.492 6   -533407.551 6   -367206.97349  21435913.72749
  20987681.313 6    -90238.301 6    -61216.91449  20987681.62949
  20080545.313 6   -335518.652 6   -228675.03949  20080542.44549
  23340639.719 2    -60827.801 2    -42611.72746  23340637.65246
  22885142.922 3     30030.703 3     20747.25847  22885143.94947
  23877484.953 4   -575368.309 4   -394602.20748  23877484.62548
 20  5 16  3 43 20.0000000  0  7G01G07G08G11G16G27G30               -0.000487595
  21269191.766 6   -617971.566 6   -415213.34449  21269194.41049
  21435025.680 6   -538085.504 6   -370852.13749  21435023.48849
  20987532.930 6    -91017.969 6    -61824.44549  20987532.77749
  20079989.313 6   -338441.363 6   -230952.48049  20079986.35949
  23340502.523 2    -61547.656 2    -43172.65246  23340500.32046
  22885205.531 4     30352.637 4     20998.11347  22885205.62947
  23876398.625 4   -581075.098 4   -399049.05148  23876398.48048
 20  5 16  3 43 21.0000000  0  7G01G07G08G11G16G27G30               -0.000489130
  21268186.461 6   -623256.000 6   -419331.08249  21268188.57849
  21434135.438 6   -542762.945 6   -374496.88749  21434133.25449
  20987384.594 6    -91797.414 6    -62431.80949  20987384.69949
  20079433.570 6   -341363.422 6   -233229.41049  20079430.60249
  23340365.625 3    -62267.344 3    -43733.45346  23340363.77346
  22885266.227 3     30674.586 3     21248.99247  22885267.29747
  23875312.719 5   -586781.629 5   -403495.69948  23875312.75048
 20  5 16  3 43 22.0000000  0  7G01G07G08G11G16G27G30               -0.000490664
  21267180.883 6   -628539.984 6   -423448.47749  21267182.59049
  21433244.867 6   -547439.895 6   -378141.26649  21433243.19149
  20987236.414 6    -92576.656 6    -63039.01249  20987236.30149
  20078877.242 7   -344284.922 7   -235505.90249  20078874.25449
  23340229.320 2    -62986.883 2    -44294.14146  23340226.85246
  22885327.570 3     30996.531 3     21499.85247  22885327.64547
  23874227.000 4   -592487.922 4   -407942.16048  23874226.47748
 20  5 16  3 43 23.0000000  0  7G01G07G08G11G16G27G30               -0.000492199
  21266175.602 6   -633823.418 6   -427565.43849  21266177.55149
  21432355.523 6   -552116.297 6   -381785.21949  21432353.29349
  20987087.961 6    -93355.641 6    -63646.01249  20987088.50049
  20078321.805 7   -347205.746 7   -237781.86349  20078318.53549
  23340092.055 3    -63706.160 3    -44854.62946  23340089.68446
  22885388.734 4     31318.555 4     21750.77047  22885388.88347
  23873141.781 5   -598193.949 5   -412388.41848  23873140.94148
 20  5 16  3 43 24.0000000  0  7G01G07G08G11G16G27G30               -0.000493732
  21265170.438 6   -639106.418 6   -431682.05949  21265172.05949
  21431465.688 6   -556792.227 6   -385428.79749  21431463.41849
  20986939.984 6    -94134.422 6    -64252.84849  20986939.80149
  20077765.945 6   -350126.008 6   -240057.39849  20077762.99249
  23339955.016 3    -64425.340 3    -45415.03946  23339952.87546
  22885449.680 3     31640.633 3     22001.73047  22885450.51647
  23872055.477 4   -603899.805 4   -416834.53948  23872054.94948
 20  5 16  3 43 25.0000000  0  7G01G07G08G11G16G27G30               -0.000495268
  21264165.297 6   -644388.895 6   -435798.27349  21264166.98449
  21430576.039 6   -561467.586 6   -389071.93849  21430574.03949
  20986791.891 6    -94912.957 6    -64859.50049  20986791.96149
  20077210.594 7   -353045.637 7   -242332.43449  20077207.50049
  23339818.695 2    -65144.309 2    -45975.27346  23339816.23446
  22885510.359 3     31962.719 3     22252.69147  22885511.84447
  23870970.602 5   -609605.352 5   -421280.42248  23870969.00848
 20  5 16  3 43 26.0000000  0  7G01G07G08G11G16G27G30               -0.000496803
  21263160.039 6   -649670.848 6   -439914.08249  21263161.91849
  21429685.820 6   -566142.414 6   -392714.65649  21429684.21949
  20986643.328 6    -95691.203 6    -65465.92649  20986643.73849
  20076655.273 7   -355964.605 7   -244606.95349  20076652.09049
  23339681.930 2    -65863.078 2    -46535.35946  23339678.99646
  22885573.078 4     32284.910 4     22503.75847  22885573.19547
  23869884.695 4   -615310.648 4   -425726.11748  23869883.85548
 20  5 16  3 43 27.0000000  0  7G01G07G08G11G16G27G30               -0.000498337
  21262155.188 6   -654952.297 6   -444029.49649  21262156.80549
  21428796.625 6   -570816.754 6   -396356.99649  21428794.99249
  20986495.406 6    -96469.266 6    -66072.21149  20986496.09049
  20076099.422 6   -358882.953 6   -246880.99249  20076096.52749
  23339544.531 3    -66581.668 3    -47095.32046  23339542.28946
  22885634.141 3     32607.016 3     22754.74247  22885634.68447
  23868798.266 4   -621015.676 4   -430171.59448  23868797.96948
 20  5 16  3 43 28.0000000  0  7G01G07G08G11G16G27G30               -0.000499872
  21261149.781 6   -660233.250 6   -448144.52749  21261152.25449
  21427907.328 6   -575490.535 6   -399998.89849  21427905.50449
  20986347.617 6    -97247.043 6    -66678.27349  20986347.48049
  20075544.219 6   -361800.668 6   -249154.53549  20075541.48849
  23339408.789 3    -67300.105 3    -47655.13346  23339405.65246
  22885695.102 3     32929.320 3     23005.89147  22885696.60947
  23867713.336 5   -626720.453 5   -434616.86348  23867712.52048
 20  5 16  3 43 29.0000000  0  7G01G07G08G11G16G27G30               -0.000501406
  21260145.375 6   -665513.727 6   -452259.18049  21260147.32449
  21427017.969 6   -580163.813 6   -403640.41849  21427015.58249
  20986199.570 6    -98024.633 6    -67284.18449  20986200.21949
  20074989.523 6   -364717.801 6   -251427.62549  20074986.14849
  23339271.453 3    -68018.426 3    -48214.85546  23339268.78546
  22885756.781 3     33251.477 3     23256.93047  22885757.22747
  23866627.055 5   -632425.020 5   -439061.96948  23866627.00048
 20  5 16  3 43 29.9990000  0  7G01G07G08G11G16G27G30                0.000497061
  21259141.198 6   -670788.414 6   -456369.32449  21259143.50349
  21426129.933 6   -584831.938 6   -407277.91449  21426127.44849
  20986051.651 6    -98801.215 6    -67889.31349  20986052.26549
  20074434.925 7   -367631.402 7   -253697.96149  20074431.65549
  23339135.347 3    -68735.773 3    -48773.80946  23339132.54646
  22885818.589 3     33573.539 3     23507.88747  22885818.05847
  23865542.792 5   -638123.605 5   -443502.42248  23865542.60548
 20  5 16  3 43 30.9990000  0  7G01G07G08G11G16G27G30                0.000495527
  21258136.823 6   -676067.855 6   -460483.18049  21258138.65149
  21425240.581 6   -589504.152 6   -410918.60249  21425238.50349
  20985904.065 6    -99578.305 6    -68494.84049  20985904.48349
  20073880.019 6   -370547.270 6   -255970.07049  20073877.23749
  23338998.339 2    -69453.641 2    -49333.18846  23338995.94046
  22885879.511 3     33895.895 3     23759.07447  22885880.32347
  23864458.159 5   -643827.625 5   -447947.11348  23864456.58548
 20  5 16  3 43 31.9990000  0  7G01G07G08G11G16G27G30                0.000493992
  21257131.870 6   -681346.832 6   -464596.66849  21257134.33949
  21424351.714 6   -594175.895 6   -414558.91449  21424349.59749
  20985756.112 6   -100355.188 6    -69100.19949  20985757.04249
  20073325.214 6   -373462.547 6   -258241.71549  20073322.16749
  23338862.433 3    -70171.410 3    -49892.52046  23338858.90546
  22885940.956 3     34218.320 3     24010.30947  22885941.35547
  23863372.355 4   -649531.438 4   -452391.64148  23863371.42148
 20  5 16  3 43 32.9990000  0  7G01G07G08G11G16G27G30                0.000492458
  21256127.870 6   -686625.293 6   -468709.76649  21256129.55449
  21423462.878 6   -598847.066 6   -418198.78549  21423460.76149
  20985608.144 6   -101131.828 6    -69705.37549  20985608.96849
  20072770.675 7   -376377.191 7   -260512.86749  20072767.83549
  23338725.831 3    -70888.973 3    -50451.67246  23338723.03446
  22886001.612 2     34540.715 2     24261.50847  22886002.64747
  23862287.198 4   -655234.973 4   -456835.95348  23862286.49148
 20  5 16  3 43 33.9990000  0  7G01G07G08G11G16G27G30                0.000490923
  21255123.448 6   -691903.230 6   -472822.43849  21255125.55049
  21422573.862 6   -603517.738 6   -421838.27749  21422571.88249
  20985460.511 6   -101908.234 6    -70310.35949  20985461.33149
  20072216.253 7   -379291.191 7   -262783.50849  20072213.03449
  23338588.784 2    -71606.316 2    -51010.65646  23338586.52246
  22886063.151 2     34863.203 2     24512.78547  22886064.26147
  23861200.964 4   -660938.215 4   -461280.03548  23861200.62848
 20  5 16  3 43 34.9990000  0  7G01G07G08G11G16G27G30                0.000489389
  21254118.776 6   -697180.660 6   -476934.71949  21254121.07749
  21421685.347 6   -608187.836 6   -425477.31649  21421683.36649
  20985312.730 6   -102684.371 6    -70915.13749  20985313.55849
  20071661.495 7   -382204.547 7   -265053.66449  20071658.87449
  23338452.581 3    -72323.508 3    -51569.51646  23338449.94446
  22886124.339 2     35185.820 2     24764.16047  22886125.38247
  23860116.659 4   -666641.250 4   -465723.95748  23860115.75348
 20  5 16  3 43 35.9990000  0  7G01G07G08G11G16G27G30                0.000487856
  21253114.847 6   -702457.594 6   -481046.61349  21253116.91349
  21420796.737 6   -612857.438 6   -429115.96549  21420794.64749
  20985165.167 6   -103460.270 6    -71519.73849  20985166.05049
  20071107.394 7   -385117.277 7   -267323.32049  20071104.29249
  23338316.151 3    -73040.477 3    -52128.18846  23338313.64046
  22886185.831 2     35508.344 2     25015.46947  22886187.21047
  23859031.292 4   -672343.941 4   -470167.61748  23859030.71848
 20  5 16  3 43 36.9990000  0  7G01G07G08G11G16G27G30                0.000486320
  21252110.636 6   -707734.004 6   -485158.09449  21252112.69849
  21419908.097 6   -617526.523 6   -432754.21949  21419905.78849
  20985017.776 6   -104235.938 6    -72124.15649  20985018.33149
  20070553.487 7   -388029.398 7   -269592.50849  20070550.65949
  23338179.628 3    -73757.305 3    -52686.75446  23338177.30846
  22886247.120 1     35831.012 1     25266.89147  22886248.67947
  23857945.894 4   -678046.430 4   -474611.10948  23857945.81948
 20  5 16  3 43 37.9990000  0  7G01G07G08G11G16G27G30                0.000484787
  21251106.956 6   -713009.941 6   -489269.21549  21251108.76949
  21419019.425 6   -622195.086 6   -436392.05949  21419017.94849
  20984870.089 6   -105011.402 6    -72728.41449  20984871.13649
  20069999.120 6   -390940.910 6   -271861.21949  20069996.73049
  23338043.011 3    -74473.934 3    -53245.15646  23338041.10846
  22886309.230 2     36153.594 2     25518.26247  22886309.96047
  23856861.105 4   -683748.688 4   -479054.43448  23856860.50348
 20  5 16  3 43 38.9990000  0  7G01G07G08G11G16G27G30                0.000483253
  21250102.808 6   -718285.438 6   -493379.99249  21250104.56249
  21418131.433 6   -626863.145 6   -440029.50449  21418129.36649
  20984722.667 6   -105786.645 6    -73332.50049  20984723.26949
  20069445.112 6   -393851.836 6   -274129.47349  20069442.18749
  23337906.917 3    -75190.453 3    -53803.49246  23337904.39046
  22886370.526 1     36476.234 1     25769.66847  22886371.55847
  23855775.987 4   -689450.684 4   -483497.54748  23855775.06948
 20  5 16  3 43 39.9990000  0  7G01G07G08G11G16G27G30                0.000481718
  21249099.097 6   -723560.387 6   -497490.34049  21249101.09349
  21417242.878 6   -631530.691 6   -443666.55149  21417241.15949
  20984574.987 6   -106561.664 6    -73936.41049  20984576.15949
  20068891.620 7   -396762.117 7   -276397.22349  20068888.65549
  23337769.925 2    -75906.770 2    -54361.66046  23337767.74146
  22886431.183 1     36798.953 1     26021.14147  22886433.21847
  23854691.183 4   -695152.492 4   -487940.52048  23854690.60148
 20  5 16  3 43 40.9990000  0  7G01G07G08G11G16G27G30                0.000480185
  21248095.612 6   -728834.797 6   -501600.27749  21248097.55849
  21416354.831 6   -636197.664 6   -447303.15249  21416352.69049
  20984427.573 6   -107336.410 6    -74540.10249  20984428.62849
  20068337.917 6   -399671.754 6   -278664.47349  20068334.80049
  23337634.151 3    -76622.922 3    -54919.69546  23337631.65546
  22886492.620 1     37121.746 1     26272.67247  22886494.74947
  23853606.386 4   -700853.941 4   -492383.20748  23853605.69448
 20  5 16  3 43 41.9990000  0  7G01G07G08G11G16G27G30                0.000478651
  21247091.815 6   -734108.738 6   -505709.84049  21247093.90549
  21415466.925 6   -640864.133 6   -450939.35949  21415465.31549
  20984280.769 6   -108110.914 6    -75143.60949  20984281.12449
  20067784.144 7   -402580.785 7   -280931.25449  20067781.44049
  23337497.651 2    -77338.820 2    -55477.53546  23337495.67546
  22886553.550 1     37444.547 1     26524.20347  22886555.71847
  23852520.300 4   -706555.180 4   -496825.73048  23852520.35848
 20  5 16  3 43 42.9990000  0  7G01G07G08G11G16G27G30                0.000477118
  21246088.331 6   -739382.203 6   -509819.02749  21246090.81549
  21414579.190 6   -645530.137 6   -454575.21149  21414577.27249
  20984133.026 6   -108885.262 6    -75746.99649  20984134.22649
  20067230.597 6   -405489.254 6   -283197.58649  20067227.79649
  23337361.355 2    -78054.598 2    -56035.27346  23337359.03846
  22886615.237 2     37767.352 2     26775.74247  22886617.02647
  23851435.909 4   -712256.258 4   -501268.12148  23851435.46848
 20  5 16  3 43 43.9990000  0  7G01G07G08G11G16G27G30                0.000475582
  21245085.073 6   -744655.203 6   -513927.86749  21245086.77649
  21413691.308 6   -650195.590 6   -458210.62549  21413689.44049
  20983986.167 6   -109659.363 6    -76350.18849  20983986.44449
  20066677.440 6   -408397.047 6   -285463.39849  20066674.68749
  23337225.167 2    -78770.262 2    -56592.93846  23337223.34746
  22886676.026 1     38090.195 1     27027.31647  22886678.73747
  23850350.456 4   -717957.016 4   -505710.26248  23850350.72248
 20  5 16  3 43 44.9990000  0  7G01G07G08G11G16G27G30                0.000474049
  21244081.737 6   -749927.789 6   -518036.36349  21244083.57749
  21412803.636 6   -654860.637 6   -461845.73049  21412801.60549
  20983838.480 6   -110433.348 6    -76953.29349  20983839.44049
  20066124.011 7   -411304.402 7   -287728.87549  20066121.28449
  23337089.542 2    -79485.816 2    -57150.53546  23337087.25346
  22886737.198 1     38412.898 1     27278.77347  22886739.72247
  23849266.019 4   -723657.676 4   -510152.33248  23849266.24548
 20  5 16  3 43 45.9990000  0  7G01G07G08G11G16G27G30                0.000472515
  21243078.417 6   -755199.883 6   -522144.49249  21243080.64749
  21411915.878 6   -659525.160 6   -465480.42249  21411914.08149
  20983691.073 6   -111207.090 6    -77556.21149  20983691.97249
  20065570.800 7   -414211.109 7   -289993.83649  20065568.08549
  23336953.558 2    -80201.246 2    -57707.99646  23336951.67146
  22886800.050 1     38735.699 1     27530.30547  22886801.51147
  23848181.026 4   -729358.055 4   -514594.19148  23848181.44848
 20  5 16  3 43 46.9990000  0  7G01G07G08G11G16G27G30                0.000470980
  21242075.050 6   -760471.484 6   -526252.23049  21242077.18749
  21411028.409 6   -664189.168 6   -469114.71549  21411026.17549
  20983544.058 6   -111980.637 6    -78158.97749  20983544.80049
  20065017.589 7   -417117.207 7   -292258.33249  20065014.96849
  23336817.276 2    -80916.438 2    -58265.28546  23336814.61646
  22886860.597 1     39058.504 1     27781.84447  22886861.94847
  23847096.331 4   -735058.203 4   -519035.85248  23847096.91748
 20  5 16  3 43 47.9990000  0  7G01G07G08G11G16G27G30                0.000469446
  21241071.769 6   -765742.625 6   -530359.60949  21241073.92949
  21410141.230 6   -668852.707 6   -472748.64549  21410138.85149
  20983396.815 6   -112753.992 6    -78761.59049  20983397.77649
  20064464.675 7   -420022.734 7   -294522.37949  20064462.15549
  23336680.565 2    -81631.605 2    -58822.57446  23336679.25746
  22886921.573 1     39381.348 1     28033.40247  22886924.74147
  23846011.909 4   -740758.160 4   -523477.38348  23846012.12848
 20  5 16  3 43 48.9990000  0  7G01G07G08G11G16G27G30                0.000467913
  21240069.378 6   -771013.258 6   -534466.59849  21240070.96849
  21409253.730 6   -673515.684 6   -476382.13349  21409251.69449
  20983249.800 6   -113527.098 6    -79364.00849  20983250.53849
  20063912.183 7   -422927.641 7   -296785.93849  20063909.56949
  23336544.511 2    -82346.453 2    -59379.60246  23336542.62446
  22886984.72211                     28285.03557  22886985.65557
  23844927.448 4   -746457.828 4   -527918.68048  23844927.30848
 20  5 16  3 43 49.9990000  0  7G01G07G08G11G16G27G30                0.000466379
  21239066.370 6   -776283.445 6   -538573.23849  21239068.17549
  21408366.620 6   -678178.223 6   -480015.28149  21408364.65549
  20983102.448 6   -114300.031 6    -79966.29349  20983103.41349
  20063359.464 7   -425831.984 7   -299049.07049  20063356.66349
  23336408.401 1    -83061.281 1    -59936.59446  23336406.30046
  22887044.784 1     40027.000 1     28536.50847  22887046.98047
  23843842.206 4   -752157.313 4   -532359.84448  23843842.80048
 20  5 16  3 43 50.9990000  0  7G01G07G08G11G16G27G30                0.000464846
  21238063.737 6   -781553.141 6   -542679.48849  21238065.96449
  21407479.308 6   -682840.227 6   -483648.00849  21407477.35849
  20982955.612 6   -115072.711 6    -80568.38749  20982956.48349
  20062806.776 7   -428735.672 7   -301311.67649  20062804.00349
  23336272.542 2    -83775.871 2    -60493.42646  23336270.28446
  22887107.245 1     40349.883 1     28788.09447  22887108.26947
  23842758.425 4   -757856.566 4   -536800.82048  23842758.60848
 20  5 16  3 43 51.9990000  0  7G01G07G08G11G16G27G30                0.000463312
  21237060.581 6   -786822.297 6   -546785.32049  21237063.00749
  21406592.526 6   -687501.703 6   -487280.33249  21406590.22249
  20982808.940 7   -115845.188 7    -81170.32049  20982809.10149
  20062254.605 7   -431638.758 7   -303573.82449  20062251.92149
  23336135.456 1    -84490.363 1    -61050.18046  23336134.66346
  22887168.05011                     29039.72757  22887169.78057
  23841674.183 4   -763555.523 4   -541241.55148  23841673.90548
 20  5 16  3 43 52.9990000  0  7G01G07G08G11G16G27G30                0.000461777
  21236058.433 6   -792090.965 6   -550890.77749  21236060.25749
  21405705.105 6   -692162.652 6   -490912.23849  21405703.17949
  20982661.495 6   -116617.422 6    -81772.05949  20982662.39449
  20061701.956 6   -434541.203 6   -305835.46949  20061699.52249
  23336001.089 2    -85204.574 2    -61606.70346  23335998.39446
  22887228.90911                     29291.46957  22887231.11257
  23840588.948 4   -769254.230 4   -545682.10248  23840589.56248
 20  5 16  3 43 53.9990000  0  7G01G07G08G11G16G27G30                0.000460243
  21235055.597 6   -797359.152 6   -554995.85549  21235057.61649
  21404818.440 6   -696823.102 6   -494543.75849  21404816.34349
  20982514.667 6   -117389.453 6    -82373.63749  20982515.42149
  20061150.050 6   -437443.055 6   -308096.65649  20061146.85849
  23335864.440 2    -85918.688 2    -62163.14146  23335862.43346
  22887290.862 1                     29543.08647  22887292.59747
  23839504.737 4   -774952.723 4   -550122.47348  23839505.12848
 20  5 16  3 43 54.9990000  0  7G01G07G08G11G16G27G30                0.000458710
  21234053.573 6   -802626.816 6   -559100.53549  21234055.31249
  21403931.776 6   -701483.012 6   -498174.85549  21403929.81949
  20982367.706 6   -118161.223 6    -82975.01249  20982368.42149
  20060597.620 7   -440344.262 7   -310357.33249  20060594.65149
  23335729.034 2    -86632.547 2    -62719.36746  23335726.81546
  22887351.917 1                     29794.82447  22887353.88647
  23838420.675 4   -780650.910 4   -554562.61748  23838420.88648
 20  5 16  3 43 55.9990000  0  7G01G07G08G11G16G27G30                0.000457176
  21233050.753 6   -807894.020 6   -563204.85249  21233053.05849
  21403045.183 6   -706142.430 6   -501805.57049  21403043.26949
  20982220.839 6   -118932.801 6    -83576.23849  20982221.83949
  20060046.089 6   -443244.906 6   -312617.57849  20060043.04249
  23335592.745 2    -87346.285 2    -63275.52746  23335590.94446
  22887413.995 1     41964.902 1     30046.57047  22887415.49547
  23837335.917 3   -786348.965 3   -559002.66448  23837336.52248
 20  5 16  3 43 56.9990000  0  7G01G07G08G11G16G27G30                0.000455641
  21232048.815 6   -813160.727 6   -567308.77749  21232050.83149
  21402158.956 6   -710801.355 6   -505435.89849  21402156.49949
  20982074.300 6   -119704.152 6    -84177.29349  20982074.74549
  20059494.151 6   -446144.898 6   -314877.31349  20059490.74949
  23335456.683 2    -88059.891 2    -63831.59446  23335455.22246
  22887473.22211                     30298.33257  22887476.89457
  23836252.026 4   -792046.676 4   -563442.44548  23836252.24548
 20  5 16  3 43 57.9990000  0  7G01G07G08G11G16G27G30                0.000454109
  21231046.737 6   -818426.938 6   -571412.32049  21231048.72249
  21401272.519 6   -715459.766 6   -509065.83249  21401270.07749
  20981927.401 6   -120475.289 6    -84778.17649  20981928.05849
  20058942.401 6   -449044.313 6   -317136.59049  20058939.39049
  23335321.519 2    -88773.313 2    -64387.49246  23335318.95246
  22887535.339 1                     30550.04347  22887538.54247
  23835167.573 4   -797744.172 4   -567882.05148  23835168.15948
 20  5 16  3 43 58.9990000  0  7G01G07G08G11G16G27G30                0.000452576
  21230044.839 6   -823692.656 6   -575515.47749  21230046.51949
  21400385.917 6   -720117.629 6   -512695.33649  21400383.75349
  20981780.519 6   -121246.219 6    -85378.90249  20981781.39449
  20058390.940 6   -451943.113 6   -319395.39849  20058387.68349
  23335185.026 2    -89486.531 2    -64943.24246  23335183.97646
  22887596.769 1                     30801.83247  22887599.67947
  23834082.722 4   -803441.494 4   -572321.52048  23834084.00348
 20  5 16  3 43 59.9990000  0  7G01G07G08G11G16G27G30                0.000451042
  21229042.480 6   -828957.926 6   -579618.28149  21229044.62449
  21399499.659 6   -724775.027 6   -516324.47749  21399497.49949
  20981634.097 6   -122016.910 6    -85979.43849  20981634.93349
  20057839.433 6   -454841.328 6   -321653.74649  20057836.31249
  23335049.323 1    -90199.656 1    -65498.93846  23335048.06946
  22887659.784 1                     31053.60547  22887661.46447
  23832998.550 4   -809138.496 4   -576760.74648  23832999.71448
 20  5 16  3 44  0.9990000  0  7G01G07G08G11G16G27G30                0.000449509
  21228040.894 6   -834222.668 6   -583720.68049  21228042.62049
  21398613.565 6   -729431.910 6   -519953.21949  21398611.41349
  20981487.558 6   -122787.406 6    -86579.82849  20981488.56949
  20057287.823 6   -457738.930 6   -323911.61349  20057284.83549
  23334913.667 1    -90912.578 1    -66054.47346  23334912.72246
  22887721.112 1     43580.496 1     31305.49647  22887722.26547
  23831915.003 4   -814835.281 4   -581199.78948  23831915.64048
 20  5 16  3 44  1.9990000  0  7G01G07G08G11G16G27G30                0.000447973
  21227039.120 6   -839486.922 6   -587822.69549  21227040.97649
  21397727.198 6   -734088.242 6   -523581.52749  21397724.75349
  20981340.612 6   -123557.645 6    -87180.01249  20981341.35149
  20056736.651 6   -460635.902 6   -326169.00049  20056733.76949
  23334778.628 2    -91625.324 2    -66609.87146  23334777.29646
  22887781.24511     43903.63711     31557.30157  22887784.33157
  23830831.206 4   -820531.801 4   -585638.62948  23830831.78048
 20  5 16  3 44  2.9990000  0  7G01G07G08G11G16G27G30                0.000446440
  21226037.198 6   -844750.656 6   -591924.30949  21226039.21049
  21396841.394 6   -738744.043 6   -527209.42649  21396839.00349
  20981194.331 6   -124327.699 6    -87780.05549  20981195.37049
  20056185.503 6   -463532.242 6   -328425.88749  20056182.21449
  23334643.386 1    -92337.930 1    -67165.14846  23334641.48346
  22887843.51111                     31809.14557  22887845.71857
  23829747.659 4   -826228.090 4   -590077.29348  23829747.62448
 20  5 16  3 44  3.9990000  0  7G01G07G08G11G16G27G30                0.000444906
  21225035.753 6   -850013.914 6   -596025.54749  21225038.03449
  21395955.480 6   -743399.340 6   -530836.93049  21395952.81249
  20981047.980 7   -125097.504 7    -88379.90249  20981048.24949
  20055634.714 6   -466427.977 6   -330682.30549  20055631.46849
  23334507.550 2    -93050.328 2    -67720.27346  23334505.51146
  22887905.57311                     32061.10956  22887907.60556
  23828663.362 4   -831924.125 4   -594515.75448  23828663.96848
 20  5 16  3 44  4.9990000  0  7G01G07G08G11G16G27G30                0.000443373
  21224034.097 6   -855276.656 6   -600126.38349  21224036.51549
  21395069.706 6   -748054.137 6   -534464.03949  21395067.34749
  20980901.565 7   -125867.082 7    -88979.57049  20980902.14449
  20055083.526 6   -469323.102 6   -332938.24249  20055080.43349
  23334371.644 1    -93762.539 1    -68275.24246  23334370.06946
  22887967.14411                     32313.01257  22887968.47257
  23827578.972 4   -837619.840 4   -598953.96948  23827580.47648
 20  5 16  3 44  5.9990000  0  7G01G07G08G11G16G27G30                0.000441841
  21223033.222 6   -860538.895 6   -604226.82849  21223035.26549
  21394183.886 6   -752708.383 6   -538090.72349  21394182.01549
  20980754.815 7   -126636.426 7    -89579.06349  20980755.78449
  20054532.675 6   -472217.602 6   -335193.69949  20054529.62849
  23334236.862 1    -94474.645 1    -68830.12946  23334234.65146
  22888030.15911                     32564.97756  22888030.13656
  23826495.073 4   -843315.410 4   -603392.07048  23826496.28448
 20  5 16  3 44  6.9990000  0  7G01G07G08G11G16G27G30                0.000440306
  21222031.683 6   -865800.617 6   -608326.87949  21222033.60849
  21393298.050 6   -757362.102 6   -541717.00049  21393295.98049
  20980608.612 6   -127405.535 6    -90178.37549  20980609.42149
  20053981.987 6   -475111.445 6   -337448.64149  20053978.92949
  23334101.167 1    -95186.414 1    -69384.74646  23334099.17146
  22888090.925 1     45520.191 1     32816.95346  22888092.13646
  23825410.964 4   -849010.645 4   -607829.90648  23825412.67548
 20  5 16  3 44  7.9990000  0  7G01G07G08G11G16G27G30                0.000438772
  21221030.347 6   -871061.883 6   -612426.56349  21221032.59749
  21392412.972 6   -762015.328 6   -545342.88749  21392410.56949
  20980462.378 7   -128174.438 7    -90777.51649  20980462.99149
  20053431.308 6   -478004.715 6   -339703.13349  20053428.60849
  23333965.362 1    -95898.176 1    -69939.34846  23333963.77646
  22888152.425 1     45843.594 1     33068.95346  22888153.28446
  23824327.855 3   -854705.668 3   -612267.58648  23824328.97648
 20  5 16  3 44  8.9990000  0  7G01G07G08G11G16G27G30                0.000437239
  21220029.472 6   -876322.691 6   -616525.89849  21220031.69449
  21391527.284 6   -766668.098 6   -548968.42649  21391525.23349
  20980316.253 7   -128943.176 7    -91376.53549  20980316.42149
  20052880.948 6   -480897.422 6   -341957.19149  20052877.67149
  23333830.620 2    -96609.723 2    -70493.81346  23333828.20246
  22888214.206 1     46166.938 1     33320.91446  22888214.71046
  23823244.526 3   -860400.504 3   -616705.12948  23823245.02248
 20  5 16  3 44  9.9990000  0  7G01G07G08G11G16G27G30                0.000435705
  21219028.401 6   -881583.004 6   -620624.84449  21219030.40149
  21390642.315 6   -771320.355 6   -552593.55949  21390639.97649
  20980169.737 7   -129711.703 7    -91975.38749  20980170.24549
  20052330.480 6   -483789.508 6   -344210.76249  20052327.28449
  23333695.065 2    -97321.180 2    -71048.21946  23333693.29246
  22888275.597 1     46490.383 1     33572.96946  22888276.15946
  23822160.292 4   -866095.082 4   -621142.46548  23822161.64448
 20  5 16  3 44 10.9990000  0  7G01G07G08G11G16G27G30                0.000434172
  21218027.948 6   -886842.824 6   -624723.40249  21218029.48049
  21389756.948 6   -775972.078 6   -556218.27749  21389754.62449
  20980023.550 7   -130480.020 7    -92574.07049  20980023.74549
  20051780.472 6   -486680.996 6   -346463.86749  20051776.86249
  23333559.581 2    -98032.465 2    -71602.46546  23333557.31246
  22888337.73711                     33824.98456  22888337.48056
  23821076.862 4   -871789.441 4   -625579.62948  23821077.85148
 20  5 16  3 44 11.9990000  0  7G01G07G08G11G16G27G30                0.000432638
  21217027.019 6   -892102.156 6   -628821.58249  21217028.98049
  21388872.276 6   -780623.305 6   -559842.60549  21388869.67549
  20979877.355 7   -131248.117 7    -93172.59449  20979877.61649
  20051230.284 6   -489571.883 6   -348716.50849  20051227.02649
  23333425.128 2    -98743.551 2    -72156.56346  23333421.92546
  22888399.105 1     47137.289 1     34077.06646  22888399.08146
  23819993.276 3   -877483.563 3   -630016.58648  23819993.78848
 20  5 16  3 44 12.9990000  0  7G01G07G08G11G16G27G30                0.000431105
  21216026.019 6   -897360.980 6   -632919.36749  21216028.08549
  21387987.331 6   -785274.000 6   -563466.52749  21387984.84749
  20979731.105 7   -132015.977 7    -93770.93049  20979731.53049
  20050680.565 6   -492462.125 6   -350968.64849  20050677.01949
  23333289.331 2    -99454.406 2    -72710.48046  23333286.76146
  22888462.136 1     47460.785 1     34329.13746  22888460.17946
  23818910.253 4   -883177.359 4   -634453.30948  23818911.05048
 20  5 16  3 44 13.9990000  0  7G01G07G08G11G16G27G30                0.000429573
  21215025.214 6   -902619.320 6   -637016.77349  21215027.39049
  21387101.933 6   -789924.180 6   -567090.04749  21387099.87849
  20979585.222 7   -132783.609 7    -94369.08649  20979585.16749
  20050130.690 7   -495351.785 7   -353220.32449  20050127.26949
  23333154.980 2   -100165.137 2    -73264.28946  23333151.19046
  22888523.12811     47784.36311     34581.25857  22888522.06957
  23817825.987 3   -888870.984 3   -638889.90248  23817827.22648
 20  5 16  3 44 14.9990000  0  7G01G07G08G11G16G27G30                0.000428040
  21214024.886 6   -907877.184 6   -641113.80549  21214026.96049
  21386217.433 6   -794573.891 6   -570713.19949  21386214.83549
  20979438.698 7   -133551.082 7    -94967.11349  20979439.23749
  20049581.151 7   -498240.844 7   -355471.54349  20049577.78449
  23333019.269 2   -100875.809 2    -73818.05146  23333015.82346
  22888585.058 1     48107.844 1     34833.32047  22888584.35147
  23816742.933 3   -894564.355 3   -643326.30548  23816743.99148
 20  5 16  3 44 15.9990000  0  7G01G07G08G11G16G27G30                0.000426506
  21213024.339 6   -913134.535 6   -645210.44149  21213026.45249
  21385332.386 6   -799223.027 6   -574335.89849  21385330.36249
  20979292.769 6   -134318.277 6    -95564.93049  20979293.13649
  20049031.175 7   -501129.277 7   -357722.26649  20049027.94849
  23332883.792 3   -101586.207 3    -74371.61746  23332880.81246
  22888646.550 1     48431.438 1     35085.45347  22888645.66347
  23815659.589 3   -900257.488 3   -647762.51248  23815660.51948
 20  5 16  3 44 16.9990000  0  7G01G07G08G11G16G27G30                0.000424973
  21212023.651 6   -918391.398 6   -649306.69949  21212026.15549
  21384447.730 6   -803871.664 6   -577958.21149  21384445.75749
  20979147.190 7   -135085.266 7    -96162.58649  20979147.08949
  20048481.980 7   -504017.125 7   -359972.53949  20048478.14049
  23332748.870 3   -102296.449 3    -74925.05546  23332745.87446
  22888707.394 1     48754.934 1     35337.53547  22888707.00747
  23814576.167 4   -905950.387 4   -652198.52348  23814577.59348
 20  5 16  3 44 17.9990000  0  7G01G07G08G11G16G27G30                0.000423439
  21211023.831 6   -923647.742 6   -653402.55549  21211025.83949
  21383563.222 6   -808519.750 6   -581580.09849  21383561.19449
  20979000.909 7   -135852.000 7    -96760.04349  20979001.26549
  20047932.558 7   -506904.309 7   -362222.29349  20047928.80449
  23332613.964 3   -103006.535 3    -75478.38746  23332610.34746
  22888772.456 1     49078.688 1     35589.82847  22888768.82347
  23813493.097 4   -911642.965 4   -656634.29748  23813493.96448
 20  5 16  3 44 18.9990000  0  7G01G07G08G11G16G27G30                0.000421907
  21210023.901 6   -928903.613 6   -657498.04349  21210025.77649
  21382679.089 6   -813167.355 6   -585201.60949  21382676.99949
  20978855.097 7   -136618.520 7    -97357.32849  20978855.16749
  20047382.909 7   -509790.910 7   -364471.59449  20047379.47249
  23332478.737 3   -103716.438 3    -76031.57446  23332474.93746
  22888830.99511                     35841.98056  22888830.16356
  23812409.175 4   -917335.336 4   -661069.91048  23812410.83148
 20  5 16  3 44 19.9990000  0  7G01G07G08G11G16G27G30                0.000420374
  21209023.542 6   -934158.996 6   -661593.13749  21209025.01549
  21381794.831 6   -817814.438 6   -588822.71549  21381792.53449
  20978709.456 6   -137384.844 6    -97954.46549  20978709.23349
  20046833.800 7   -512676.922 7   -366720.43449  20046830.11249
  23332343.894 3   -104426.168 3    -76584.59846  23332340.35146
  22888895.245 1     49725.957 1     36094.19146  22888891.69846
  23811326.730 3   -923027.500 3   -665505.35548  23811327.87448
 20  5 16  3 44 20.9990000  0  7G01G07G08G11G16G27G30                0.000418840
  21208023.472 6   -939413.855 6   -665687.83249  21208025.82749
  21380910.519 6   -822460.996 6   -592443.40649  21380908.15949
  20978563.612 6   -138150.941 6    -98551.43049  20978563.71049
  20046284.792 7   -515562.297 7   -368968.77349  20046281.31549
  23332208.995 3   -105135.738 3    -77137.50446  23332204.86646
  22888956.98011                     36346.45356  22888953.73356
  23810243.815 3   -928719.359 3   -669940.57048  23810245.19048
 20  5 16  3 44 21.9990000  0  7G01G07G08G11G16G27G30                0.000417307
  21207024.073 6   -944668.281 6   -669782.19149  21207025.79249
  21380026.464 6   -827107.074 6   -596063.73049  21380023.98349
  20978418.073 6   -138916.863 6    -99148.25449  20978417.70249
  20045735.745 7   -518447.102 7   -371216.67649  20045731.97649
  23332073.550 3   -105845.160 3    -77690.30146  23332069.84746
  22889017.394 1                     36598.68846  22889014.74946
  23809160.136 3   -934411.055 3   -674375.64848  23809161.52248
 20  5 16  3 44 22.9990000  0  7G01G07G08G11G16G27G30                0.000415773
  21206024.300 6   -949922.176 6   -673876.13749  21206026.17949
  21379142.511 6   -831752.641 6   -599683.65649  21379139.83949
  20978272.011 6   -139682.555 6    -99744.89149  20978271.96049
  20045187.011 7   -521331.289 7   -373464.09049  20045183.37049
  23331939.058 3   -106554.449 3    -78243.00046  23331934.71446
  22889078.511 1                     36850.95346  22889076.72246
  23808077.472 3   -940102.512 3   -678810.55148  23808078.97648
 20  5 16  3 44 23.9990000  0  7G01G07G08G11G16G27G30                0.000414240
  21205024.315 6   -955175.598 6   -677969.71149  21205026.40549
  21378258.761 6   -836397.688 6   -603303.17249  21378256.44449
  20978126.636 7   -140448.031 7   -100341.37149  20978126.38649
  20044638.245 7   -524214.859 7   -375711.03149  20044634.75749
  23331803.714 3   -107263.523 3    -78795.53546  23331800.01146
  22889138.487 1                     37103.25046  22889137.85146
  23806994.612 4   -945793.660 4   -683245.21148  23806995.42148
 20  5 16  3 44 24.9990000  0  7G01G07G08G11G16G27G30                0.000412708
  21204024.925 6   -960428.523 6   -682062.89849  21204026.67549
  21377374.620 6   -841042.219 6   -606922.28949  21377372.39749
  20977980.862 6   -141213.266 6   -100937.65649  20977980.62849
  20044089.355 7   -527097.848 7   -377957.51649  20044086.13249
  23331669.144 4   -107972.449 4    -79347.95346  23331664.81246
  22889200.144 1                     37355.53546  22889199.85846
  23805912.167 4   -951484.582 4   -687679.69148  23805912.65948
 20  5 16  3 44 25.9990000  0  7G01G07G08G11G16G27G30                0.000411175
  21203025.112 6   -965680.902 6   -686155.66449  21203027.06549
  21376491.230 6   -845686.215 6   -610540.98449  21376488.46449
  20977835.198 6   -141978.242 6   -101533.75049  20977835.02649
  20043541.300 7   -529980.172 7   -380203.48049  20043537.43349
  23331534.065 3   -108681.160 3    -79900.21146  23331529.85546
  22889262.019 1     51668.523 1     37607.84846  22889261.20646
  23804828.940 4   -957175.254 4   -692113.98448  23804829.77248
 20  5 16  3 44 26.9990000  0  7G01G07G08G11G16G27G30                0.000409641
  21202025.722 6   -970932.828 6   -690248.06649  21202027.69049
  21375607.487 6   -850329.672 6   -614159.25849  21375605.18349
  20977690.003 6   -142743.039 6   -102129.69149  20977689.59349
  20042992.925 6   -532861.895 6   -382448.98048  20042989.49548
  23331398.894 3   -109389.750 3    -80452.35246  23331395.09746
  22889323.394 1     51992.344 1     37860.16446  22889322.94046
  23803745.737 4   -962865.652 4   -696548.05148  23803746.56948
 20  5 16  3 44 27.9990000  0  7G01G07G08G11G16G27G30                0.000408108
  21201026.628 6   -976184.258 6   -694340.09449  21201028.29249
  21374723.886 6   -854972.656 6   -617777.17249  21374721.37449
  20977543.964 6   -143507.629 6   -102725.47349  20977544.27649
  20042444.190 7   -535743.043 7   -384694.02749  20042440.61649
  23331264.003 3   -110098.168 3    -81004.36746  23331260.40946
  22889385.136 1     52316.266 1     38112.56346  22889383.91746
  23802662.519 3   -968555.832 3   -700981.96148  23802663.73348
 20  5 16  3 44 28.9990000  0  7G01G07G08G11G16G27G30                0.000406576
  21200027.495 6   -981435.270 6   -698431.78949  21200029.13649
  21373840.612 6   -859615.188 6   -621394.73049  21373838.13249
  20977398.628 6   -144272.051 6   -103321.13349  20977398.37449
  20041896.159 7   -538623.609 7   -386938.62949  20041892.62849
  23331130.026 3   -110806.430 3    -81556.27746  23331125.44046
  22889448.894 1     52640.059 1     38364.87946  22889446.24146
  23801580.073 4   -974245.855 4   -705415.74248  23801580.77248
 20  5 16  3 44 29.9990000  0  7G01G07G08G11G16G27G30                0.000405043
  21199028.198 6   -986685.719 6   -702523.03949  21199030.05049
  21372957.284 6   -864257.145 6   -625011.83649  21372954.72649
  20977253.237 6   -145036.223 6   -103916.58649  20977253.15549
  20041348.565 7   -541503.566 7   -389182.75449  20041344.91749
  23330994.776 3   -111514.625 3    -82108.12146  23330990.99546
  22889511.917 1     52963.941 1     38617.27046  22889507.45246
  23800497.261 3   -979935.527 3   -709849.24648  23800498.62048
 20  5 16  3 44 30.9990000  0  7G01G07G08G11G16G27G30                0.000403509
  21198029.386 6   -991935.742 6   -706613.96949  21198031.02649
  21372073.745 6   -868898.605 6   -628628.55949  21372071.31549
  20977108.394 6   -145800.230 6   -104511.91849  20977107.69449
  20040800.526 7   -544382.926 7   -391426.40649  20040796.73749
  23330859.940 3   -112222.559 3    -82659.76646  23330855.95246
  22889573.097 1     53287.961 1     38869.75046  22889569.17946
  23799414.753 4   -985625.016 4   -714282.61348  23799415.53848
 20  5 16  3 44 31.9990000  0  7G01G07G08G11G16G27G30                0.000401978
  21197030.136 6   -997185.176 6   -710704.43849  21197032.17949
  21371190.511 6   -873539.520 6   -632244.85949  21371188.48749
  20976962.745 6   -146563.961 6   -105107.03549  20976962.18749
  20040252.745 7   -547261.629 7   -393669.54749  20040249.06549
  23330724.698 3   -112930.340 3    -83211.27346  23330721.32346
  22889634.175 1     53611.809 1     39122.09846  22889630.79646
  23798331.917 4   -991314.254 4   -718715.78548  23798333.15148
 20  5 16  3 44 32.9990000  0  7G01G07G08G11G16G27G30                0.000400444
  21196031.245 6  -1002434.133 6   -714794.53549  21196033.25749
  21370307.589 6   -878179.906 6   -635860.74649  21370305.67949
  20976816.800 6   -147327.453 6   -105701.96549  20976816.62449
  20039705.058 7   -550139.703 7   -395912.20349  20039701.83949
  23330590.355 2   -113637.883 2    -83762.60946  23330586.43346
  22889698.315 2     53935.801 2     39374.56346  22889692.48746
  23797249.925 4   -997003.258 4   -723148.78148  23797250.56548
 20  5 16  3 44 33.9990000  0  7G01G07G08G11G16G27G30                0.000398911
  21195032.253 6  -1007682.590 6   -718884.24249  21195034.44449
  21369424.800 6   -882819.789 6   -639476.24249  21369422.13649
  20976672.339 6   -148090.754 6   -106296.74249  20976671.51149
  20039157.612 7   -553017.191 7   -398154.39548  20039153.33948
  23330456.089 3   -114345.297 3    -84313.84446  23330451.83946
  22889759.331 2     54259.855 2     39627.06346  22889754.17546
  23796166.901 3  -1002691.922 3   -727581.50448  23796167.98348
 20  5 16  3 44 34.9990000  0  7G01G07G08G11G16G27G30                0.000397379
  21194033.855 6  -1012930.516 6   -722973.52749  21194036.03049
  21368541.714 6   -887459.133 6   -643091.30949  21368539.33549
  20976527.120 6   -148853.816 6   -106891.33649  20976526.24949
  20038609.870 7   -555894.031 7   -400396.09048  20038606.16748
  23330321.026 2   -115052.629 2    -84865.00046  23330317.47646
  22889821.784 2     54583.836 2     39879.52046  22889814.88646
  23795085.065 4  -1008380.320 4   -732014.01648  23795085.75748
 20  5 16  3 44 35.9990000  0  7G01G07G08G11G16G27G30                0.000395845
  21193034.878 6  -1018177.984 6   -727062.46149  21193037.16749
  21367659.128 6   -892097.965 6   -646705.98449  21367656.91349
  20976381.480 6   -149616.652 6   -107485.75449  20976381.41749
  20038062.589 7   -558770.285 7   -402637.32048  20038059.01548
  23330186.003 2   -115759.629 2    -85415.92246  23330182.96446
  22889882.284 1     54908.063 1     40132.16446  22889877.10846
  23794002.245 4  -1014068.527 4   -736446.38748  23794003.33548
 20  5 16  3 44 36.9990000  0  7G01G07G08G11G16G27G30                0.000394314
  21192036.956 6  -1023424.918 6   -731150.98849  21192038.91349
  21366776.433 6   -896736.262 6   -650320.24249  21366773.71049
  20976236.745 6   -150379.258 6   -108080.00049  20976236.05849
  20037515.386 7   -561645.910 7   -404878.07849  20037511.74149
  23330051.347 2   -116466.496 2    -85966.72346  23330048.48346
  22889944.050 2     55232.082 2     40384.62546  22889939.01546
  23792920.315 4  -1019756.508 4   -740878.58648  23792921.40148
 20  5 16  3 44 37.9990000  0  7G01G07G08G11G16G27G30                0.000392780
  21191038.519 6  -1028671.352 6   -735239.11749  21191040.51549
  21365893.831 6   -901374.027 6   -653934.09049  21365891.67549
  20976091.651 6   -151141.648 6   -108674.07049  20976090.65949
  20036968.081 7   -564520.898 7   -407118.32449  20036964.77649
  23329917.831 2   -117173.238 2    -86517.41446  23329914.21846
  22890004.940 2     55556.293 2     40637.26246  22890000.96846
  23791837.503 4  -1025444.191 4   -745310.54748  23791838.50748
 20  5 16  3 44 38.9990000  0  7G01G07G08G11G16G27G30                0.000391249
  21190040.112 6  -1033917.340 6   -739326.89849  21190041.96049
  21365011.456 6   -906011.324 6   -657547.57049  21365009.18749
  20975946.425 6   -151903.867 6   -109268.01249  20975945.91749
  20036421.206 7   -567395.328 7   -409358.14149  20036417.80049
  23329782.526 2   -117879.773 2    -87067.96146  23329779.27246
  22890067.737 1     55880.418 1     40889.84046  22890062.13646
  23790756.081 4  -1031131.645 4   -749742.32848  23790756.21848
 20  5 16  3 44 39.9990000  0  7G01G07G08G11G16G27G30                0.000389715
  21189041.808 6  -1039162.816 6   -743414.28949  21189044.06249
  21364128.995 6   -910648.113 6   -661160.65649  21364126.51949
  20975801.386 6   -152665.863 6   -109861.77349  20975800.89049
  20035874.558 6   -570269.152 6   -411597.48449  20035870.66349
  23329647.737 2   -118586.215 2    -87618.41046  23329645.24546
  22890126.894 1     56204.586 1     41142.42646  22890124.29646
  23789672.948 3  -1036818.879 3   -754173.93448  23789673.96448
 20  5 16  3 44 40.9990000  0  7G01G07G08G11G16G27G30                0.000388182
  21188043.745 6  -1044407.820 6   -747501.29749  21188046.20249
  21363246.526 6   -915284.391 6   -664773.34449  21363244.33149
  20975656.573 6   -153427.656 6   -110455.37949  20975655.94849
  20035327.315 7   -573142.395 7   -413836.36749  20035324.28849
  23329514.026 2   -119292.473 2    -88168.75446  23329510.27246
  22890189.144 1     56528.730 1     41395.00846  22890185.44846
  23788591.089 3  -1042505.863 3   -758605.35248  23788591.50348
 20  5 16  3 44 41.9990000  0  7G01G07G08G11G16G27G30                0.000386650
  21187045.597 6  -1049652.371 6   -751587.96949  21187048.04249
  21362364.886 6   -919920.191 6   -668385.64849  21362362.12049
  20975511.550 6   -154189.281 6   -111048.85549  20975510.50349
  20034780.956 7   -576015.020 7   -416074.77749  20034777.39049
  23329379.565 1   -119998.609 1    -88719.00446  23329376.39746
  22890249.565 1     56852.984 1     41647.66046  22890247.33546
  23787508.550 4  -1048192.641 4   -763036.60548  23787509.52248
 20  5 16  3 44 42.9990000  0  7G01G07G08G11G16G27G30                0.000385117
  21186047.925 6  -1054896.379 6   -755674.20349  21186050.15149
  21361482.792 6   -924555.410 6   -671997.50849  21361480.21049
  20975367.019 6   -154950.629 6   -111642.10949  20975366.22649
  20034234.581 7   -578887.023 7   -418312.69949  20034230.82349
  23329245.370 2   -120704.504 2    -89269.06646  23329241.89046
  22890313.909 2     57177.125 2     41900.23846  22890309.04246
  23786427.112 4  -1053879.160 4   -767467.65548  23786427.25348
 20  5 16  3 44 43.9990000  0  7G01G07G08G11G16G27G30                0.000383585
  21185050.128 6  -1060139.902 6   -759760.05949  21185052.09749
  21360600.933 6   -929190.125 6   -675608.97749  21360598.37849
  20975222.058 6   -155711.773 6   -112235.20749  20975221.42549
  20033687.901 7   -581758.434 7   -420550.16449  20033684.22649
  23329111.08111                    -89819.03556  23329108.21456
  22890376.175 1     57501.375 1     42152.89546  22890370.69446
  23785345.214 4  -1059565.414 4   -771898.49648  23785345.18348
 20  5 16  3 44 44.9990000  0  7G01G07G08G11G16G27G30                0.000382051
  21184052.026 6  -1065383.000 6   -763845.59049  21184054.98749
  21359718.940 6   -933824.422 6   -679220.11749  21359716.25749
  20975077.378 6   -156472.777 6   -112828.19949  20975076.73349
  20033141.448 7   -584629.301 7   -422787.20349  20033137.73049
  23328974.565 1   -122115.977 1    -90368.92646  23328973.19046
  22890436.378 1     57825.520 1     42405.48046  22890432.46446
  23784262.362 4  -1065251.484 4   -776329.19548  23784263.21848
 20  5 16  3 44 45.9990000  0  7G01G07G08G11G16G27G30                0.000380520
  21183054.542 6  -1070625.574 6   -767930.71549  21183056.50349
  21358837.487 6   -938458.168 6   -682830.82849  21358834.88649
  20974932.370 6   -157233.566 6   -113421.02349  20974931.59749
  20032595.370 7   -587499.543 7   -425023.75449  20032592.08149
  23328841.612 1   -122821.496 1    -90918.68046  23328839.80846
  22890497.714 1     58149.785 1     42658.14546  22890494.30446
  23783180.269 4  -1070937.328 4   -780759.72748  23783180.96448
 20  5 16  3 44 46.9990000  0  7G01G07G08G11G16G27G30                0.000378986
  21182057.292 6  -1075867.688 6   -772015.47749  21182059.50749
  21357955.675 6   -943091.430 6   -686441.16849  21357952.98349
  20974787.823 6   -157994.160 6   -114013.69549  20974786.58549
  20032049.433 7   -590369.215 7   -427259.86349  20032045.88649
  23328706.323 1   -123526.789 1    -91468.22346  23328704.93746
  22890556.94811                     42910.78156  22890555.83156
  23782098.190 4  -1076622.934 4   -785190.05948  23782099.27648
 20  5 16  3 44 47.9990000  0  7G01G07G08G11G16G27G30                0.000377455
  21181059.519 6  -1081109.371 6   -776099.91449  21181061.87849
  21357073.737 6   -947724.234 6   -690051.14149  21357071.44449
  20974642.909 6   -158754.582 6   -114606.23449  20974641.92949
  20031503.159 7   -593238.316 7   -429495.52749  20031499.96449
  23328572.581 1   -124231.980 1    -92017.71146  23328570.99546
  22890618.980 1     58798.172 1     43163.37146  22890617.55046
  23781017.144 3  -1082308.348 3   -789620.25448  23781017.70648
 20  5 16  3 44 48.9990000  0  7G01G07G08G11G16G27G30                0.000375921
  21180062.308 6  -1086350.539 6   -780183.93849  21180064.73349
  21356192.526 6   -952356.488 6   -693660.68849  21356190.02249
  20974498.034 6   -159514.801 6   -115198.60949  20974497.23049
  20030957.315 7   -596106.805 7   -431730.71149  20030953.89449
  23328439.409 1   -124937.102 1    -92567.16446  23328437.62446
  22890681.378 1     59122.395 1     43416.02746  22890679.26946
  23779934.870 3  -1087993.512 3   -794050.25848  23779935.03048
 20  5 16  3 44 49.9990000  0  7G01G07G08G11G16G27G30                0.000374390
  21179065.323 6  -1091591.242 6   -784267.60549  21179067.24949
  21355310.651 6   -956988.262 6   -697269.86349  21355308.47249
  20974353.667 6   -160274.824 6   -115790.83649  20974352.89749
  20030411.940 7   -598974.707 7   -433965.43048  20030408.50348
  23328304.737 1   -125641.965 1    -93116.41846  23328303.35546
  22890743.42511                     43668.64556  22890740.86256
  23778853.394 4  -1093678.414 4   -798480.05148  23778853.73048
 20  5 16  3 44 50.9990000  0  7G01G07G08G11G16G27G30                0.000372858
  21178067.987 6  -1096831.465 6   -788350.88349  21178070.01149
  21354429.823 6   -961619.551 6   -700878.66049  21354427.19049
  20974208.901 6   -161034.648 6   -116382.90649  20974208.74949
  20029866.034 7   -601842.035 7   -436199.71148  20029862.56948
  23328171.839 1   -126346.680 1    -93665.55546  23328168.73346
  22890806.50311                     43921.42256  22890802.46456
  23777772.073 4  -1099363.141 4   -802909.69948  23777771.87848
 20  5 16  3 44 51.9990000  0  7G01G07G08G11G16G27G30                0.000371325
  21177070.612 6  -1102071.223 6   -792433.80949  21177073.16349
  21353548.386 6   -966250.324 6   -704487.05949  21353545.72649
  20974064.526 6   -161794.258 6   -116974.81349  20974063.76949
  20029320.058 6   -604708.766 6   -438433.53148  20029317.03848
  23328037.753 1   -127051.309 1    -94214.64546  23328035.03846
  22890868.26911                     44173.96956  22890864.51556
  23776689.769 4  -1105047.625 4   -807339.16848  23776690.47648
 20  5 16  3 44 52.9990000  0  7G01G07G08G11G16G27G30                0.000369793
  21176073.722 6  -1107310.422 6   -796516.30149  21176076.28449
  21352667.612 6   -970880.559 6   -708095.03949  21352665.00749
  20973920.190 6   -162553.625 6   -117566.53149  20973919.96449
  20028775.245 6   -607574.832 6   -440666.82848  20028771.62448
  23327902.675 1   -127755.719 1    -94763.53146  23327900.84346
  22890928.19811                     44426.73856  22890926.94056
  23775607.815 4  -1110731.824 4   -811768.41848  23775608.59748
 20  5 16  3 44 53.9990000  0  7G01G07G08G11G16G27G30                0.000368259
  21175076.917 6  -1112549.137 6   -800598.41449  21175079.40949
  21351785.956 6   -975510.293 6   -711702.62549  21351783.87449
  20973775.847 6   -163312.758 6   -118158.06349  20973775.34749
  20028230.167 6   -610440.340 6   -442899.69548  20028226.44048
  23327768.401 1   -128459.965 1    -95312.28546  23327766.50746
  22890989.40911                     44679.39556  22890988.44456
  23774526.355 4  -1116415.762 4   -816197.46148  23774526.71048
 20  5 16  3 44 54.9990000  0  7G01G07G08G11G16G27G30                0.000366728
  21174080.503 6  -1117787.359 6   -804680.14549  21174082.39049
  21350905.136 6   -980139.484 6   -715309.78149  21350903.33149
  20973631.440 6   -164071.668 6   -118749.42649  20973630.94449
  20027684.745 6   -613305.211 6   -445132.06348  20027681.05448
  23327634.276 1   -129164.102 1    -95860.99246  23327632.33546
  22891049.10511                     44932.18056  22891049.39456
  23773445.105 4  -1122099.469 4   -820626.31348  23773444.96848
 20  5 16  3 44 55.9990000  0  6G01G07G08G11G16G30                   0.000365194
  21173083.159 6  -1123025.098 6   -808761.50049  21173085.58949
  21350024.511 6   -984768.168 6   -718916.55149  21350022.08949
  20973487.081 6   -164830.367 6   -119340.60949  20973486.28049
  20027139.495 6   -616169.469 6   -447363.94948  20027136.23348
  23327502.636 1   -129867.961 1    -96409.45746  23327499.41746
  23772362.847 3  -1127782.941 3   -825054.99248  23772363.45248
 20  5 16  3 44 56.9990000  0  6G01G07G08G11G16G30                   0.000363663
  21172086.769 6  -1128262.320 6   -812842.45349  21172089.42949
  21349143.855 6   -989396.344 6   -722522.91849  21349142.01149
  20973342.487 6   -165588.895 6   -119931.67249  20973342.23749
  20026595.089 7   -619033.145 7   -449595.38748  20026591.44448
  23327368.245 1   -130571.742 1    -96957.84446  23327365.14446
  23771282.456 3  -1133466.125 3   -829483.44548  23771282.49548
 20  5 16  3 44 57.9990000  0  6G01G07G08G11G16G30                   0.000362131
  21171089.831 6  -1133499.070 6   -816923.03549  21171092.56549
  21348263.394 6   -994024.008 6   -726128.89149  21348261.70649
  20973198.042 6   -166347.188 6   -120522.55949  20973198.03449
  20026049.901 7   -621896.195 7   -451826.33648  20026046.49148
  23327233.839 2   -131275.336 2    -97506.10246  23327230.73046
  23770199.917 4  -1139149.129 4   -833911.75848  23770200.52248
 20  5 16  3 44 58.9990000  0  6G01G07G08G11G16G30                   0.000360598
  21170093.644 6  -1138735.320 6   -821003.23049  21170096.52249
  21347382.964 6   -998651.145 6   -729734.45349  21347380.43349
  20973053.784 6   -167105.301 6   -121113.29349  20973053.66349
  20025505.026 6   -624758.656 6   -454056.82448  20025501.94448
  23327100.253 1   -131978.719 1    -98054.19546  23327097.08146
  23769118.753 4  -1144831.891 4   -838339.88748  23769119.52648
 20  5 16  3 44 59.9990000  0  6G01G07G08G11G16G30                   0.000359066
  21169097.542 6  -1143971.082 6   -825083.04349  21169099.90549
  21346502.370 6  -1003277.773 6   -733339.61349  21346500.10549
  20972909.644 6   -167863.184 6   -121703.85249  20972909.62849
  20024960.589 7   -627620.508 7   -456286.83648  20024956.83148
  23326966.605 2   -132682.023 2    -98602.24646  23326963.68346
  23768037.261 3  -1150514.344 3   -842767.77048  23768038.35548
 20  5 16  3 45  0.9990000  0  6G01G07G08G11G16G30                   0.000357534
  21168101.128 6  -1149206.324 6   -829162.45349  21168103.67549
  21345621.839 6  -1007903.891 6   -736944.38749  21345619.85849
  20972765.636 6   -168620.844 6   -122294.23849  20972765.23749
  20024415.823 7   -630481.770 7   -458516.38748  20024412.64448
  23326832.628 1   -133385.199 1    -99150.17246  23326829.69846
  23766956.323 3  -1156196.613 3   -847195.51248  23766956.79648
 20  5 16  3 45  1.9990000  0  6G01G07G08G11G16G30                   0.000356001
  21167104.776 6  -1154441.145 6   -833241.52349  21167107.35849
  21344741.823 6  -1012529.523 6   -740548.77049  21344739.53049
  20972621.472 6   -169378.348 6   -122884.49649  20972620.82349
  20023871.878 6   -633342.445 6   -460745.48848  20023868.33548
  23326699.112 1   -134088.129 1    -99697.92246  23326696.40546
  23765874.745 3  -1161878.660 3   -851623.07448  23765875.36248
 20  5 16  3 45  2.9990000  0  6G01G07G08G11G16G30                   0.000354469
  21166108.933 6  -1159675.398 6   -837320.16049  21166111.36249
  21343861.636 6  -1017154.594 6   -744152.72349  21343859.34749
  20972477.230 6   -170135.590 6   -123474.55549  20972477.13249
  20023327.534 6   -636202.469 6   -462974.07848  20023324.07348
  23326565.855 2   -134790.953 2   -100245.58646  23326562.18746
  23764793.237 3  -1167560.375 3   -856050.39148  23764794.32748
 20  5 16  3 45  3.9990000  0  6G01G07G08G11G16G30                   0.000352936
  21165113.284 6  -1164909.195 6   -841398.44549  21165115.24149
  21342981.511 6  -1021779.180 6   -747756.29749  21342979.10849
  20972333.019 6   -170892.660 6   -124064.47749  20972333.22249
  20022783.003 6   -639061.914 6   -465202.21148  20022779.89448
  23326432.690 1   -135493.496 1   -100793.03146  23326428.71446
  23763712.190 3  -1173241.922 3   -860477.56348  23763713.31548
 20  5 16  3 45  4.9990000  0  6G01G07G08G11G16G30                   0.000351404
  21164116.800 6  -1170142.523 6   -845476.36749  21164119.38649
  21342101.730 6  -1026403.266 6   -751359.48049  21342099.47649
  20972189.362 6   -171649.551 6   -124654.26249  20972188.60149
  20022239.550 6   -641920.777 6   -467429.89848  20022235.90548
  23326297.956 2   -136196.082 2   -101340.48846  23326294.79646
  23762630.917 3  -1178923.227 3   -864904.55148  23762631.80848
 20  5 16  3 45  5.9990000  0  6G01G07G08G11G16G30                   0.000349873
  21163121.683 6  -1175375.320 6   -849553.87149  21163124.04249
  21341221.339 6  -1031026.832 6   -754962.25849  21341219.92949
  20972045.011 6   -172406.195 6   -125243.85549  20972044.77249
  20021695.355 6   -644779.000 6   -469657.08248  20021692.11248
  23326165.690 1   -136898.285 1   -101887.65246  23326161.51946
  23761550.261 3  -1184604.246 3   -869331.32048  23761550.76148
 20  5 16  3 45  6.9990000  0  6G01G07G08G11G16G30                   0.000348341
  21162125.683 6  -1180607.656 6   -853631.01649  21162127.83549
  21340341.948 6  -1035649.883 6   -758564.64149  21340339.81949
  20971901.378 6   -173162.641 6   -125833.29749  20971901.33149
  20021151.206 6   -647636.664 6   -471883.83648  20021148.57748
  23326031.761 1   -137600.480 1   -102434.83246  23326027.80046
  23760469.097 3  -1190285.016 3   -873757.89848  23760469.60148
 20  5 16  3 45  7.9990000  0  6G01G07G08G11G16G30                   0.000346809
  21161130.159 6  -1185839.504 6   -857707.77749  21161132.31549
  21339462.331 6  -1040272.441 6   -762166.63349  21339460.53449
  20971757.011 6   -173918.895 6   -126422.58649  20971756.90549
  20020608.206 6   -650493.730 6   -474110.12148  20020604.85848
  23325898.175 1   -138302.527 1   -102981.90646  23325893.59346
  23759387.855 3  -1195965.633 3   -878184.35548  23759388.42148
 20  5 16  3 45  8.9990000  0  6G01G07G08G11G16G30                   0.000345276
  21160135.042 6  -1191070.879 6   -861784.17249  21160137.11249
  21338582.331 6  -1044894.539 6   -765768.26649  21338580.74949
  20971613.487 6   -174674.973 6   -127011.73449  20971613.46849
  20020064.183 6   -653350.219 6   -476335.95348  20020061.00348
  23325765.308 2   -139004.375 2   -103528.82446  23325760.96446
  23758306.894 3  -1201645.980 3   -882610.58648  23758307.89448
 20  5 16  3 45  9.9990000  0  6G01G07G08G11G16G30                   0.000343744
  21159139.261 6  -1196301.734 6   -865860.16449  21159141.36249
  21337703.065 6  -1049516.078 6   -769369.46949  21337701.13249
  20971469.534 6   -175430.836 6   -127600.71549  20971469.45249
  20019520.870 6   -656206.102 6   -478561.31648  20019517.46048
  23325630.972 1   -139706.070 1   -104075.59046  23325627.67146
  23757225.839 3  -1207326.082 3   -887036.64148  23757226.73748
 20  5 16  3 45 10.9990000  0  6G01G07G08G11G16G30                   0.000342213
  21158144.050 6  -1201532.141 6   -869935.80549  21158146.46049
  21336823.831 6  -1054137.105 6   -772970.27349  21336821.97249
  20971326.190 6   -176186.477 6   -128189.52749  20971325.39749
  20018977.378 6   -659061.352 6   -480786.18048  20018974.16348
  23325498.347 2   -140407.621 2   -104622.27346  23325493.76546
  23756144.706 3  -1213005.926 3   -891462.48848  23756145.87848
 20  5 16  3 45 11.9990000  0  6G01G07G08G11G16G30                   0.000340679
  21157148.878 6  -1206762.035 6   -874011.04349  21157151.06249
  21335944.565 6  -1058757.629 6   -776570.68049  21335942.69449
  20971182.128 6   -176941.914 6   -128778.18449  20971182.05849
  20018434.464 6   -661916.035 6   -483010.61348  20018431.03848
  23325365.589 1   -141108.984 1   -105168.80946  23325360.99946
  23755064.675 3  -1218685.555 3   -895888.17248  23755065.28048
 20  5 16  3 45 12.9990000  0  6G01G07G08G11G16G30                   0.000339148
  21156153.214 6  -1211991.480 6   -878085.93849  21156155.63649
  21335065.261 6  -1063377.684 6   -780170.72749  21335063.46449
  20971038.386 6   -177697.195 6   -129366.71549  20971038.44049
  20017890.831 6   -664770.137 6   -485234.59048  20017887.81948
  23325230.245 1   -141810.199 1   -105715.19946  23325227.23046
  23753982.862 3  -1224364.969 3   -900313.69148  23753984.13248
 20  5 16  3 45 13.9990000  0  6G01G07G08G11G16G30                   0.000337616
  21155158.737 6  -1217220.398 6   -882160.41849  21155160.89749
  21334186.206 6  -1067997.215 6   -783770.35249  21334184.41349
  20970894.917 6   -178452.238 6   -129955.05949  20970894.65549
  20017347.972 6   -667623.629 6   -487458.08248  20017344.69848
  23325097.675 1   -142511.297 1   -106261.50046  23325093.98746
  23752902.784 3  -1230044.137 3   -904739.01648  23752903.46848
 20  5 16  3 45 14.9990000  0  6G01G07G08G11G16G30                   0.000336084
  21154164.042 6  -1222448.813 6   -886234.50449  21154165.83949
  21333307.261 6  -1072616.195 6   -787369.55949  21333305.62849
  20970751.464 6   -179207.070 6   -130543.23849  20970751.28849
  20016805.558 6   -670476.496 6   -489681.09848  20016801.82348
  23324964.784 1   -143212.195 1   -106807.66446  23324960.69446
  23751821.730 3  -1235723.027 3   -909164.12148  23751823.34348
 20  5 16  3 45 15.9990000  0  6G01G07G08G11G16G30                   0.000334553
  21153169.159 6  -1227676.691 6   -890308.17649  21153171.14049
  21332428.487 6  -1077234.645 6   -790968.34849  21332426.71449
  20970607.370 6   -179961.664 6   -131131.23449  20970607.07349
  20016262.480 6   -673328.734 6   -491903.62148  20016259.20648
  23324830.620 1   -143912.898 1   -107353.65246  23324826.93746
  23750741.956 3  -1241401.641 3   -913589.01648  23750742.36248
 20  5 16  3 45 16.9990000  0  6G01G07G08G11G16G30                   0.000333021
  21152174.331 6  -1232904.074 6   -894381.46549  21152176.05049
  21331550.136 6  -1081852.547 6   -794566.71549  21331548.10549
  20970463.972 6   -180716.023 6   -131719.05149  20970463.78849
  20015719.894 6   -676180.332 6   -494125.64548  20015716.62048
  23324697.901 1   -144613.391 1   -107899.50846  23324694.05446
  23749661.550 3  -1247079.918 3   -918013.64848  23749662.09748
 20  5 16  3 45 17.9990000  0  6G01G07G08G11G16G30                   0.000331490
  21151179.339 6  -1238130.996 6   -898454.38749  21151181.22249
  21330671.605 6  -1086469.965 6   -798164.69949  21330669.56949
  20970320.511 6   -181470.176 6   -132306.69149  20970320.15549
  20015177.253 6   -679031.344 6   -496347.21148  20015173.87048
  23324566.480 1   -145313.785 1   -108445.27746  23324560.87846
  23748580.550 3  -1252758.102 3   -922438.20348  23748581.48348
 20  5 16  3 45 18.9990000  0  6G01G07G08G11G16G30                   0.000329956
  21150184.948 6  -1243357.430 6   -902526.93849  21150187.01149
  21329792.589 6  -1091086.898 6   -801762.30949  21329790.63649
  20970176.964 6   -182224.168 6   -132894.22749  20970176.57749
  20014634.753 6   -681881.816 6   -498568.36349  20014631.23749
  23324431.237 1   -146014.043 1   -108990.93846  23324427.87846
  23747500.394 3  -1258436.047 3   -926862.57848  23747501.10548
 20  5 16  3 45 19.9990000  0  6G01G07G08G11G16G30                   0.000328424
  21149190.737 6  -1248583.383 6   -906599.10549  21149192.62849
  21328914.198 6  -1095703.324 6   -805359.52049  21328912.15149
  20970033.269 6   -182977.953 6   -133481.58649  20970033.15549
  20014092.425 6   -684731.664 6   -500789.02348  20014089.12448
  23324297.026 1   -146714.191 1   -109536.53146  23324294.15546
  23746419.761 3  -1264113.727 3   -931286.74248  23746420.06948
 20  5 16  3 45 20.9990000  0  6G01G07G08G11G16G30                   0.000326889
  21148196.151 6  -1253808.801 6   -910670.85949  21148198.10849
  21328035.870 6  -1100319.195 6   -808956.30549  21328033.62849
  20969890.269 6   -183731.453 6   -134068.73049  20969890.05849
  20013550.222 6   -687580.859 6   -503009.17249  20013546.90149
  23324163.46411                   -110081.87556  23324160.90156
  23745339.753 3  -1269791.074 3   -935710.64548  23745340.18748
 20  5 16  3 45 21.9990000  0  6G01G07G08G11G16G30                   0.000325357
  21147201.519 6  -1259033.664 6   -914742.17649  21147204.05049
  21327157.784 6  -1104934.484 6   -812552.63749  21327155.71049
  20969747.026 6   -184484.734 6   -134655.70349  20969746.75349
  20013008.347 6   -690429.434 6   -505228.84048  20013005.16748
  23324030.190 1                   -110627.07046  23324027.49946
  23744259.011 3  -1275468.141 3   -940134.33248  23744259.74548
 20  5 16  3 45 22.9990000  0  6G01G07G08G11G16G30                   0.000323826
  21146207.776 6  -1264258.078 6   -918813.15249  21146209.78049
  21326279.565 6  -1109549.313 6   -816148.60249  21326277.51549
  20969603.386 7   -185237.840 7   -135242.53549  20969603.06549
  20012466.503 6   -693277.457 6   -507448.07848  20012462.92148
  23323897.362 1                   -111172.23046  23323894.62446
  23743178.933 4  -1281145.055 4   -944557.90648  23743179.00748
 20  5 16  3 45 23.9990000  0  6G01G07G08G11G16G30                   0.000322294
  21145213.237 6  -1269481.969 6   -922883.71549  21145215.42549
  21325401.206 6  -1114163.594 6   -819744.14549  21325399.26549
  20969460.065 6   -185990.723 6   -135829.19949  20969459.65149
  20011924.378 6   -696124.813 6   -509666.79748  20011921.16348
  23323764.198 1                   -111717.17246  23323761.78046
  23742098.776 4  -1286821.660 4   -948981.23848  23742099.12848
 20  5 16  3 45 24.9990000  0  6G01G07G08G11G16G30                   0.000320763
  21144219.495 6  -1274705.375 6   -926953.90249  21144221.61249
  21324523.378 6  -1118777.391 6   -823339.31349  21324521.46449
  20969316.870 6   -186743.418 6   -136415.71549  20969317.26949
  20011383.120 6   -698971.594 6   -511885.06648  20011379.21048
  23323631.636 1   -150211.898 1   -112262.00846  23323628.84346
  23741018.659 4  -1292498.035 4   -953404.37948  23741018.77648
 20  5 16  3 45 25.9990000  0  6G01G07G08G11G16G30                   0.000319233
  21143225.628 6  -1279928.316 6   -931023.72749  21143227.69849
  21323645.237 6  -1123390.660 6   -826934.07049  21323643.44049
  20969173.362 6   -187495.938 6   -137002.09449  20969173.30449
  20010841.144 6   -701817.777 6   -514102.86748  20010837.80848
  23323498.675 1   -150911.000 1   -112806.77046  23323495.74946
  23739939.065 3  -1298174.199 3   -957827.36348  23739938.89048
 20  5 16  3 45 26.9990000  0  6G01G07G08G11G16G30                   0.000317701
  21142232.230 6  -1285150.809 6   -935093.20349  21142234.00749
  21322767.605 6  -1128003.473 6   -830528.47349  21322765.68349
  20969030.597 6   -188248.277 6   -137588.33649  20969030.60849
  20010299.542 6   -704663.414 6   -516320.25049  20010296.53049
  23323364.339 1   -151609.961 1   -113351.39846  23323362.34346
  23738858.972 3  -1303850.156 3   -962250.18048  23738858.62048
 20  5 16  3 45 27.9990000  0  6G01G07G08G11G16G30                   0.000316166
  21141238.542 6  -1290372.781 6   -939162.27349  21141239.97649
  21321889.667 6  -1132615.770 6   -834122.46549  21321887.98749
  20968887.276 6   -189000.402 6   -138174.41049  20968887.24549
  20009758.276 6   -707508.449 6   -518537.15648  20009754.90548
  23323232.53411                   -113895.87956  23323229.53456
  23737778.722 3  -1309525.824 3   -966672.77748  23737778.65948
 20  5 16  3 45 28.9990000  0  6G01G07G08G11G16G30                   0.000314636
  21140245.284 6  -1295594.258 6   -943230.94949  21140246.28449
  21321011.964 6  -1137227.504 6   -837716.03149  21321010.25749
  20968744.472 6   -189752.285 6   -138760.28549  20968744.27249
  20009216.862 6   -710352.844 6   -520753.56348  20009213.53848
  23323098.88611                   -114440.27356  23323096.76156
  23736698.894 3  -1315201.324 3   -971095.24648  23736698.98748
 20  5 16  3 45 29.9990000  0  6G01G07G08G11G16G30                   0.000313105
  21139251.644 6  -1300815.180 6   -947299.19949  21139252.76549
  21320134.823 6  -1141838.711 6   -841309.18849  21320132.83549
  20968600.815 6   -190503.934 6   -139345.98449  20968601.33949
  20008675.987 6   -713196.621 6   -522969.49248  20008672.44848
  23322965.948 1                   -114984.50046  23322963.82346
  23735619.339 3  -1320876.488 3   -975517.45348  23735618.95648
 20  5 16  3 45 30.9990000  0  6G01G07G08G11G16G30                   0.000311573
  21138258.315 6  -1306035.641 6   -951367.08649  21138259.61649
  21319257.511 6  -1146449.414 6   -844901.93849  21319255.63649
  20968458.136 6   -191255.402 6   -139931.54349  20968457.85149
  20008134.839 6   -716039.801 6   -525184.96149  20008131.40949
  23322833.136 1   -154403.992 1   -115528.58646  23322830.65546
  23734539.386 3  -1326551.438 3   -979939.48048  23734539.20648
 20  5 16  3 45 31.9990000  0  6G01G07G08G11G16G30                   0.000310045
  21137264.589 6  -1311255.617 6   -955434.60549  21137266.00349
  21318380.378 6  -1151059.625 6   -848494.30949  21318378.19449
  20968315.097 6   -192006.676 6   -140516.95349  20968315.03449
  20007593.737 6   -718882.398 6   -527399.97749  20007590.35849
  23322699.456 1   -155102.109 1   -116072.57846  23322698.20646
  23733458.565 3  -1332226.105 3   -984361.30148  23733458.86648
 20  5 16  3 45 32.9990000  0  6G01G07G08G11G16G30                   0.000308514
  21136271.487 6  -1316475.105 6   -959501.73849  21136272.98049
  21317503.222 6  -1155669.340 6   -852086.29749  21317501.03049
  20968172.198 6   -192757.777 6   -141102.22749  20968172.06249
  20007053.136 6   -721724.414 6   -529614.53548  20007049.51548
  23322567.011 1   -155800.184 1   -116616.53946  23322564.70646
  23732378.800 4  -1337900.594 4   -988782.97348  23732378.92148
 20  5 16  3 45 33.9990000  0  6G01G07G08G11G16G30                   0.000306982
  21135278.472 6  -1321694.148 6   -963568.53149  21135280.21049
  21316625.933 6  -1160278.563 6   -855677.89849  21316623.65149
  20968029.245 6   -193508.695 6   -141687.35949  20968029.43749
  20006512.284 6   -724565.852 6   -531828.63348  20006509.07348
  23322435.315 1   -156497.980 1   -117160.29746  23322432.48046
  23731298.761 4  -1343574.801 4   -993204.43048  23731299.28448
 20  5 16  3 45 34.9990000  0  6G01G07G08G11G16G30                   0.000305447
  21134285.050 6  -1326912.664 6   -967634.91049  21134286.77649
  21315748.573 6  -1164887.258 6   -859269.08649  21315746.87049
  20967886.323 6   -194259.414 6   -142272.33649  20967886.94449
  20005971.831 6   -727406.672 6   -534042.25848  20005968.23348
  23322302.46411                   -117703.91856  23322300.44856
  23730219.753 3  -1349248.855 3   -997625.76248  23730219.03048
 20  5 16  3 45 35.9990000  0  6G01G07G08G11G16G30                   0.000303915
  21133292.105 6  -1332130.703 6   -971700.91449  21133294.00749
  21314872.144 6  -1169495.414 6   -862859.85949  21314869.83949
  20967743.534 6   -195009.887 6   -142857.12149  20967743.48349
  20005431.269 6   -730246.863 6   -536255.39548  20005428.06248
  23322169.55811                   -118247.38356  23322166.95656
  23729140.620 3  -1354922.625 3  -1002046.89148  23729139.83948
 20  5 16  3 45 36.9990000  0  6G01G07G08G11G16G30                   0.000302383
  21132299.331 6  -1337348.223 6   -975766.50849  21132301.09349
  21313995.620 6  -1174103.074 6   -866450.23849  21313993.08149
  20967601.198 6   -195760.141 6   -143441.73049  20967600.70649
  20004890.792 6   -733086.465 6   -538468.07848  20004887.45248
  23322037.230 1   -158590.445 1   -118790.75446  23322034.56946
  23728060.644 3  -1360596.102 3  -1006467.78148  23728060.01948
 20  5 16  3 45 37.9990000  0  6G01G07G08G11G16G30                   0.000300856
  21131306.831 6  -1342565.211 6   -979831.69549  21131308.56249
  21313118.769 6  -1178710.160 6   -870040.17649  21313116.18349
  20967458.175 6   -196510.156 6   -144026.15649  20967458.00349
  20004350.558 6   -735925.430 6   -540680.25448  20004347.16348
  23321904.105 1   -159287.590 1   -119334.03546  23321901.44446
  23726980.769 4  -1366269.297 4  -1010888.45348  23726980.05448
 20  5 16  3 45 38.9990000  0  5G01G07G08G11G30                      0.000299318
  21130313.815 6  -1347781.688 6   -983896.47749  21130315.79249
  21312241.894 6  -1183316.707 6   -873629.69149  21312240.02649
  20967315.675 6   -197259.945 6   -144610.41049  20967314.92949
  20003810.425 6   -738763.758 6   -542891.94548  20003807.20648
  23725901.730 4  -1371942.238 4  -1015308.93048  23725900.87448
 20  5 16  3 45 39.9990000  0  5G01G07G08G11G30                      0.000297789
  21129321.331 6  -1352997.668 6   -987960.87949  21129323.09349
  21311365.315 6  -1187922.762 6   -877218.82449  21311363.64049
  20967172.901 6   -198009.543 6   -145194.50849  20967172.41349
  20003270.558 6   -741601.500 6   -545103.16448  20003266.84348
  23724822.011 4  -1377614.926 4  -1019729.20348  23724821.84748
 20  5 16  3 45 40.9990000  0  5G01G07G08G11G30                      0.000296257
  21128328.940 6  -1358213.117 6   -992024.86349  21128330.49549
  21310488.839 6  -1192528.254 6   -880807.52049  21310487.18349
  20967030.347 6   -198758.902 6   -145778.42649  20967029.73749
  20002730.417 6   -744438.598 6   -547313.89548  20002727.18748
  23723742.261 4  -1383287.387 4  -1024149.30548  23723742.35548
 20  5 16  3 45 41.9990000  0  5G01G07G08G11G30                      0.000294725
  21127336.737 6  -1363428.070 6   -996088.46149  21127338.30449
  21309612.847 6  -1197133.238 6   -884395.81649  21309610.67149
  20966887.878 6   -199508.031 6   -146362.16049  20966887.40949
  20002190.909 6   -747275.117 6   -549524.17248  20002187.34348
  23722662.855 4  -1388959.578 4  -1028569.18848  23722662.43348
 20  5 16  3 45 42.9990000  0  5G01G07G08G11G30                      0.000293196
  21126344.425 6  -1368642.570 6  -1000151.70749  21126345.56949
  21308736.480 6  -1201737.754 6   -887983.75049  21308734.90149
  20966745.011 6   -200257.031 6   -146945.80549  20966744.89449
  20001651.355 6   -750111.078 6   -551734.00448  20001647.49548
  23721583.675 3  -1394631.520 3  -1032988.87948  23721583.40148
 20  5 16  3 45 43.9990000  0  5G01G07G08G11G30                      0.000291664
  21125352.347 6  -1373856.637 6  -1004214.60549  21125353.19849
  21307860.526 6  -1206341.813 6   -891571.33649  21307858.62049
  20966602.839 6   -201005.871 6   -147529.30549  20966602.04649
  20001111.323 6   -752946.496 6   -553943.42648  20001107.96448
  23720503.644 3  -1400303.332 3  -1037408.47348  23720503.73748
 20  5 16  3 45 44.9990000  0  5G01G07G08G11G30                      0.000290133
  21124359.909 6  -1379070.156 6  -1008277.09049  21124361.24149
  21306984.331 6  -1210945.301 6   -895158.46549  21306982.62449
  20966460.214 6   -201754.469 6   -148112.62949  20966459.48749
  20000572.261 6   -755781.246 6   -556152.32048  20000568.85548
  23719424.823 3  -1405974.824 3  -1041827.82848  23719424.48348
 20  5 16  3 45 45.9990000  0  5G01G07G08G11G30                      0.000288601
  21123367.636 6  -1384283.234 6  -1012339.23049  21123369.55849
  21306108.409 6  -1215548.309 6   -898745.23049  21306106.53049
  20966317.597 6   -202502.883 6   -148695.80949  20966317.01549
  20000032.636 6   -758615.441 6   -558360.77748  20000029.34348
  23718345.198 3  -1411646.094 3  -1046247.00048  23718344.90148
 20  5 16  3 45 46.9990000  0  5G01G07G08G11G30                      0.000287069
  21122376.456 6  -1389495.738 6  -1016400.91849  21122377.68749
  21305232.698 6  -1220150.758 6   -902331.55549  21305230.84349
  20966175.237 6   -203251.043 6   -149278.78949  20966174.86249
  19999493.761 6   -761448.973 6   -560568.72348  19999489.97648
  23717265.792 2  -1417317.105 2  -1050665.96547  23717266.39047
 20  5 16  3 45 47.9990000  0  5G01G07G08G11G30                      0.000285538
  21121384.003 6  -1394707.742 6  -1020462.22349  21121385.71049
  21304356.558 6  -1224752.664 6   -905917.45349  21304355.00349
  20966033.276 6   -203998.984 6   -149861.60249  20966032.48049
  19998954.495 6   -764281.910 6   -562776.21148  19998951.12848
  23716187.034 2  -1422987.813 2  -1055084.68047  23716187.19447
 20  5 16  3 45 48.9990000  0  6G01G07G08G11G27G30                   0.000284008
  21120392.355 6  -1399919.219 6  -1024523.12149  21120394.37049
  21303481.417 6  -1229354.027 6   -909502.93049  21303479.28449
  20965890.722 6   -204746.699 6   -150444.24249  20965889.90949
  19998415.651 6   -767114.211 6   -564983.19148  19998412.32348
  22894388.18311                                
  23715108.151 3  -1428658.285 3  -1059503.21947  23715107.79247
 20  5 16  3 45 49.9990000  0  6G01G07G08G11G27G30                   0.000282476
  21119400.855 6  -1405130.227 6  -1028583.65249  21119402.51149
  21302605.706 6  -1233954.906 6   -913088.03549  21302603.66349
  20965748.972 6   -205494.223 6   -151026.73049  20965748.31249
  19997876.550 6   -769945.938 6   -567189.74248  19997873.13248
  22894450.886 1      1136.465 1                
  23714028.769 2  -1434328.477 2  -1063921.53947  23714029.31547
 20  5 16  3 45 50.9990000  0  6G01G07G08G11G27G30                   0.000280947
  21118409.573 6  -1410340.766 6  -1032643.81349  21118410.77249
  21301730.433 6  -1238555.313 6   -916672.77049  21301728.04649
  20965606.636 6   -206241.578 6   -151609.08249  20965605.82749
  19997337.745 6   -772777.094 6   -569395.83248  19997334.55048
  22894512.519 1      1461.727 1                
  23712949.987 2  -1439998.531 2  -1068339.77047  23712949.90947
 20  5 16  3 45 51.9990000  0  6G01G07G08G11G27G30                   0.000279413
  21117417.980 6  -1415550.840 6  -1036703.61349  21117419.65149
  21300854.972 6  -1243155.188 6   -920257.08249  21300852.68749
  20965464.245 6   -206988.734 6   -152191.27349  20965463.54249
  19996799.198 6   -775607.645 6   -571601.45748  19996795.61648
  22894574.40111                                
  23711871.136 2  -1445668.273 2  -1072757.74647  23711871.37847
 20  5 16  3 45 52.9990000  0  6G01G07G08G11G27G30                   0.000277884
  21116426.769 6  -1420760.367 6  -1040762.97749  21116428.41349
  21299979.901 6  -1247754.539 6   -923840.99249  21299977.62449
  20965322.167 6   -207735.664 6   -152773.30149  20965321.33149
  19996260.815 6   -778437.570 6   -573806.59848  19996257.37848
  22894636.159 1                                
  23710792.097 2  -1451337.828 2  -1077175.58247  23710793.03047
 20  5 16  3 45 53.9990000  0  6G01G07G08G11G27G30                   0.000276352
  21115435.964 6  -1425969.406 6  -1044821.94949  21115436.98349
  21299104.698 6  -1252353.359 6   -927424.49649  21299102.75349
  20965179.917 6   -208482.387 6   -153355.16449  20965179.25349
  19995722.456 6   -781266.891 6   -576011.25848  19995718.95248
  22894696.526 1                                
  23709712.472 2  -1457007.008 2  -1081593.10948  23709713.90948
 20  5 16  3 45 54.9990000  0  6G01G07G08G11G27G30                   0.000274820
  21114444.151 6  -1431177.961 6  -1048880.55949  21114445.95249
  21298229.315 6  -1256951.684 6   -931007.60249  21298227.17949
  20965037.995 6   -209228.926 6   -153936.89149  20965037.49949
  19995183.956 6   -784095.676 6   -578215.50448  19995180.44448
  22894757.136 1                     45742.15257  22894758.00757
  23708633.558 2  -1462676.098 2  -1086010.57847  23708634.91747
 20  5 16  3 45 55.9990000  0  6G01G07G08G11G27G30                   0.000273291
  21113453.089 6  -1436386.023 6  -1052938.78949  21113455.13249
  21297354.808 6  -1261549.508 6   -934590.32049  21297352.27249
  20964895.683 6   -209975.262 6   -154518.45349  20964895.24949
  19994645.956 6   -786923.793 6   -580419.23048  19994642.56248
  22894819.76911                     45995.54757  22894819.77657
  23707554.753 2  -1468344.859 2  -1090427.79747  23707556.24547
 20  5 16  3 45 56.9990000  0  6G01G07G08G11G27G30                   0.000271759
  21112462.136 6  -1441593.578 6  -1056996.62949  21112463.73349
  21296480.128 6  -1266146.801 6   -938172.62949  21296477.74149
  20964753.972 6   -210721.395 6   -155099.85549  20964753.21849
  19994107.730 6   -789751.332 6   -582622.50848  19994104.24548
  22894882.605 1                     46248.95347  22894881.67147
  23706476.714 2  -1474013.387 2  -1094844.84047  23706477.22647
 20  5 16  3 45 57.9990000  0  6G01G07G08G11G27G30                   0.000270227
  21111471.558 6  -1446800.621 6  -1061054.06349  21111472.72649
  21295605.019 6  -1270743.539 6   -941754.49249  21295602.43349
  20964612.159 6   -211467.320 6   -155681.09049  20964611.38649
  19993569.862 6   -792578.250 6   -584825.30548  19993566.19848
  22894944.183 1                     46502.50847  22894944.02247
  23705398.417 2  -1479681.660 2  -1099261.68047  23705398.62847
 20  5 16  3 45 58.9990000  0  6G01G07G08G11G27G30                   0.000268696
  21110480.581 6  -1452007.113 6  -1065111.06349  21110481.71849
  21294730.651 6  -1275339.730 6   -945335.94149  21294728.25349
  20964470.019 6   -212212.977 6   -156262.12149  20964469.58949
  19993032.026 6   -795404.531 6   -587027.60548  19993028.62048
  22895006.284 1                     46756.02047  22895005.85847
  23704319.886 3  -1485349.637 3  -1103678.27348  23704320.05048
 20  5 16  3 45 59.9990000  0  6G01G07G08G11G27G30                   0.000267166
  21109489.964 6  -1457213.141 6  -1069167.71149  21109491.62449
  21293855.940 6  -1279935.438 6   -948917.02049  21293853.79249
  20964328.456 6   -212958.445 6   -156843.00049  20964327.76149
  19992494.440 6   -798230.223 6   -589229.44148  19992490.75348
  22895069.370 1                     47009.59847  22895068.55447
  23703240.628 2  -1491017.379 2  -1108094.68847  23703241.59747
 20  5 16  3 46  0.9990000  0  6G01G07G08G11G27G30                   0.000265635
  21108499.378 6  -1462418.664 6  -1073223.96149  21108501.17149
  21292981.222 6  -1284530.625 6   -952497.68449  21292979.28849
  20964186.519 6   -213703.723 6   -157423.73449  20964185.89749
  19991956.815 6   -801055.328 6   -591430.81348  19991953.53448
  22895130.097 1      4714.609 1     47263.12147  22895129.96847
  23702162.347 2  -1496684.898 2  -1112510.93447  23702162.92947
 20  5 16  3 46  1.9990000  0  6G01G07G08G11G27G30                   0.000264105
  21107508.753 6  -1467623.703 6  -1077279.84449  21107510.01149
  21292107.237 6  -1289125.281 6   -956077.93849  21292104.94049
  20964044.745 6   -214448.789 6   -158004.30949  20964044.37449
  19991418.769 6   -803879.820 6   -593631.72348  19991415.39748
  22895191.269 1      5039.957 1     47516.62547  22895191.80447
  23701084.065 2  -1502352.164 2  -1116926.99247  23701084.80047
 20  5 16  3 46  2.9990000  0  6G01G07G08G11G27G30                   0.000262573
  21106518.659 6  -1472828.219 6  -1081335.30949  21106520.26549
  21291233.355 6  -1293719.395 6   -959657.76649  21291230.75749
  20963903.065 6   -215193.641 6   -158584.71149  20963902.76549
  19990881.901 6   -806703.691 6   -595832.14148  19990878.87048
  22895253.097 1      5365.398 1     47770.20747  22895254.01947
  23700006.011 2  -1508019.164 2  -1121342.83247  23700006.15547
 20  5 16  3 46  3.9990000  0  6G01G07G08G11G27G30                   0.000261042
  21105528.612 6  -1478032.184 6  -1085390.34049  21105529.68349
  21290358.753 6  -1298312.973 6   -963237.17649  21290356.54649
  20963761.472 6   -215938.266 6   -159164.93449  20963760.86249
  19990344.433 6   -809526.938 6   -598032.07448  19990341.28048
  22895315.542 1      5690.855 1     48023.80547  22895315.95647
  23698927.839 2  -1513685.809 2  -1125758.39847  23698927.76947
 20  5 16  3 46  4.9990000  0  6G01G07G08G11G27G30                   0.000259512
  21104537.940 6  -1483235.695 6  -1089445.02349  21104539.49549
  21289484.925 6  -1302906.027 6   -966816.19149  21289482.77249
  20963619.948 6   -216682.676 6   -159744.99649  20963619.12049
  19989807.620 6   -812349.570 6   -600231.53148  19989804.42548
  22895377.003 1      6016.297 1     48277.39147  22895377.67947
  23697849.042 2  -1519352.324 2  -1130173.86347  23697849.10547
 20  5 16  3 46  5.9990000  0  6G01G07G08G11G27G30                   0.000257980
  21103548.097 6  -1488438.730 6  -1093499.33249  21103549.26549
  21288610.815 6  -1307498.605 6   -970394.82049  21288608.63249
  20963477.925 6   -217426.922 6   -160324.92649  20963477.93749
  19989270.276 6   -815171.656 6   -602430.55548  19989267.33548
  22895439.987 1      6341.734 1     48531.00047  22895439.85147
  23696771.112 2  -1525018.570 2  -1134589.12147  23696771.01147
 20  5 16  3 46  6.9990000  0  6G01G07G08G11G27G30                   0.000256449
  21102557.644 6  -1493641.285 6  -1097553.27049  21102559.38249
  21287736.886 6  -1312090.691 6   -973973.07849  21287734.70649
  20963336.362 6   -218171.016 6   -160904.73849  20963336.33949
  19988733.730 6   -817993.164 6   -604629.13348  19988730.51548
  22895501.480 1      6667.172 1     48784.58247  22895501.69047
  23695692.714 2  -1530684.602 2  -1139004.20347  23695692.64047
 20  5 16  3 46  7.9990000  0  6G01G07G08G11G27G30                   0.000254919
  21101568.378 6  -1498843.336 6  -1101606.81649  21101569.44449
  21286863.198 6  -1316682.266 6   -977550.92249  21286861.02649
  20963194.690 6   -218914.875 6   -161484.36749  20963194.57749
  19988196.464 6   -820814.059 6   -606827.23448  19988193.34748
  22895563.300 1      6992.613 1     49038.18447  22895564.04247
  23694614.034 2  -1536350.355 2  -1143419.07447  23694614.93347
 20  5 16  3 46  8.9990000  0  6G01G07G08G11G27G30                   0.000253387
  21100578.206 6  -1504044.883 6  -1105659.96149  21100579.82749
  21285989.558 6  -1321273.301 6   -981128.34849  21285986.96049
  20963053.620 6   -219658.527 6   -162063.84449  20963053.23049
  19987659.894 6   -823634.328 6   -609024.84448  19987656.83548
  22895624.511 1      7318.137 1     49291.85247  22895626.97247
  23693536.089 2  -1542015.871 2  -1147833.75847  23693536.26947
 20  5 16  3 46  9.9990000  0  6G01G07G08G11G27G30                   0.000251858
  21099588.722 7  -1509245.934 7  -1109712.73049  21099589.95249
  21285116.190 6  -1325863.816 6   -984705.37149  21285113.77249
  20962912.183 6   -220401.977 6   -162643.16049  20962912.14449
  19987123.526 6   -826454.008 6   -611222.00048  19987120.24548
  22895686.948 1      7643.566 1     49545.41047  22895687.83947
  23692457.839 2  -1547681.180 2  -1152248.28547  23692458.07347
 20  5 16  3 46 10.9990000  0  6G01G07G08G11G27G30                   0.000250326
  21098598.315 7  -1514446.488 7  -1113765.11349  21098600.23749
  21284242.659 6  -1330453.801 6   -988281.98449  21284240.86649
  20962770.558 6   -221145.219 6   -163222.30149  20962770.60149
  19986586.995 6   -829273.078 6   -613418.67648  19986583.69848
  22895749.269 1      7969.191 1     49799.12947  22895750.09347
  23691380.894 3  -1553346.164 3  -1156662.56347  23691379.97247
 20  5 16  3 46 11.9990000  0  6G01G07G08G11G27G30                   0.000248796
  21097609.487 6  -1519646.492 6  -1117817.07449  21097610.65549
  21283369.026 6  -1335043.266 6   -991858.19149  21283366.91349
  20962629.440 6   -221888.230 6   -163801.27349  20962629.33549
  19986050.698 6   -832091.527 6   -615614.87148  19986047.43748
  22895810.519 1      8294.629 1     50052.71147  22895811.66347
  23690302.987 2  -1559010.926 2  -1161076.65647  23690302.12047
 20  5 16  3 46 12.9990000  0  6G01G07G08G11G27G30                   0.000247265
  21096619.690 6  -1524845.996 6  -1121868.62949  21096621.05049
  21282496.034 6  -1339632.188 6   -995433.97749  21282493.72249
  20962487.776 6   -222631.043 6   -164380.09049  20962488.04249
  19985514.362 6   -834909.371 6   -617810.59448  19985511.45248
  22895872.878 1      8620.211 1     50306.40247  22895873.56247
  23689224.300 2  -1564675.438 2  -1165490.55147  23689224.09747
 20  5 16  3 46 13.9990000  0  6G01G07G08G11G27G30                   0.000245733
  21095630.761 6  -1530044.992 6  -1125919.79749  21095631.90949
  21281622.698 6  -1344220.578 6   -999009.34849  21281620.77649
  20962346.581 6   -223373.598 6   -164958.70349  20962347.08149
  19984978.245 6   -837726.586 6   -620005.82848  19984975.22248
  22895934.870 1      8945.754 1     50560.06647  22895935.33547
  23688146.276 2  -1570339.668 2  -1169904.22747  23688146.47247
 20  5 16  3 46 14.9990000  0  6G01G07G08G11G27G30                   0.000244204
  21094640.980 6  -1535243.469 6  -1129970.55149  21094642.63649
  21280750.151 6  -1348808.445 6  -1002584.30949  21280747.64049
  20962205.362 6   -224115.984 6   -165537.19149  20962205.97249
  19984442.339 6   -840543.164 6   -622200.56648  19984439.06948
  22895996.300 1      9271.391 1     50813.82447  22895997.92147
  23687068.487 2  -1576003.586 2  -1174317.67647  23687068.62447
 20  5 16  3 46 15.9990000  0  6G01G07G08G11G27G30                   0.000242674
  21093651.855 7  -1540441.457 7  -1134020.93449  21093653.73049
  21279877.003 6  -1353395.781 6  -1006158.85549  21279874.73349
  20962064.323 6   -224858.160 6   -166115.51249  20962064.61249
  19983906.300 6   -843359.180 6   -624394.86348  19983903.38648
  22896058.698 1      9596.945 1     51067.51647  22896059.45247
  23685991.480 2  -1581667.328 2  -1178730.98047  23685990.58547
 20  5 16  3 46 16.9990000  0  6G01G07G08G11G27G30                   0.000241142
  21092662.925 6  -1545638.965 6  -1138070.93849  21092664.54649
  21279004.362 6  -1357982.613 6  -1009733.00849  21279002.12849
  20961922.823 6   -225600.129 6   -166693.66449  20961923.28849
  19983370.511 6   -846174.598 6   -626588.69148  19983367.83948
  22896120.355 1      9922.609 1     51321.28147  22896122.01947
  23684913.019 2  -1587330.793 2  -1183144.07047  23684913.10847
 20  5 16  3 46 17.9990000  0  6G01G07G08G11G27G30                   0.000239611
  21091674.370 6  -1550835.918 6  -1142120.51249  21091675.57749
  21278131.448 6  -1362568.902 6  -1013306.73849  21278128.98349
  20961781.659 6   -226341.867 6   -167271.64549  20961782.10549
  19982835.019 6   -848989.387 6   -628782.03148  19982832.37448
  22896183.323 2     10248.305 2     51575.04747  22896182.81947
  23683834.855 2  -1592993.941 2  -1187556.91047  23683835.73047
 20  5 16  3 46 18.9990000  0  6G01G07G08G11G27G30                   0.000238081
  21090685.370 6  -1556032.379 6  -1146169.69549  21090686.58149
  21277258.456 6  -1367154.645 6  -1016880.03949  21277256.34749
  20961640.542 6   -227083.391 6   -167849.45749  20961640.87449
  19982299.620 6   -851803.559 6   -630974.89548  19982296.40148
  22896245.487 1     10574.027 1     51828.87547  22896245.83147
  23682757.503 2  -1598656.891 2  -1191969.59847  23682757.52247
 20  5 16  3 46 19.9990000  0  6G01G07G08G11G27G30                   0.000236551
  21089696.487 6  -1561228.320 6  -1150218.48449  21089697.82349
  21276386.565 6  -1371739.875 6  -1020452.94949  21276383.92549
  20961499.878 6   -227824.738 6   -168427.12949  20961499.88249
  19981764.519 6   -854617.117 6   -633167.28148  19981761.19448
  22896306.980 2     10899.691 2     52082.62547  22896307.29647
  23681679.847 1  -1604319.625 1  -1196382.10947  23681680.19047
 20  5 16  3 46 20.9990000  0  6G01G07G08G11G27G30                   0.000235020
  21088707.901 6  -1566423.785 6  -1154266.89549  21088708.94449
  21275514.175 6  -1376324.594 6  -1024025.45749  21275511.27649
  20961358.628 6   -228565.910 6   -169004.67249  20961359.18349
  19981229.011 6   -857430.090 6   -635359.21548  19981225.92548
  22896369.167 2     11225.379 2     52336.41847  22896369.23347
  23680602.565 1  -1609982.051 1  -1200794.39147  23680602.67147
 20  5 16  3 46 21.9990000  0  6G01G07G08G11G27G30                   0.000233490
  21087719.308 6  -1571618.785 6  -1158314.94549  21087720.65149
  21274641.503 6  -1380908.805 6  -1027597.57449  21274638.81249
  20961217.417 6   -229306.895 6   -169582.05549  20961218.13249
  19980693.933 6   -860242.492 6   -637550.69148  19980690.70648
  22896431.347 1     11551.102 1     52590.23047  22896430.90947
  23679524.784 1  -1615644.285 1  -1205206.52347  23679525.09747
 20  5 16  3 46 22.9990000  0  6G01G07G08G11G27G30                   0.000231958
  21086730.948 7  -1576813.238 7  -1162362.57449  21086731.86249
  21273769.628 6  -1385492.480 6  -1031169.27349  21273766.95249
  20961076.808 6   -230047.684 6   -170159.29749  20961076.95249
  19980158.581 6   -863054.281 6   -639741.69148  19980155.97248
  22896493.401 2     11876.801 2     52844.01247  22896493.15947
  23678447.167 1  -1621306.207 1  -1209618.40247  23678447.45647
 20  5 16  3 46 23.9990000  0  6G01G07G08G11G27G30                   0.000230429
  21085742.690 6  -1582007.176 6  -1166409.79749  21085743.92149
  21272896.894 6  -1390075.633 6  -1034740.55549  21272894.68749
  20960935.714 6   -230788.191 6   -170736.32049  20960936.17949
  19979623.526 6   -865865.418 6   -641932.18848  19979620.74548
  22896554.315 2     12202.629 2     53097.89547  22896555.17147
  23677370.417 1  -1626967.906 1  -1214030.11747  23677370.53447
 20  5 16  3 46 24.9990000  0  6G01G07G08G11G27G30                   0.000228899
  21084754.026 6  -1587200.605 6  -1170456.62949  21084755.19449
  21272025.089 6  -1394658.227 6  -1038311.41449  21272022.96449
  20960794.784 6   -231528.484 6   -171313.17249  20960795.52649
  19979089.206 6   -868675.984 6   -644122.23848  19979086.19048
  22896617.105 2     12528.375 2     53351.71147  22896616.97247
  23676293.339 1  -1632629.348 1  -1218441.63347  23676293.16747
 20  5 16  3 46 25.9990000  0  6G01G07G08G11G27G30                   0.000227367
  21083766.339 6  -1592393.531 6  -1174503.06349  21083767.55049
  21271153.323 6  -1399240.316 6  -1041881.87149  21271150.78049
  20960653.948 6   -232268.582 6   -171889.87149  20960654.51949
  19978553.894 6   -871485.906 6   -646311.78948  19978551.30848
  22896679.019 2     12854.176 2     53605.58247  22896679.02647
  23675214.909 2  -1638290.496 2  -1222852.92247  23675215.49547
 20  5 16  3 46 26.9990000  0  6G01G07G08G11G27G30                   0.000225838
  21082778.269 6  -1597585.914 6  -1178549.08249  21082779.74149
  21270280.878 6  -1403821.848 6  -1045451.89149  21270278.81549
  20960513.269 6   -233008.434 6   -172466.37949  20960513.52649
  19978019.487 6   -874295.207 6   -648500.85948  19978016.66348
  22896741.159 2     13180.078 2     53859.54347  22896742.05847
  23674138.605 2  -1643951.313 2  -1227263.94547  23674138.64047
 20  5 16  3 46 27.9990000  0  6G01G07G08G11G27G30                   0.000224308
  21081789.870 6  -1602777.805 6  -1182594.70349  21081791.48049
  21269409.472 6  -1408402.840 6  -1049021.49249  21269406.89749
  20960372.456 6   -233748.063 6   -173042.71149  20960373.23349
  19977484.901 6   -877103.906 6   -650689.45348  19977482.15148
  22896801.230 2     13505.902 2     54113.42647  22896802.88647
  23673061.636 2  -1649611.941 2  -1231674.82847  23673061.30847
 20  5 16  3 46 28.9990000  0  6G01G07G08G11G27G30                   0.000222776
  21080801.972 7  -1607969.223 7  -1186639.96949  21080803.39749
  21268538.151 6  -1412983.363 6  -1052590.73049  21268535.92949
  20960231.175 6   -234487.551 6   -173618.94149  20960232.13249
  19976950.347 6   -879912.031 6   -652877.59848  19976947.87448
  22896864.550 2     13831.727 2     54367.31347  22896865.30047
  23671984.323 1  -1655272.375 1  -1236085.55947  23671983.72647
 20  5 16  3 46 29.9990000  0  6G01G07G08G11G27G30                   0.000221247
  21079814.526 7  -1613160.117 7  -1190684.82449  21079815.80049
  21267666.284 6  -1417563.355 6  -1056159.56349  21267663.92549
  20960091.011 6   -235226.809 6   -174194.98449  20960091.76949
  19976416.472 6   -882719.531 6   -655065.26248  19976413.52248
  22896926.261 2     14157.660 2     54621.27347  22896927.51147
  23670906.573 1  -1660932.539 1  -1240496.08247  23670906.79647
 20  5 16  3 46 30.9990000  0  6G01G07G08G11G27G30                   0.000219717
  21078826.769 7  -1618350.457 7  -1194729.24249  21078827.75349
  21266794.948 6  -1422142.770 6  -1059727.93849  21266792.56949
  20959950.253 6   -235965.816 6   -174770.83649  20959951.25749
  19975882.050 6   -885526.402 6   -657252.44148  19975879.59348
  22896989.683 2     14483.551 2     54875.23047  22896989.53047
  23669829.214 1  -1666592.313 1  -1244906.28547  23669830.03447
 20  5 16  3 46 31.9990000  0  6G01G07G08G11G27G30                   0.000218187
  21077839.058 7  -1623540.289 7  -1198773.27049  21077840.26949
  21265923.776 6  -1426721.656 6  -1063295.89849  21265921.22249
  20959810.222 6   -236704.613 6   -175346.52349  20959810.61249
  19975347.745 6   -888332.652 6   -659439.12948  19975345.58948
  22897051.776 2     14809.473 2     55129.19947  22897051.40147
  23668751.730 1  -1672251.965 1  -1249316.40247  23668752.57347
 20  5 16  3 46 32.9990000  0  6G01G07G08G11G27G30                   0.000216656
  21076851.261 6  -1628729.586 6  -1202816.87949  21076853.05049
  21265052.667 6  -1431299.980 6  -1066863.42249  21265049.88649
  20959669.386 6   -237443.168 6   -175922.01249  20959670.71449
  19974814.198 6   -891138.266 6   -661625.31648  19974811.53448
  22897112.40112                     55383.28957  22897112.67157
  23667675.097 1  -1677911.199 1  -1253726.19947  23667676.05047
 20  5 16  3 46 33.9990000  0  6G01G07G08G11G27G30                   0.000215126
  21075864.472 7  -1633918.344 7  -1206860.06649  21075865.47649
  21264181.675 7  -1435877.754 7  -1070430.52049  21264179.36649
  20959528.620 6   -238181.500 6   -176497.33649  20959529.69849
  19974280.425 6   -893943.246 6   -663811.01248  19974278.21448
  22897175.956 2                     55637.33647  22897175.38247
  23666598.589 1  -1683570.254 1  -1258135.84447  23666599.12447
 20  5 16  3 46 34.9990000  0  6G01G07G08G11G27G30                   0.000213596
  21074876.815 7  -1639106.625 7  -1210902.89149  21074878.45649
  21263310.534 6  -1440455.016 6  -1073997.21949  21263307.87449
  20959388.401 6   -238919.641 6   -177072.51249  20959388.78049
  19973746.839 6   -896747.637 6   -665996.25448  19973744.18748
  22897237.355 3                     55891.38747  22897237.33147
  23665522.003 1  -1689229.016 1  -1262545.26247  23665522.24147
 20  5 16  3 46 35.9990000  0  6G01G07G08G11G27G30                   0.000212065
  21073889.925 7  -1644294.371 7  -1214945.27749  21073890.71049
  21262439.448 7  -1445031.715 7  -1077563.47349  21262437.28049
  20959247.987 6   -239657.547 6   -177647.50449  20959247.96849
  19973213.636 6   -899551.367 6   -668180.98048  19973210.58148
  22897297.776 1                     56145.55547  22897299.38247
  23664445.847 1  -1694887.496 1  -1266954.47747  23664445.30047
 20  5 16  3 46 36.9990000  0  6G01G07G08G11G27G30                   0.000210535
  21072902.362 6  -1649481.586 6  -1218987.25849  21072903.45649
  21261568.253 6  -1449607.910 6  -1081129.34449  21261566.57349
  20959107.347 6   -240395.230 6   -178222.32849  20959108.36249
  19972679.987 6   -902354.535 6   -670365.26648  19972677.11248
  22897361.003 2     16439.805 2     56399.56646  22897360.60846
  23663369.464 1  -1700545.676 1  -1271363.44947  23663368.91747
 20  5 16  3 46 37.9990000  0  6G01G07G08G11G27G30                   0.000209005
  21071915.558 6  -1654668.258 6  -1223028.82849  21071916.91349
  21260697.886 6  -1454183.500 6  -1084694.73849  21260695.71049
  20958967.511 6   -241132.656 6   -178796.94949  20958967.99549
  19972146.948 6   -905157.020 6   -672549.02048  19972144.13248
  22897422.370 1     16766.035 1     56653.77046  22897423.44446
  23662291.706 1  -1706203.563 1  -1275772.19547  23662292.24547
 20  5 16  3 46 38.9990000  0  6G01G07G08G11G27G30                   0.000207476
  21070928.659 6  -1659854.426 6  -1227069.98849  21070930.33949
  21259827.167 6  -1458758.586 6  -1088259.74249  21259824.97649
  20958826.597 6   -241869.867 6   -179371.39849  20958827.23049
  19971613.558 6   -907958.895 6   -674732.29748  19971610.83148
  22897484.105 2     17092.273 2     56907.97746  22897484.41346
  23661214.151 1  -1711861.219 1  -1280180.75847  23661215.42547
 20  5 16  3 46 39.9990000  0  6G01G07G08G11G27G30                   0.000205946
  21069941.933 6  -1665040.078 6  -1231110.76249  21069943.51149
  21258956.612 6  -1463333.105 6  -1091824.30549  21258954.69849
  20958686.401 6   -242606.891 6   -179945.69549  20958687.08549
  19971080.206 6   -910760.137 6   -676915.08248  19971077.78048
  22897546.019 1     17418.492 1     57162.15646  22897547.18746
  23660138.964 2  -1717518.613 2  -1284589.10947  23660139.19847
 20  5 16  3 46 40.9990000  0  6G01G07G08G11G27G30                   0.000204416
  21068955.417 6  -1670225.191 6  -1235151.10949  21068956.76149
  21258086.503 6  -1467907.102 6  -1095388.45349  21258084.60149
  20958546.526 6   -243343.656 6   -180519.80149  20958546.73049
  19970547.933 6   -913560.750 6   -679097.37948  19970544.92148
  22897607.37811                     57416.36356  22897608.83556
  23659062.448 1  -1723175.730 1  -1288997.25447  23659062.68747
 20  5 16  3 46 41.9990000  0  6G01G07G08G11G27G30                   0.000202887
  21067968.362 6  -1675409.785 6  -1239191.05149  21067970.07349
  21257215.964 6  -1472480.547 6  -1098952.17649  21257214.22649
  20958406.597 6   -244080.219 6   -181093.74649  20958406.85849
  19970014.909 6   -916360.762 6   -681279.20748  19970011.77648
  22897668.675 1     18071.016 1     57670.62147  22897670.80047
  23657987.042 2  -1728832.535 2  -1293405.15247  23657986.54647
 20  5 16  3 46 42.9990000  0  6G01G07G08G11G27G30                   0.000201357
  21066982.120 6  -1680593.828 6  -1243230.56649  21066984.28849
  21256345.628 6  -1477053.449 6  -1102515.46949  21256343.68749
  20958266.128 6   -244816.547 6   -181667.50449  20958266.89049
  19969482.065 6   -919160.145 6   -683460.54748  19969479.37848
  22897732.144 1     18397.379 1     57924.93846  22897732.48346
  23656909.073 1  -1734489.078 1  -1297812.84447  23656909.43747
 20  5 16  3 46 43.9990000  0  6G01G07G08G11G27G30                   0.000199827
  21065995.300 6  -1685777.313 6  -1247269.64149  21065997.59349
  21255475.878 6  -1481625.777 6  -1106078.32049  21255473.81249
  20958125.933 6   -245552.637 6   -182241.07849  20958126.35149
  19968949.948 6   -921958.855 6   -685641.35548  19968946.75348
  22897793.917 1     18723.801 1     58179.29747  22897795.01947
  23655833.362 1  -1740145.309 1  -1302220.29747  23655833.64447
 20  5 16  3 46 44.9990000  0  6G01G07G08G11G27G30                   0.000198298
  21065009.151 6  -1690960.313 6  -1251308.34449  21065011.19049
  21254605.940 7  -1486197.605 7  -1109640.78549  21254603.94849
  20957986.144 6   -246288.492 6   -182814.47749  20957986.33949
  19968416.940 6   -924756.996 6   -687821.72348  19968414.23348
  22897855.69011                     58433.66057  22897857.23757
  23654756.628 1  -1745801.313 1  -1306627.57847  23654757.47247
 20  5 16  3 46 45.9990000  0  6G01G07G08G11G27G30                   0.000196768
  21064022.940 6  -1696142.836 6  -1255346.66449  21064024.37049
  21253735.995 6  -1490768.906 6  -1113202.84049  21253734.03449
  20957846.167 6   -247024.176 6   -183387.74249  20957846.44449
  19967884.698 6   -927554.547 6   -690001.63748  19967882.08148
  22897917.784 1     19376.516 1     58687.91447  22897918.37847
  23653679.690 1  -1751457.082 1  -1311034.66847  23653681.43747
 20  5 16  3 46 46.9990000  0  6G01G07G08G11G27G30                   0.000195238
  21063037.042 6  -1701324.828 6  -1259384.58649  21063038.37849
  21252865.722 6  -1495339.680 6  -1116764.48449  21252863.85149
  20957706.042 6   -247759.645 6   -183960.83649  20957706.38249
  19967352.269 6   -930351.465 6   -692181.05148  19967349.35148
  22897980.417 1     19703.098 1     58942.39146  22897980.96446
  23652604.105 1  -1757112.656 1  -1315441.61347  23652605.29647
 20  5 16  3 46 47.9990000  0  6G01G07G08G11G27G30                   0.000193707
  21062050.886 6  -1706506.332 6  -1263422.11749  21062052.55449
  21251995.940 6  -1499909.902 6  -1120325.69549  21251994.52649
  20957566.347 6   -248494.895 6   -184533.75849  20957566.60849
  19966820.386 6   -933147.781 6   -694359.99648  19966817.61648
  22898042.12811     20029.46111     59196.69556  22898042.74156
  23651528.565 1  -1762767.785 1  -1319848.20747  23651528.82747
 20  5 16  3 46 48.9990000  0  6G01G07G08G11G27G30                   0.000192179
  21061064.933 6  -1711687.281 6  -1267459.22349  21061066.83949
  21251126.894 6  -1504479.605 6  -1123886.50049  21251124.95249
  20957426.339 6   -249229.910 6   -185106.50049  20957426.63649
  19966288.784 6   -935943.457 6   -696538.44148  19966285.97248
  22898104.495 1     20355.914 1     59451.07447  22898105.19847
  23650451.620 2  -1768422.797 2  -1324254.70747  23650452.80847
 20  5 16  3 46 49.9990000  0  6G01G07G08G11G27G30                   0.000190647
  21060078.940 6  -1716867.695 6  -1271495.90649  21060081.12049
  21250257.105 6  -1509048.703 6  -1127446.83249  21250255.15549
  20957286.409 6   -249964.668 6   -185679.03549  20957286.30049
  19965756.440 6   -938738.504 6   -698716.40248  19965753.46848
  22898166.753 1     20682.480 1     59705.54347  22898167.32347
  23649375.058 1  -1774077.426 1  -1328660.89847  23649376.56547
 20  5 16  3 46 50.9990000  0  6G01G07G08G11G27G30                   0.000189119
  21059093.862 6  -1722047.609 6  -1275532.20749  21059095.56549
  21249387.878 6  -1513617.309 6  -1131006.78149  21249385.89449
  20957146.636 6   -250699.289 6   -186251.47349  20957147.01949
  19965224.683 6   -941532.941 6   -700893.88348  19965222.07348
  22898229.276 1     21009.059 1     59960.02047  22898229.66747
  23648300.198 1  -1779731.824 1  -1333066.92647  23648301.13247
 20  5 16  3 46 51.9990000  0  6G01G07G08G11G27G30                   0.000187590
  21058107.753 6  -1727227.000 6  -1279568.09449  21058109.47249
  21248518.761 6  -1518185.379 6  -1134566.31349  21248516.59749
  20957007.050 6   -251433.699 6   -186823.73849  20957007.00749
  19964693.440 6   -944326.770 6   -703070.89848  19964690.27248
  22898290.940 1     21335.551 1     60214.43447  22898291.71847
  23647224.292 1  -1785386.000 1  -1337472.77347  23647224.69447
 20  5 16  3 46 52.9990000  0  6G01G07G08G11G27G30                   0.000186060
  21057122.136 6  -1732405.891 6  -1283603.58249  21057124.51149
  21247649.964 6  -1522752.891 6  -1138125.41849  21247647.53049
  20956866.862 6   -252167.871 6   -187395.81649  20956866.51549
  19964161.792 6   -947119.980 6   -705247.43048  19964158.69048
  22898353.612 1     21662.180 1     60468.96147  22898353.53847
  23646147.526 1  -1791039.836 1  -1341878.36347  23646149.10547
 20  5 16  3 46 53.9990000  0  6G01G07G08G11G27G30                   0.000184528
  21056137.112 6  -1737584.203 6  -1287638.62549  21056138.49149
  21246780.605 6  -1527319.863 6  -1141684.09849  21246778.59749
  20956727.526 6   -252901.805 6   -187967.71149  20956727.69449
  19963630.331 6   -949912.578 6   -707423.47748  19963627.27648
  22898415.776 1     21988.832 1     60723.49647  22898416.48047
  23645071.894 1  -1796693.496 1  -1346283.82047  23645073.48747
 20  5 16  3 46 54.9990000  0  6G01G07G08G11G27G30                   0.000183001
  21055151.745 6  -1742762.023 6  -1291673.28949  21055153.70249
  21245911.269 6  -1531886.289 6  -1145242.35549  21245909.71849
  20956588.034 6   -253635.527 6   -188539.44549  20956588.06249
  19963098.753 6   -952704.539 6   -709599.03148  19963096.05048
  22898478.456 1     22315.477 1     60978.01247  22898478.24947
  23643995.519 1  -1802346.785 1  -1350688.98047  23643996.83947
 20  5 16  3 46 55.9990000  0  6G01G07G08G11G27G30                   0.000181471
  21054166.456 6  -1747939.285 6  -1295707.52049  21054167.99949
  21245042.839 6  -1536452.148 6  -1148800.17249  21245040.53449
  20956448.573 6   -254368.980 6   -189110.96149  20956448.67549
  19962567.612 6   -955495.859 6   -711774.08248  19962564.99148
  22898540.245 1     22642.234 1     61232.61746  22898539.91346
  23642920.097 1  -1807999.781 1  -1355093.92247  23642922.08947
 20  5 16  3 46 56.9990000  0  6G01G07G08G11G27G30                   0.000179941
  21053181.339 6  -1753116.004 6  -1299741.32449  21053182.98349
  21244174.026 6  -1541017.465 6  -1152357.56349  21244172.05449
  20956308.792 6   -255102.199 6   -189682.30549  20956309.19049
  19962036.980 6   -958286.555 6   -713948.64548  19962033.75748
  22898601.667 1     22968.992 1     61487.23847  22898601.60147
  23641843.722 1  -1813652.465 1  -1359498.62147  23641846.24947
 20  5 16  3 46 57.9990000  0  6G01G07G08G11G27G30                   0.000178411
  21052196.190 6  -1758292.172 6  -1303774.69949  21052197.80049
  21243305.128 6  -1545582.180 6  -1155914.48449  21243303.13649
  20956169.378 6   -255835.184 6   -190253.46549  20956169.85549
  19961505.808 6   -961076.559 6   -716122.68048  19961502.92148
  22898664.534 1     23295.852 1     61741.93446  22898664.33146
  23640768.987 1  -1819304.934 1  -1363903.15247  23640771.01147
 20  5 16  3 46 58.9990000  0  6G01G07G08G11G27G30                   0.000176882
  21051210.925 6  -1763467.840 6  -1307807.68849  21051213.02249
  21242436.909 6  -1550146.387 6  -1159471.00849  21242434.74149
  20956030.034 6   -256567.980 6   -190824.47349  20956029.98749
  19960975.136 6   -963866.023 6   -718296.28548  19960972.19048
  22898727.839 1     23622.617 1     61996.54747  22898726.54647
  23639692.987 1  -1824957.207 1  -1368307.51247  23639695.01147
 20  5 16  3 46 59.9990000  0  6G01G07G08G11G27G30                   0.000175354
  21050226.261 6  -1768642.984 6  -1311840.27049  21050228.31249
  21241568.183 6  -1554710.035 6  -1163027.09849  21241566.24949
  20955890.667 6   -257300.566 6   -191395.32449  20955890.57349
  19960444.292 6   -966654.820 6   -720469.37548  19960441.33948
  22898789.058 2     23949.484 2     62251.23847  22898788.65547
  23638617.409 1  -1830609.063 1  -1372711.53947  23638619.60847
 20  5 16  3 47  0.9990000  0  6G01G07G08G11G27G30                   0.000173824
  21049241.925 6  -1773817.625 6  -1315872.45349  21049243.94849
  21240699.925 6  -1559273.176 6  -1166582.78549  21240698.14749
  20955751.386 6   -258032.934 6   -191966.00449  20955751.07349
  19959913.644 6   -969443.059 6   -722642.03148  19959910.73348
  22898852.206 1     24276.355 1     62505.93447  22898850.89047
  23637541.425 1  -1836260.695 1  -1377115.39847  23637543.88247
 20  5 16  3 47  1.9990000  0  6G01G07G08G11G27G30                   0.000172295
  21048257.105 6  -1778991.750 6  -1319904.24649  21048259.14449
  21239831.901 6  -1563835.773 6  -1170138.05549  21239829.76149
  20955612.159 6   -258765.066 6   -192536.50449  20955612.16349
  19959382.925 6   -972230.656 6   -724814.18848  19959380.26948
  22898914.464 2     24603.297 2     62760.68447  22898913.54647
  23636465.276 1  -1841912.141 1  -1381519.09847  23636468.53047
 20  5 16  3 47  2.9990000  0  6G01G07G08G11G27G30                   0.000170767
  21047272.105 6  -1784165.324 6  -1323935.59849  21047274.74949
  21238963.933 7  -1568397.805 7  -1173692.88749  21238961.71449
  20955472.995 6   -259496.980 6   -193106.82449  20955472.67549
  19958852.972 6   -975017.594 6   -726985.82448  19958849.83948
  22898976.480 2     24930.254 2     63015.46147  22898975.19447
  23635390.355 1  -1847563.117 1  -1385922.46947  23635392.64747
 20  5 16  3 47  3.9990000  0  6G01G07G08G11G27G30                   0.000169237
  21046288.315 6  -1789338.371 6  -1327966.53949  21046290.01149
  21238095.839 7  -1572959.297 7  -1177247.30149  21238093.48349
  20955333.534 6   -260228.684 6   -193676.98049  20955333.08949
  19958322.730 6   -977803.930 6   -729157.00048  19958320.22248
  22899038.612 2     25257.238 2     63270.26247  22899038.07347
  23634315.909 1  -1853213.977 1  -1390325.75847  23634317.92147
 20  5 16  3 47  4.9990000  0  6G01G07G08G11G27G30                   0.000167707
  21045303.948 6  -1794510.910 6  -1331997.09049  21045306.15549
  21237227.940 7  -1577520.258 7  -1180801.29749  21237225.41349
  20955194.058 6   -260960.184 6   -194246.98449  20955194.09749
  19957792.386 6   -980589.629 6   -731327.67648  19957789.47248
  22899101.058 2     25584.234 2     63525.07447  22899100.15947
  23633240.144 1  -1858864.496 1  -1394728.76647  23633242.41347
 20  5 16  3 47  5.9990000  0  6G01G07G08G11G27G30                   0.000166178
  21044319.597 6  -1799682.836 6  -1336027.15649  21044321.89449
  21236360.331 7  -1582080.605 7  -1184354.81349  21236358.09349
  20955054.659 6   -261691.438 6   -194816.78549  20955054.86649
  19957262.597 6   -983374.680 6   -733497.84448  19957259.74148
  22899163.167 2     25911.324 2     63779.94947  22899162.07747
  23632164.605 1  -1864514.691 1  -1399131.51247  23632167.35147
 20  5 16  3 47  6.9990000  0  6G01G07G08G11G27G30                   0.000164650
  21043335.323 6  -1804854.348 6  -1340056.91049  21043337.81549
  21235492.065 7  -1586640.469 7  -1187907.94949  21235490.15149
  20954916.011 6   -262422.492 6   -195386.43449  20954915.54249
  19956732.526 6   -986159.156 6   -735667.55948  19956729.71848
  22899226.112 2     26238.324 2     64034.74647  22899224.51547
  23631089.855 1  -1870164.668 1  -1403534.08247  23631092.21047
 20  5 16  3 47  7.9990000  0  6G01G07G08G11G27G30                   0.000163120
  21042351.183 6  -1810025.238 6  -1344086.18049  21042353.91749
  21234624.862 7  -1591199.750 7  -1191460.64149  21234623.05849
  20954776.659 6   -263153.320 6   -195955.92249  20954776.62849
  19956203.042 6   -988942.957 6   -737836.75048  19956199.97648
  22899288.308 2     26565.531 2     64289.70747  22899286.39447
  23630014.776 1  -1875814.414 1  -1407936.47347  23630017.12047
 20  5 16  3 47  8.9990000  0  6G01G07G08G11G27G30                   0.000161592
  21041367.417 6  -1815195.707 6  -1348115.11349  21041369.54249
  21233757.237 7  -1595758.531 7  -1195012.94149  21233755.00349
  20954637.909 6   -263883.965 6   -196525.25049  20954637.81249
  19955673.167 6   -991726.188 6   -740005.50448  19955670.49148
  22899350.190 3     26892.605 3     64544.56647  22899349.22247
  23628938.964 1  -1881463.836 1  -1412338.62147  23628941.73047
 20  5 16  3 47  9.9990000  0  6G01G07G08G11G27G30                   0.000160063
  21040383.987 6  -1820365.594 6  -1352143.60249  21040385.51149
  21232889.589 6  -1600316.777 6  -1198564.82049  21232887.71849
  20954498.972 6   -264614.379 6   -197094.41049  20954499.01949
  19955143.792 6   -994508.816 6   -742173.78948  19955141.12048
  22899412.151 2     27219.805 2     64799.53547  22899411.17547
  23627864.370 1  -1887113.023 1  -1416740.59447  23627867.19847
 20  5 16  3 47 10.9990000  0  6G01G07G08G11G27G30                   0.000158535
  21039399.933 6  -1825535.020 6  -1356171.72349  21039402.33549
  21232022.253 6  -1604874.488 6  -1202116.28549  21232020.34749
  20954359.769 6   -265344.559 6   -197663.38349  20954359.61249
  19954614.378 6   -997290.832 6   -744341.59448  19954611.33548
  22899475.183 3     27546.996 3     65054.49647  22899473.37047
  23626789.128 1  -1892761.984 1  -1421142.38347  23626791.84747
 20  5 16  3 47 11.9990000  0  6G01G07G08G11G27G30                   0.000157005
  21038416.651 6  -1830703.898 6  -1360199.41849  21038417.89049
  21231155.503 6  -1609431.668 6  -1205667.34049  21231153.61649
  20954221.050 6   -266074.516 6   -198232.17649  20954220.66749
  19954085.433 6  -1000072.195 6   -746508.89548  19954082.44048
  22899537.222 3     27874.160 3     65309.42647  22899535.45647
  23625713.776 1  -1898410.551 1  -1425543.86347  23625716.92947
 20  5 16  3 47 12.9990000  0  6G01G07G08G11G27G30                   0.000155478
  21037433.159 6  -1835872.250 6  -1364226.70749  21037434.85849
  21230287.847 6  -1613988.289 6  -1209217.94549  21230286.30849
  20954082.355 6   -266804.289 6   -198800.83649  20954082.08549
  19953556.097 6  -1002852.957 6   -748675.71948  19953552.88648
  22899599.737 3     28201.379 3     65564.39147  22899597.88647
  23624640.065 1  -1904058.961 1  -1429945.22347  23624642.21847
 20  5 16  3 47 13.9990000  0  6G01G07G08G11G27G30                   0.000153948
  21036449.855 6  -1841040.109 6  -1368253.60549  21036451.50349
  21229421.151 6  -1618544.391 6  -1212768.15649  21229419.12049
  20953943.589 6   -267533.895 6   -199369.35549  20953942.91749
  19953026.589 6  -1005633.133 6   -750842.08648  19953024.25748
  22899662.214 4     28528.504 4     65819.30547  22899660.11247
  23623564.745 1  -1909707.055 1  -1434346.32047  23623567.17147
 20  5 16  3 47 14.9990000  0  6G01G07G08G11G27G30                   0.000152418
  21035466.245 6  -1846207.457 6  -1372280.10949  21035468.31249
  21228554.245 6  -1623099.977 6  -1216317.96549  21228552.54649
  20953804.831 6   -268263.273 6   -199937.70349  20953804.56949
  19952498.159 6  -1008412.723 6   -753008.00048  19952495.42148
  22899725.089 4     28855.867 4     66074.37547  22899722.88647
  23622489.659 1  -1915354.969 1  -1438747.29347  23622492.40147
 20  5 16  3 47 15.9990000  0  6G01G07G08G11G27G30                   0.000150890
  21034483.269 6  -1851374.273 6  -1376306.19949  21034485.56249
  21227687.503 6  -1627654.996 6  -1219867.32849  21227685.58949
  20953665.870 6   -268992.441 6   -200505.89549  20953665.92549
  19951969.565 6  -1011191.664 6   -755173.41048  19951966.28448
  22899786.519 3     29183.102 3     66329.36747  22899784.61247
  23621413.776 1  -1921002.531 1  -1443147.98447  23621418.52647
 20  5 16  3 47 16.9990000  0  6G01G07G08G11G27G30                   0.000149363
  21033500.058 6  -1856540.555 6  -1380331.87549  21033502.15149
  21226820.862 6  -1632209.508 6  -1223416.29749  21226818.84349
  20953527.347 6   -269721.387 6   -201073.90649  20953526.91349
  19951440.503 6  -1013969.992 6   -757338.34048  19951437.50348
  22899849.128 4     29510.387 4     66584.39147  22899846.77247
  23620339.237 1  -1926649.875 1  -1447548.50447  23620343.12047
 20  5 16  3 47 17.9990000  0  6G01G07G08G11G27G30                   0.000147833
  21032517.050 6  -1861706.281 6  -1384357.11349  21032519.28449
  21225954.331 6  -1636763.383 6  -1226964.77349  21225952.12449
  20953388.425 6   -270450.070 6   -201641.70749  20953388.25349
  19950912.026 6  -1016747.668 6   -759502.76648  19950908.99148
  22899911.823 4     29837.758 4     66839.48447  22899909.29247
  23619266.198 1  -1932296.871 1  -1451948.76247  23619268.43347
 20  5 16  3 47 18.9990000  0  6G01G07G08G11G27G30                   0.000146303
  21031534.026 6  -1866871.496 6  -1388381.95749  21031536.32349
  21225087.972 7  -1641316.766 7  -1230512.85949  21225085.75749
  20953249.667 6   -271178.543 6   -202209.35549  20953249.53449
  19950383.589 6  -1019524.738 6   -761666.71148  19950380.57748
  22899974.050 4     30165.063 4     67094.53547  22899971.67547
  23618191.737 1  -1937943.535 1  -1456348.77347  23618194.21447
 20  5 16  3 47 19.9990000  0  6G01G07G08G11G27G30                   0.000144775
  21030551.206 6  -1872036.188 6  -1392406.39149  21030553.56249
  21224221.683 7  -1645869.586 7  -1234060.51649  21224219.03449
  20953111.081 6   -271906.773 6   -202776.80949  20953111.33949
  19949855.284 6  -1022301.160 6   -763830.16048  19949852.29648
  22900036.761 4     30492.500 4     67349.68847  22900034.23047
  23617117.620 1  -1943590.086 1  -1460748.68447  23617119.76947
 20  5 16  3 47 20.9990000  0  6G01G07G08G11G27G30                   0.000143246
  21029568.644 6  -1877200.359 6  -1396430.41449  21029570.73049
  21223355.292 7  -1650421.863 7  -1237607.75049  21223352.77649
  20952972.886 6   -272634.785 6   -203344.09049  20952972.10549
  19949327.034 6  -1025076.984 6   -765993.14548  19949323.98348
  22900098.847 4     30819.898 4     67604.80147  22900096.74147
  23616043.956 1  -1949236.297 1  -1465148.32847  23616045.43347
 20  5 16  3 47 21.9990000  0  6G01G07G08G11G27G30                   0.000141718
  21028586.206 6  -1882363.953 6  -1400453.99249  21028588.31949
  21222489.269 7  -1654973.582 7  -1241154.54349  21222486.89749
  20952834.058 7   -273362.586 7   -203911.20749  20952834.04249
  19948798.714 6  -1027852.164 6   -768155.61748  19948795.82748
  22900160.589 4     31147.387 4     67859.98847  22900158.81947
  23614969.105 1  -1954882.199 1  -1469547.71947  23614970.84347
 20  5 16  3 47 22.9990000  0  6G01G07G08G11G27G30                   0.000140190
  21027603.315 6  -1887527.043 6  -1404477.18049  21027605.36649
  21221622.878 7  -1659524.734 7  -1244700.89549  21221620.74949
  20952695.745 6   -274090.137 6   -204478.13749  20952695.69849
  19948270.511 6  -1030626.723 6   -770317.61349  19948267.95649
  22900223.269 4     31474.922 4     68115.19547  22900221.21047
  23613894.362 1  -1960527.754 1  -1473946.84047  23613896.39447
 20  5 16  3 47 23.9990000  0  6G01G07G08G11G27G30                   0.000138662
  21026621.292 6  -1892689.621 6  -1408499.96949  21026623.00349
  21220757.065 7  -1664075.398 7  -1248246.86749  21220754.84749
  20952557.253 6   -274817.496 6   -205044.90649  20952556.97649
  19947743.042 6  -1033400.672 6   -772479.13349  19947740.15149
  22900285.394 5     31802.406 5     68370.35947  22900283.38647
  23612820.433 1  -1966173.184 1  -1478345.87947  23612821.95247
 20  5 16  3 47 24.9990000  0  6G01G07G08G11G27G30                   0.000137133
  21025639.089 6  -1897851.684 6  -1412522.35249  21025640.80849
  21219891.159 7  -1668625.480 7  -1251792.39149  21219888.89749
  20952418.870 6   -275544.641 6   -205611.51649  20952418.71449
  19947215.347 6  -1036174.012 6   -774640.17249  19947212.22249
  22900347.784 4     32129.988 4     68625.62447  22900345.67947
  23611746.636 1  -1971818.250 1  -1482744.63747  23611747.96447
 20  5 16  3 47 25.9990000  0  6G01G07G08G11G27G30                   0.000135605
  21024656.894 6  -1903013.188 6  -1416544.30549  21024658.68749
  21219025.667 7  -1673175.008 7  -1255337.47749  21219023.12449
  20952280.862 6   -276271.547 6   -206177.93449  20952280.69449
  19946687.737 6  -1038946.707 6   -776800.71549  19946684.72249
  22900410.464 4     32457.634 4     68880.93447  22900408.47647
  23610672.112 1  -1977463.055 1  -1487143.18847  23610674.12847
 20  5 16  3 47 26.9990000  0  6G01G07G08G11G27G30                   0.000134077
  21023674.815 6  -1908174.156 6  -1420565.83249  21023676.42149
  21218159.831 7  -1677724.016 7  -1258882.15249  21218157.42549
  20952142.440 6   -276998.234 6   -206744.18049  20952142.32349
  19946160.159 6  -1041718.773 6   -778960.76649  19946157.28049
  22900472.237 4     32785.219 4     69136.19647  22900470.45247
  23609598.112 2  -1983107.590 2  -1491541.53147  23609599.84347
 20  5 16  3 47 27.9990000  0  6G01G07G08G11G27G30                   0.000132547
  21022692.417 6  -1913334.609 6  -1424586.96549  21022694.55849
  21217294.331 7  -1682272.418 7  -1262426.36749  21217292.01549
  20952003.737 6   -277724.660 6   -207310.22349  20952004.37449
  19945632.847 6  -1044490.195 6   -781120.31349  19945629.98049
  22900536.597 4     33112.926 4     69391.55147  22900533.59347
  23608524.675 1  -1988751.746 1  -1495939.56647  23608526.03447
 20  5 16  3 47 28.9990000  0  6G01G07G08G11G27G30                   0.000131020
  21021710.862 6  -1918494.461 6  -1428607.62949  21021712.37849
  21216429.120 7  -1686820.281 7  -1265970.15649  21216426.23749
  20951865.581 6   -278450.891 6   -207876.12149  20951865.96049
  19945105.315 6  -1047260.984 6   -783279.36348  19945102.83548
  22900597.995 5     33440.641 5     69646.89547  22900596.01947
  23607449.292 1  -1994395.699 1  -1500337.45747  23607451.43347
 20  5 16  3 47 29.9990000  0  6G01G07G08G11G27G30                   0.000129492
  21020728.878 6  -1923653.797 6  -1432627.89549  21020730.72649
  21215563.612 7  -1691367.566 7  -1269513.49249  21215561.53849
  20951727.722 6   -279176.855 6   -208441.80949  20951728.05449
  19944578.230 6  -1050031.133 6   -785437.92249  19944575.73349
  22900660.433 4     33768.449 4     69902.32047  22900658.52647
  23606375.909 1  -2000039.285 1  -1504735.03947  23606377.18347
 20  5 16  3 47 30.9990000  0  6G01G07G08G11G27G30                   0.000127964
  21019747.339 6  -1928812.609 6  -1436647.75449  21019749.17149
  21214698.401 7  -1695914.309 7  -1273056.41849  21214695.94849
  20951589.292 6   -279902.613 6   -209007.33249  20951589.71849
  19944051.019 6  -1052800.672 6   -787596.00848  19944048.05848
  22900722.183 4     34096.211 4     70157.70747  22900721.35547
  23605302.995 1  -2005682.613 1  -1509132.44947  23605303.73747
 20  5 16  3 47 31.9990000  0  6G01G07G08G11G27G30                   0.000126436
  21018765.909 6  -1933970.895 6  -1440667.19549  21018767.63649
  21213833.425 7  -1700460.516 7  -1276598.91049  21213830.62849
  20951451.620 6   -280628.145 6   -209572.68449  20951451.76549
  19943524.605 6  -1055569.590 6   -789753.60548  19943521.62848
  22900785.347 5     34424.063 5     70413.18047  22900782.76147
  23604228.776 1  -2011325.766 1  -1513529.72747  23604230.20647
 20  5 16  3 47 32.9990000  0  6G01G07G08G11G27G30                   0.000124907
  21017784.347 6  -1939128.668 6  -1444686.24249  21017786.60849
  21212968.644 7  -1705006.191 7  -1280141.00049  21212965.52649
  20951313.261 6   -281353.496 6   -210137.89849  20951313.64449
  19942997.183 6  -1058337.914 6   -791910.74248  19942994.42148
  22900846.659 4     34751.895 4     70668.62947  22900845.99147
  23603154.401 1  -2016968.547 1  -1517926.70747  23603156.32347
 20  5 16  3 47 33.9990000  0  6G01G07G08G11G27G30                   0.000123379
  21016802.706 6  -1944285.910 6  -1448704.87149  21016804.92149
  21212103.237 7  -1709551.324 7  -1283682.65649  21212100.56949
  20951175.511 6   -282078.629 6   -210702.93449  20951175.53049
  19942470.901 6  -1061105.629 6   -794067.39848  19942467.90548
  22900909.315 4     35079.734 4     70924.08647  22900908.28447
  23602081.761 1  -2022611.086 1  -1522323.49247  23602082.76147
 20  5 16  3 47 34.9990000  0  6G01G07G08G11G27G30                   0.000121851
  21015821.940 6  -1949442.609 6  -1452723.07849  21015823.51149
  21211238.440 7  -1714095.867 7  -1287223.86349  21211236.15949
  20951037.269 6   -282803.477 6   -211267.75049  20951037.40949
  19941944.597 6  -1063872.648 6   -796223.52348  19941941.22248
  22900971.440 4     35407.789 4     71179.71947  22900970.51147
  23601008.456 2  -2028253.336 2  -1526720.04747  23601009.08147
 20  5 16  3 47 35.9990000  0  6G01G07G08G11G27G30                   0.000120325
  21014840.386 6  -1954598.762 6  -1456740.85549  21014841.91749
  21210373.815 7  -1718639.867 7  -1290764.64149  21210371.49949
  20950900.019 6   -283528.129 6   -211832.41449  20950899.93749
  19941418.190 6  -1066639.051 6   -798379.16448  19941415.24148
  22901034.636 4     35735.633 4     71435.16847  22901032.75347
  23599934.120 1  -2033895.336 1  -1531116.40247  23599935.45247
 20  5 16  3 47 36.9990000  0  6G01G07G08G11G27G30                   0.000118795
  21013859.339 6  -1959754.398 6  -1460758.22749  21013861.30049
  21209508.940 7  -1723183.340 7  -1294305.00449  21209506.74149
  20950761.675 6   -284252.582 6   -212396.91849  20950761.68749
  19940891.456 6  -1069404.840 6   -800534.32048  19940888.46048
  22901096.628 4     36063.617 4     71690.73047  22901094.77647
  23598860.128 1  -2039536.984 1  -1535512.48447  23598861.85847
 20  5 16  3 47 37.9990000  0  6G01G07G08G11G27G30                   0.000117268
  21012878.167 6  -1964909.500 6  -1464775.18849  21012879.90149
  21208644.683 7  -1727726.254 7  -1297844.93449  21208641.97649
  20950623.972 6   -284976.824 6   -212961.26249  20950624.09749
  19940365.386 6  -1072170.043 6   -802689.02048  19940362.30848
  22901159.237 4     36391.605 4     71946.31347  22901157.57747
  23597785.901 1  -2045178.309 1  -1539908.32447  23597788.53447
 20  5 16  3 47 38.9990000  0  6G01G07G08G11G27G30                   0.000115740
  21011897.620 6  -1970064.055 6  -1468791.72349  21011899.27249
  21207780.425 7  -1732268.609 7  -1301384.43049  21207777.79649
  20950486.159 6   -285700.836 6   -213525.42249  20950486.49949
  19939839.558 6  -1074934.598 6   -804843.21548  19939836.51148
  22901221.105 4     36719.645 4     72201.94547  22901220.24947
  23596713.034 1  -2050819.492 1  -1544304.05147  23596714.80047
 20  5 16  3 47 39.9990000  0  6G01G07G08G11G27G30                   0.000114212
  21010916.714 6  -1975218.094 6  -1472807.85949  21010918.55449
  21206916.042 7  -1736810.418 7  -1304923.50449  21206913.79649
  20950348.581 6   -286424.641 6   -214089.43449  20950348.40149
  19939313.128 6  -1077698.539 6   -806996.93848  19939310.66748
  22901284.933 4     37047.719 4     72457.59047  22901282.69847
  23595640.144 1  -2056460.328 1  -1548699.49647  23595641.16747
 20  5 16  3 47 40.9990000  0  6G01G07G08G11G27G30                   0.000112684
  21009935.847 6  -1980371.617 6  -1476823.60549  21009937.61649
  21206051.901 7  -1741351.699 7  -1308462.16849  21206049.19849
  20950210.964 6   -287148.211 6   -214653.25849  20950210.64449
  19938787.651 6  -1080461.848 6   -809150.16449  19938785.11649
  22901346.136 3     37375.832 3     72713.26247  22901345.19047
  23594566.409 1  -2062100.957 1  -1553094.78947  23594567.98347
 20  5 16  3 47 41.9990000  0  6G01G07G08G11G27G30                   0.000111156
  21008955.401 6  -1985524.621 6  -1480838.93449  21008956.87849
  21205187.761 7  -1745892.430 7  -1312000.39149  21205184.95649
  20950073.073 6   -287871.586 6   -215216.92649  20950073.03049
  19938262.276 6  -1083224.570 6   -811302.93848  19938258.95648
  22901408.690 4     37703.928 4     72968.91847  22901407.61647
  23593492.597 1  -2067741.211 1  -1557489.79747  23593494.84747
 20  5 16  3 47 42.9990000  0  6G01G07G08G11G27G30                   0.000109629
  21007974.933 6  -1990677.109 6  -1484853.85949  21007976.64449
  21204324.097 7  -1750432.645 7  -1315538.22349  21204321.27249
  20949935.597 6   -288594.762 6   -215780.44149  20949935.47649
  19937736.230 6  -1085986.672 6   -813455.22349  19937733.48349
  22901470.355 4     38032.016 4     73224.56647  22901469.60147
  23592420.230 1  -2073381.289 1  -1561884.66847  23592421.31247
 20  5 16  3 47 43.9990000  0  6G01G07G08G11G27G30                   0.000108101
  21006994.472 6  -1995829.055 6  -1488868.35949  21006996.21449
  21203459.862 7  -1754972.301 7  -1319075.61749  21203457.51149
  20949797.987 6   -289317.707 6   -216343.77749  20949797.65949
  19937210.808 6  -1088748.141 6   -815607.02048  19937208.14448
  22901533.456 4     38360.242 4     73480.31747  22901532.15947
  23591347.315 1  -2079021.027 1  -1566279.27347  23591348.09347
 20  5 16  3 47 44.9990000  0  6G01G07G08G11G27G30                   0.000106573
  21006014.425 6  -2000980.457 6  -1492882.43849  21006015.53449
  21202596.214 7  -1759511.371 7  -1322612.55149  21202593.45649
  20949660.175 6   -290040.418 6   -216906.92649  20949660.40549
  19936685.433 6  -1091508.977 6   -817758.32449  19936682.51949
  22901595.495 4     38688.367 4     73736.00447  22901594.26547
  23590273.315 1  -2084660.473 1  -1570673.66847  23590275.15147
 20  5 16  3 47 45.9990000  0  6G01G07G08G11G27G30                   0.000105045
  21005033.761 6  -2006131.336 6  -1496896.11349  21005035.42949
  21201732.089 7  -1764049.926 7  -1326149.09449  21201730.04649
  20949523.034 6   -290762.930 6   -217469.92249  20949522.96449
  19936160.347 6  -1094269.180 6   -819909.12949  19936157.36249
  22901657.862 3     39016.582 3     73991.75847  22901656.99547
  23589200.675 1  -2090299.703 1  -1575067.86347  23589201.75747
 20  5 16  3 47 46.9990000  0  6G01G07G08G11G27G30                   0.000103518
  21004053.940 6  -2011281.695 6  -1500909.37949  21004055.30049
  21200868.698 7  -1768587.934 7  -1329685.19949  21200866.31549
  20949385.651 6   -291485.223 6   -218032.74649  20949385.50349
  19935634.987 6  -1097028.785 6   -822059.47349  19935632.14049
  22901720.659 3     39344.785 3     74247.50847  22901719.60847
  23588128.050 2  -2095938.629 2  -1579461.83247  23588128.60147
 20  5 16  3 47 47.9990000  0  6G01G07G08G11G27G30                   0.000101990
  21003074.034 6  -2016431.531 6  -1504922.23849  21003075.39449
  21200005.472 7  -1773125.414 7  -1333220.89849  21200002.81949
  20949248.214 6   -292207.344 6   -218595.43049  20949247.98049
  19935109.980 6  -1099787.789 6   -824209.34449  19935107.24549
  22901782.417 4     39673.063 4     74503.32047  22901782.15947
  23587054.870 2  -2101577.281 2  -1583855.57447  23587055.88647
 20  5 16  3 47 48.9990000  0  6G01G07G08G11G27G30                   0.000100464
  21002094.222 6  -2021580.816 6  -1508934.67249  21002095.40949
  21199142.456 7  -1777662.316 7  -1336756.14849  21199139.53849
  20949110.651 6   -292929.180 6   -219157.90649  20949110.44049
  19934585.355 6  -1102546.145 6   -826358.71149  19934582.33149
  22901845.534 4     40001.395 4     74759.16847  22901844.53447
  23585982.269 2  -2107215.656 2  -1588249.11347  23585982.76947
 20  5 16  3 47 49.9990000  0  6G01G07G08G11G27G30                   0.000098936
  21001114.448 6  -2026729.613 6  -1512946.71549  21001115.98749
  21198279.198 7  -1782198.703 7  -1340290.99249  21198276.38249
  20948973.534 6   -293650.824 6   -219720.22749  20948973.46849
  19934059.987 6  -1105303.918 6   -828507.62949  19934057.57349
  22901907.323 3     40329.688 3     75014.98447  22901906.73347
  23584909.597 2  -2112853.770 2  -1592642.44147  23584909.99947
 20  5 16  3 47 50.9990000  0  6G01G07G08G11G27G30                   0.000097408
  21000135.050 6  -2031877.875 6  -1516958.35549  21000136.35549
  21197415.433 7  -1786734.547 7  -1343825.41449  21197412.98349
  20948836.269 6   -294372.301 6   -220282.41849  20948835.99149
  19933535.753 6  -1108061.059 6   -830656.05149  19933532.85149
  22901969.487 4     40658.000 4     75270.81647  22901969.39747
  23583836.245 2  -2118491.559 2  -1597035.52347  23583837.21447
 20  5 16  3 47 51.9990000  0  6G01G07G08G11G27G30                   0.000095881
  20999155.026 6  -2037025.648 6  -1520969.60949  20999156.44449
  21196552.831 7  -1791269.895 7  -1347359.44949  21196549.87049
  20948698.784 6   -295093.602 6   -220844.46949  20948698.74149
  19933010.878 6  -1110817.641 6   -832804.03949  19933008.27249
  22902032.222 4     40986.316 4     75526.64547  22902031.54647
  23582763.495 2  -2124129.172 2  -1601428.46947  23582763.98047
 20  5 16  3 47 52.9990000  0  6G01G07G08G11G27G30                   0.000094353
  20998175.558 6  -2042172.840 6  -1524980.40249  20998177.42549
  21195689.730 7  -1795804.656 7  -1350893.02349  21195687.14749
  20948561.831 6   -295814.621 6   -221406.29749  20948561.58149
  19932486.323 6  -1113573.543 6   -834951.49649  19932484.10849
  22902095.370 3     41314.730 3     75782.53947  22902094.27647
  23581690.714 2  -2129766.441 2  -1605821.15247  23581691.22647
 20  5 16  3 47 53.9990000  0  6G01G07G08G11G27G30                   0.000092827
  20997196.167 6  -2047319.488 6  -1528990.77349  20997197.82749
  21194826.753 7  -1800338.816 7  -1354426.14149  21194824.24149
  20948424.948 6   -296535.406 6   -221967.94949  20948424.27249
  19931962.245 6  -1116328.813 6   -837098.45749  19931959.56549
  22902158.550 3     41643.152 3     76038.46147  22902157.05047
  23580618.253 2  -2135403.422 2  -1610213.60947  23580619.00347
 20  5 16  3 47 54.9990000  0  6G01G07G08G11G27G30                   0.000091299
  20996217.128 7  -2052465.613 7  -1533000.73849  20996218.79249
  21193964.269 7  -1804872.445 7  -1357958.84049  21193961.29649
  20948287.362 6   -297255.977 6   -222529.43449  20948287.39749
  19931438.308 6  -1119083.457 6   -839244.93449  19931435.44049
  22902220.573 4     41971.617 4     76294.40247  22902219.68347
  23579544.761 2  -2141040.090 2  -1614605.82447  23579546.20647
 20  5 16  3 47 55.9990000  0  6G01G07G08G11G27G30                   0.000089771
  20995238.237 6  -2057611.168 6  -1537010.26649  20995239.03049
  21193101.862 7  -1809405.492 7  -1361491.09049  21193098.98049
  20948150.065 6   -297976.316 6   -223090.73049  20948149.99549
  19930913.753 6  -1121837.461 6   -841390.91049  19930911.44049
  22902282.745 3     42300.086 3     76550.34847  22902281.95647
  23578472.542 1  -2146676.527 1  -1618997.84847  23578473.67547
 20  5 16  3 47 56.9990000  0  6G01G07G08G11G27G30                   0.000088243
  20994259.136 6  -2062756.250 6  -1541019.42249  20994260.10549
  21192239.167 7  -1813938.051 7  -1365022.94949  21192236.58549
  20948012.917 6   -298696.461 6   -223651.89149  20948012.97649
  19930390.448 6  -1124590.883 6   -843536.43449  19930387.39749
  22902345.894 4     42628.566 4     76806.31647  22902344.66347
  23577400.472 1  -2152312.641 1  -1623389.61347  23577401.14047
 20  5 16  3 47 57.9990000  0  6G01G07G08G11G27G30                   0.000086716
  20993279.456 6  -2067900.797 6  -1545028.15649  20993281.61649
  21191376.886 7  -1818470.055 7  -1368554.38749  21191373.94049
  20947876.144 6   -299416.414 6   -224212.89149  20947876.05449
  19929866.144 6  -1127343.680 6   -845681.46949  19929863.64049
  22902407.769 3     42957.121 3     77062.33247  22902407.36647
  23576327.573 1  -2157948.508 1  -1627781.19147  23576328.50747
 20  5 16  3 47 58.9990000  0  6G01G07G08G11G27G30                   0.000085190
  20992301.112 6  -2073044.836 6  -1549036.50449  20992302.58949
  21190514.644 7  -1823001.547 7  -1372085.42249  21190511.46449
  20947739.409 6   -300136.121 6   -224773.69549  20947739.15549
  19929342.370 6  -1130095.895 6   -847826.05549  19929339.70649
  22902469.815 4     43285.645 4     77318.32847  22902469.73347
  23575254.894 2  -2163584.188 2  -1632172.62947  23575256.00747
 20  5 16  3 47 59.9990000  0  6G01G07G08G11G27G30                   0.000083662
  20991322.487 6  -2078188.328 6  -1553044.42249  20991323.55449
  21189652.261 7  -1827532.457 7  -1375616.00049  21189649.30449
  20947602.245 6   -300855.645 6   -225334.36749  20947601.94849
  19928818.987 6  -1132847.449 6   -849970.11749  19928816.12849
  22902532.097 4     43614.234 4     77574.37147  22902531.80447
  23574183.292 2  -2169219.480 2  -1636563.76247  23574183.89747
 20  5 16  3 48  0.9990000  0  6G01G07G08G11G27G30                   0.000082136
  20990343.347 6  -2083331.258 6  -1557051.89849  20990345.12849
  21188790.472 7  -1832062.801 7  -1379146.14149  21188786.97249
  20947465.464 6   -301574.906 6   -225894.82849  20947465.49949
  19928295.136 6  -1135598.398 6   -852113.71549  19928292.56949
  22902595.183 4     43942.836 4     77830.41847  22902594.75347
  23573110.690 2  -2174854.535 2  -1640954.72347  23573111.61247
 20  5 16  3 48  1.9990000  0  6G01G07G08G11G27G30                   0.000080608
  20989365.159 6  -2088473.629 6  -1561058.93449  20989366.26549
  21187927.901 7  -1836592.570 7  -1382675.82449  21187924.63249
  20947328.651 6   -302293.934 6   -226455.11349  20947328.49549
  19927771.972 6  -1138348.660 6   -854256.77749  19927769.35549
  22902657.675 3     44271.492 3     78086.51647  22902657.35847
  23572038.120 2  -2180489.207 2  -1645345.38347  23572039.34347
 20  5 16  3 48  2.9990000  0  6G01G07G08G11G27G30                   0.000079081
  20988386.636 6  -2093615.477 6  -1565065.57449  20988387.74149
  21187066.401 7  -1841121.801 7  -1386205.10249  21187062.85149
  20947192.190 6   -303012.754 6   -227015.23449  20947191.64049
  19927248.831 6  -1141098.305 6   -856399.35949  19927246.13249
  22902720.706 3     44600.258 3     78342.69947  22902719.83947
  23570965.972 2  -2186123.660 2  -1649735.86347  23570967.23347
 20  5 16  3 48  3.9990000  0  6G01G07G08G11G27G30                   0.000077555
  20987408.362 6  -2098756.793 6  -1569071.79349  20987409.26549
  21186204.605 7  -1845650.469 7  -1389733.93849  21186201.40949
  20947055.472 7   -303731.332 7   -227575.16049  20947054.55049
  19926725.761 6  -1143847.316 6   -858541.44549  19926723.27649
  22902783.159 3     44928.945 3     78598.79347  22902782.48047
  23569893.745 2  -2191757.828 2  -1654126.12547  23569895.00747
 20  5 16  3 48  4.9990000  0  6G01G07G08G11G27G30                   0.000076027
  20986429.964 6  -2103897.598 6  -1573077.61349  20986431.57349
  21185343.058 7  -1850178.625 7  -1393262.36349  21185340.04649
  20946918.472 7   -304449.734 7   -228134.95349  20946918.42149
  19926202.980 6  -1146595.754 6   -860683.09449  19926200.46049
  22902845.886 3     45257.723 3     78854.98047  22902844.62047
  23568821.534 2  -2197391.750 2  -1658516.18847  23568822.53847
 20  5 16  3 48  5.9990000  0  6G01G07G08G11G27G30                   0.000074499
  20985451.894 6  -2109037.867 6  -1577083.02049  20985452.81249
  21184481.128 7  -1854706.227 7  -1396790.36349  21184478.11249
  20946781.894 7   -305167.953 7   -228694.59849  20946781.38649
  19925679.800 6  -1149343.582 6   -862824.25849  19925677.30849
  22902908.401 3     45586.410 3     79111.10947  22902907.42947
  23567749.815 2  -2203025.371 2  -1662906.01247  23567750.94847
 20  5 16  3 48  6.9990000  0  6G01G07G08G11G27G30                   0.000072973
  20984473.675 6  -2114177.594 6  -1581088.00449  20984474.70249
  21183619.362 7  -1859233.254 7  -1400317.91849  21183616.73049
  20946645.237 6   -305885.914 6   -229254.05149  20946644.61249
  19925157.308 6  -1152090.762 6   -864964.91449  19925154.58149
  22902971.456 4     45915.227 4     79367.34447  22902970.30047
  23566678.183 2  -2208658.672 2  -1667295.57847  23566678.64047
 20  5 16  3 48  7.9990000  0  6G01G07G08G11G27G30                   0.000071445
  20983495.769 6  -2119316.770 6  -1585092.55949  20983497.02649
  21182758.105 7  -1863759.707 7  -1403845.02749  21182755.26149
  20946508.495 6   -306603.652 6   -229813.33249  20946508.00349
  19924634.417 6  -1154837.301 6   -867105.07049  19924631.72249
  22903034.534 4     46244.078 4     79623.59847  22903032.98747
  23565605.901 2  -2214291.711 2  -1671684.96547  23565607.12847
 20  5 16  3 48  8.9990000  0  6G01G07G08G11G27G30                   0.000069920
  20982517.855 6  -2124455.398 6  -1589096.68449  20982519.06949
  21181897.245 7  -1868285.598 7  -1407371.69549  21181894.48749
  20946371.620 6   -307321.160 6   -230372.43049  20946371.60849
  19924111.612 6  -1157583.188 6   -869244.73049  19924108.78449
  22903096.933 4     46572.988 4     79879.89147  22903095.43347
  23564533.886 2  -2219924.434 2  -1676074.09847  23564535.24147
 20  5 16  3 48  9.9990000  0  6G01G07G08G11G27G30                   0.000068392
  20981540.042 6  -2129593.496 6  -1593100.39849  20981541.29249
  21181036.011 7  -1872810.934 7  -1410897.93049  21181033.03449
  20946235.190 6   -308038.453 6   -230931.35949  20946235.08549
  19923589.089 6  -1160328.461 6   -871383.89549  19923586.68349
  22903159.105 4     46901.867 4     80136.15647  22903158.44447
  23563462.042 2  -2225556.871 2  -1680463.00047  23563463.42947
 20  5 16  3 48 10.9990000  0  6G01G07G08G11G27G30                   0.000066866
  20980562.526 6  -2134731.113 6  -1597103.73049  20980563.80449
  21180174.698 7  -1877335.777 7  -1414423.78549  21180171.89449
  20946098.730 6   -308755.559 6   -231490.14849  20946098.57749
  19923067.034 6  -1163073.180 6   -873522.64549  19923064.01549
  22903221.753 4     47230.824 4     80392.48847  22903220.71047
  23562389.855 2  -2231189.098 2  -1684851.74247  23562391.80847
 20  5 16  3 48 11.9990000  0  6G01G07G08G11G27G30                   0.000065340
  20979584.847 6  -2139868.172 6  -1601106.63749  20979585.84349
  21179313.878 7  -1881860.059 7  -1417949.19549  21179310.75749
  20945962.651 6   -309472.426 6   -232048.74249  20945962.52649
  19922544.745 6  -1165817.246 6   -875660.87549  19922542.25349
  22903284.394 4     47559.715 4     80648.76247  22903283.26547
  23561317.972 1  -2236821.008 1  -1689240.23447  23561320.08147
 20  5 16  3 48 12.9990000  0  6G01G07G08G11G27G30                   0.000063812
  20978607.597 6  -2145004.680 6  -1605109.10949  20978608.78849
  21178453.198 7  -1886383.770 7  -1421474.17249  21178449.71049
  20945826.128 6   -310189.098 6   -232607.18849  20945825.89449
  19922022.792 6  -1168560.684 6   -877798.61749  19922020.37449
  22903346.253 4     47888.715 4     80905.13747  22903345.86647
  23560247.636 2  -2242452.645 2  -1693628.53147  23560248.10547
 20  5 16  3 48 13.9990000  0  6G01G07G08G11G27G30                   0.000062286
  20977629.995 6  -2150140.680 6  -1609111.18449  20977631.57349
  21177592.417 7  -1890906.941 7  -1424998.71549  21177589.58549
  20945689.620 6   -310905.547 6   -233165.46149  20945689.65149
  19921501.050 6  -1171303.496 6   -879935.87549  19921497.99149
  22903409.558 5     48217.727 5     81161.52747  22903408.21047
  23559175.987 2  -2248083.918 2  -1698016.54747  23559176.70647
 20  5 16  3 48 14.9990000  0  6G01G07G08G11G27G30                   0.000060759
  20976653.112 6  -2155276.098 6  -1613112.80949  20976654.33949
  21176731.745 7  -1895429.535 7  -1428522.81349  21176728.59749
  20945553.136 6   -311621.730 6   -233723.53549  20945553.74549
  19920979.097 6  -1174045.668 6   -882072.62949  19920976.38649
  22903473.081 5     48546.793 5     81417.94546  22903470.60846
  23558104.448 2  -2253714.945 2  -1702404.36747  23558105.04647
 20  5 16  3 48 15.9990000  0  6G01G07G08G11G27G30                   0.000059233
  20975675.722 6  -2160410.969 6  -1617114.00049  20975677.37449
  21175871.362 7  -1899951.555 7  -1432046.46549  21175868.01949
  20945416.980 6   -312337.703 6   -234281.43049  20945417.40149
  19920457.440 6  -1176787.184 6   -884208.87549  19920454.94049
  22903534.558 4     48875.863 4     81674.35946  22903533.81946
  23557032.456 2  -2259345.668 2  -1706791.94147  23557033.27247
 20  5 16  3 48 16.9990000  0  6G01G07G08G11G27G30                   0.000057707
  20974698.683 6  -2165545.316 6  -1621114.78549  20974699.64049
  21175010.940 7  -1904473.012 7  -1435569.67649  21175007.80449
  20945281.253 6   -313053.426 6   -234839.13749  20945281.10149
  19919935.487 6  -1179528.105 6   -886344.66049  19919932.94849
  22903597.417 4     49205.035 4     81930.84846  22903596.07346
  23555960.792 2  -2264976.059 2  -1711179.25847  23555962.31947
 20  5 16  3 48 17.9990000  0  6G01G07G08G11G27G30                   0.000056181
  20973721.628 6  -2170679.086 6  -1625115.12949  20973723.10149
  21174150.995 7  -1908993.930 7  -1439092.46949  21174147.76149
  20945144.753 6   -313768.914 6   -235396.65649  20945144.64049
  19919414.112 6  -1182268.355 6   -888479.91449  19919411.55849
  22903659.261 4     49534.162 4     82187.29446  22903658.22646
  23554889.847 2  -2270606.270 2  -1715566.43447  23554890.76147
 20  5 16  3 48 18.9990000  0  6G01G07G08G11G27G30                   0.000054653
  20972744.917 6  -2175812.328 6  -1629115.05149  20972745.90949
  21173290.425 7  -1913514.238 7  -1442614.78549  21173287.32749
  20945008.269 6   -314484.191 6   -235954.02349  20945008.55849
  19918892.784 6  -1185008.004 6   -890614.70749  19918890.25349
  22903722.706 4     49863.430 4     82443.84846  22903721.52646
  23553817.862 2  -2276236.117 2  -1719953.32047  23553819.56247
 20  5 16  3 48 19.9990000  0  6G01G07G08G11G27G30                   0.000053127
  20971768.355 6  -2180944.996 6  -1633114.53149  20971769.26549
  21172430.237 7  -1918034.008 7  -1446136.68449  21172427.24949
  20944872.401 6   -315199.234 6   -236511.19949  20944872.45249
  19918371.972 6  -1187746.969 6   -892748.96549  19918369.30849
  22903784.964 4     50192.688 4     82700.42246  22903784.18746
  23552747.636 2  -2281865.668 2  -1724339.98847  23552748.40547
 20  5 16  3 48 20.9990000  0  6G01G07G08G11G27G30                   0.000051600
  20970792.019 6  -2186077.160 6  -1637113.61749  20970792.87849
  21171570.534 7  -1922553.199 7  -1449658.12949  21171567.58549
  20944736.612 6   -315914.090 6   -237068.23849  20944736.77649
  19917850.651 6  -1190485.352 6   -894882.76649  19917847.76949
  22903847.706 5     50522.004 5     82957.04746  22903846.62446
  23551676.698 1  -2287494.887 1  -1728726.39547  23551677.53447
 20  5 16  3 48 21.9990000  0  6G01G07G08G11G27G30                   0.000050076
  20969815.151 6  -2191208.766 6  -1641112.27349  20969816.17549
  21170710.440 7  -1927071.840 7  -1453179.14549  21170707.61249
  20944600.831 6   -316628.723 6   -237625.09449  20944600.65549
  19917329.659 6  -1193223.090 6   -897016.07049  19917327.37849
  22903910.612 5     50851.348 5     83213.69146  22903909.10546
  23550604.808 2  -2293123.898 2  -1733112.63747  23550605.90547
 20  5 16  3 48 22.9990000  0  6G01G07G08G11G27G30                   0.000048548
  20968838.925 7  -2196339.797 7  -1645110.48049  20968839.51549
  21169850.698 7  -1931589.887 7  -1456699.70749  21169847.81249
  20944464.815 6   -317343.074 6   -238181.72349  20944464.81249
  19916809.120 6  -1195960.156 6   -899148.84449  19916806.42549
  22903973.433 5     51180.766 5     83470.37546  22903971.64046
  23549534.112 3  -2298752.559 3  -1737498.60547  23549534.56547
 20  5 16  3 48 23.9990000  0  6G01G07G08G11G27G30                   0.000047022
  20967862.565 7  -2201470.297 7  -1649108.27049  20967863.69449
  21168991.120 7  -1936107.379 7  -1460219.82849  21168988.21049
  20944329.112 6   -318057.199 6   -238738.18849  20944328.87449
  19916287.730 6  -1198696.586 6   -901281.12949  19916285.51949
  22904035.706 5     51510.160 5     83727.03546  22904034.42146
  23548462.745 3  -2304380.910 3  -1741884.33247  23548463.59347
 20  5 16  3 48 24.9990000  0  6G01G07G08G11G27G30                   0.000045496
  20966886.487 7  -2206600.250 7  -1653105.62949  20966887.10549
  21168131.237 7  -1940624.309 7  -1463739.51249  21168128.48749
  20944193.112 6   -318771.086 6   -239294.46549  20944193.21849
  19915767.597 6  -1201432.445 6   -903412.96949  19915764.64449
  22904098.901 5     51839.633 5     83983.77046  22904097.00746
  23547391.909 3  -2310008.988 3  -1746269.84447  23547392.48347
 20  5 16  3 48 25.9990000  0  6G01G07G08G11G27G30                   0.000043970
  20965910.120 7  -2211729.680 7  -1657102.59049  20965911.15549
  21167271.901 7  -1945140.707 7  -1467258.78549  21167268.84749
  20944057.175 6   -319484.809 6   -239850.62149  20944057.28849
  19915247.206 6  -1204167.645 6   -905544.29749  19915244.42149
  22904161.511 5     52169.090 5     84240.48046  22904159.88646
  23546320.636 2  -2315636.766 2  -1750655.11747  23546321.66347
 20  5 16  3 48 26.9990000  0  6G01G07G08G11G27G30                   0.000042444
  20964934.308 7  -2216858.594 7  -1661099.15249  20964934.97649
  21166412.612 7  -1949656.566 7  -1470777.64549  21166409.57749
  20943920.980 6   -320198.328 6   -240406.61349  20943921.00749
  19914726.612 6  -1206902.262 6   -907675.16449  19914723.76949
  22904223.870 5     52498.586 5     84497.23446  22904221.76946
  23545249.792 3  -2321264.320 3  -1755040.23047  23545250.27247
 20  5 16  3 48 27.9990000  0  6G01G07G08G11G27G30                   0.000040918
  20963958.503 6  -2221986.949 6  -1665095.27349  20963959.13249
  21165553.472 7  -1954171.840 7  -1474296.03949  21165549.94049
  20943785.925 6   -320911.605 6   -240962.41449  20943786.10849
  19914206.386 6  -1209636.207 6   -909805.50849  19914204.03849
  22904286.714 5     52828.156 5     84754.03546  22904285.01546
  23544179.511 3  -2326891.555 3  -1759425.09047  23544179.98047
 20  5 16  3 48 28.9990000  0  6G01G07G08G11G27G30                   0.000039392
  20962982.448 6  -2227114.734 6  -1669090.94549  20962983.33149
  21164694.347 7  -1958686.527 7  -1477813.97749  21164691.23749
  20943650.011 6   -321624.613 6   -241518.00849  20943649.92149
  19913686.175 6  -1212369.516 6   -911935.35549  19913683.47249
  22904350.081 5     53157.707 5     85010.83246  22904348.37846
  23543109.175 3  -2332518.430 3  -1763809.68048  23543109.28448
 20  5 16  3 48 29.9990000  0  6G01G07G08G11G27G30                   0.000037867
  20962006.815 6  -2232241.988 6  -1673086.21149  20962007.78849
  21163835.706 7  -1963200.668 7  -1481331.48849  21163832.42549
  20943514.190 6   -322337.418 6   -242073.44149  20943514.09349
  19913165.995 6  -1215102.180 6   -914064.71149  19913163.36649
  22904412.526 5     53487.371 5     85267.73446  22904410.86246
  23542037.456 3  -2338145.074 3  -1768194.08248  23542038.48748
 20  5 16  3 48 30.9990000  0  6G01G07G08G11G27G30                   0.000036341
  20961031.495 6  -2237368.715 6  -1677081.05149  20961032.14749
  21162976.683 7  -1967714.285 7  -1484848.59049  21162973.64049
  20943378.589 6   -323050.031 6   -242628.72749  20943379.16749
  19912646.261 6  -1217834.266 6   -916193.60249  19912643.92549
  22904475.120 5     53817.004 5     85524.59446  22904473.68346
  23540967.784 3  -2343771.414 3  -1772578.23848  23540967.89448
 20  5 16  3 48 31.9990000  0  6G01G07G08G11G27G30                   0.000034815
  20960055.698 6  -2242494.895 6  -1681075.48049  20960056.89749
  21162117.581 7  -1972227.344 7  -1488365.25849  21162114.66749
  20943242.495 6   -323762.445 6   -243183.85949  20943243.32749
  19912126.589 6  -1220565.738 6   -918322.02749  19912123.97249
  22904537.980 5     54146.707 5     85781.51646  22904536.20646
  23539897.425 3  -2349397.520 3  -1776962.22748  23539897.49948
 20  5 16  3 48 32.9990000  0  6G01G07G08G11G27G30                   0.000033289
  20959080.370 6  -2247620.563 6  -1685069.50049  20959081.33949
  21161258.706 7  -1976739.836 7  -1491881.48049  21161255.72249
  20943107.753 6   -324474.633 6   -243738.80949  20943107.82749
  19911606.917 6  -1223296.563 6   -920449.94149  19911604.43749
  22904601.253 5     54476.320 5     86038.34446  22904598.48046
  23538826.050 3  -2355023.305 3  -1781345.94548  23538826.71048
 20  5 16  3 48 33.9990000  0  6G01G07G08G11G27G30                   0.000031761
  20958105.065 6  -2252745.715 6  -1689063.12549  20958106.17549
  21160400.362 7  -1981251.813 7  -1495397.31649  21160397.24549
  20942972.128 6   -325186.633 6   -244293.60949  20942972.45649
  19911087.128 6  -1226026.820 6   -922577.41849  19911084.73049
  22904664.253 5     54806.016 5     86295.25046  22904661.21446
  23537756.128 3  -2360648.855 3  -1785729.49248  23537756.04248
 20  5 16  3 48 34.9990000  0  6G01G07G08G11G27G30                   0.000030237
  20957129.784 6  -2257870.324 6  -1693056.33649  20957130.73049
  21159541.784 7  -1985763.238 7  -1498912.71149  21159538.78049
  20942836.855 6   -325898.398 6   -244848.24249  20942837.42149
  19910568.550 6  -1228756.438 6   -924704.39549  19910565.63649
  22904726.308 5     55135.754 5     86552.18446  22904724.53446
  23536685.698 3  -2366274.090 3  -1790112.78548  23536685.67948
 20  5 16  3 48 35.9990000  0  6G01G07G08G11G27G30                   0.000028711
  20956154.987 7  -2262994.367 7  -1697049.08649  20956155.72649
  21158683.628 7  -1990274.063 7  -1502427.64549  21158680.55849
  20942701.081 6   -326609.895 6   -245402.65649  20942701.55449
  19910048.456 6  -1231485.395 6   -926830.85249  19910045.46049
  22904789.183 5     55465.559 5     86809.18846  22904787.21446
  23535614.964 3  -2371899.035 3  -1794495.85548  23535615.42548
 20  5 16  3 48 36.9990000  0  6G01G07G08G11G27G30                   0.000027185
  20955179.464 6  -2268117.871 6  -1701041.43049  20955181.14049
  21157825.136 7  -1994784.355 7  -1505942.15249  21157822.31549
  20942565.933 6   -327321.195 6   -245956.92249  20942566.56949
  19909529.878 6  -1234213.754 6   -928956.84849  19909526.71849
  22904851.605 5     55795.359 5     87066.18846  22904849.46046
  23534544.183 2  -2377523.664 2  -1798878.68447  23534545.06947
 20  5 16  3 48 37.9990000  0  6G01G07G08G11G27G30                   0.000025660
  20954204.933 6  -2273240.840 6  -1705033.35249  20954205.84349
  21156966.714 7  -1999294.070 7  -1509456.21949  21156964.24949
  20942430.323 6   -328032.297 6   -246511.03149  20942431.35549
  19909010.605 6  -1236941.469 6   -931082.34049  19909007.95649
  22904914.612 5     56125.191 5     87323.19546  22904912.01946
  23533473.370 3  -2383148.039 3  -1803261.31647  23533474.92547
 20  5 16  3 48 38.9990000  0  6G01G07G08G11G27G30                   0.000024134
  20953230.456 6  -2278363.270 6  -1709024.85249  20953231.55849
  21156109.058 7  -2003803.219 7  -1512969.83649  21156105.96049
  20942295.495 6   -328743.133 6   -247064.93049  20942295.56949
  19908491.394 6  -1239668.539 6   -933207.32849  19908488.60549
  22904977.011 5     56455.117 5     87580.27046  22904975.15546
  23532403.315 2  -2388772.133 2  -1807643.73047  23532405.12047
 20  5 16  3 48 39.9990000  0  6G01G07G08G11G27G30                   0.000022608
  20952255.230 6  -2283485.152 6  -1713015.92249  20952256.45649
  21155250.940 7  -2008311.820 7  -1516483.03549  21155248.56249
  20942160.175 6   -329453.754 6   -247618.65249  20942160.87449
  19907972.394 6  -1242395.000 6   -935331.84049  19907970.03849
  22905040.230 5     56784.984 5     87837.30946  22905038.40546
  23531333.644 3  -2394395.891 3  -1812025.88348  23531334.62448
 20  5 16  3 48 40.9990000  0  6G01G07G08G11G27G30                   0.000021082
  20951280.737 6  -2288606.445 6  -1717006.53949  20951282.22649
  21154393.308 7  -2012819.840 7  -1519995.78149  21154390.49549
  20942024.870 6   -330164.137 6   -248172.20349  20942025.21049
  19907453.855 6  -1245120.793 6   -937455.84449  19907451.24149
  22905102.495 5     57114.934 5     88094.40646  22905101.27646
  23530263.308 2  -2400019.344 2  -1816407.78547  23530264.05447
 20  5 16  3 48 41.9990000  0  6G01G07G08G11G27G30                   0.000019556
  20950306.526 6  -2293727.246 6  -1720996.77349  20950307.37049
  21153535.440 7  -2017327.313 7  -1523508.09449  21153532.55049
  20941889.862 6   -330874.344 6   -248725.60249  20941890.35849
  19906935.495 6  -1247846.008 6   -939579.39149  19906932.48749
  22905166.276 5     57444.902 5     88351.52346  22905163.55046
  23529193.159 2  -2405642.563 2  -1820789.50447  23529194.28847
 20  5 16  3 48 42.9990000  0  6G01G07G08G11G27G30                   0.000018030
  20949332.089 6  -2298847.527 6  -1724986.60549  20949333.44449
  21152677.401 7  -2021834.262 7  -1527020.00849  21152675.12849
  20941754.644 6   -331584.355 6   -249278.86349  20941755.36249
  19906417.183 6  -1250570.637 6   -941702.46949  19906414.29249
  22905228.315 5     57774.891 5     88608.63746  22905226.21046
  23528123.042 2  -2411265.469 2  -1825170.99247  23528124.09347
 20  5 16  3 48 43.9990000  0  6G01G07G08G11G27G30                   0.000016506
  20948358.058 6  -2303967.301 6  -1728976.03549  20948359.19049
  21151820.456 7  -2026340.688 7  -1530531.50849  21151817.18749
  20941619.378 6   -332294.191 6   -249831.98049  20941619.88249
  19905898.776 6  -1253294.629 6   -943825.06649  19905895.64049
  22905291.464 5     58104.879 5     88865.76646  22905288.98746
  23527053.823 2  -2416888.156 2  -1829552.31347  23527054.48347
 20  5 16  3 48 44.9990000  0  6G01G07G08G11G27G30                   0.000014980
  20947383.605 7  -2309086.516 7  -1732965.03549  20947384.86649
  21150962.480 7  -2030846.547 7  -1534042.57449  21150960.01549
  20941484.620 6   -333003.773 6   -250384.89849  20941485.17949
  19905379.901 6  -1256018.031 6   -945947.19549  19905377.19049
  22905353.839 5     58434.879 5     89122.91446  22905351.91746
  23525983.815 2  -2422510.520 2  -1833933.37947  23525984.31547
 20  5 16  3 48 45.9990000  0  6G01G07G08G11G27G30                   0.000013454
  20946409.370 6  -2314205.215 6  -1736953.62949  20946410.92149
  21150105.448 7  -2035351.844 7  -1537553.19549  21150102.77249
  20941349.651 6   -333713.156 6   -250937.66449  20941350.15549
  19904862.081 6  -1258740.781 6   -948068.82049  19904859.76949
  22905416.948 5     58764.891 5     89380.06346  22905415.01546
  23524914.409 2  -2428132.617 2  -1838314.24247  23524914.49947
 20  5 16  3 48 46.9990000  0  6G01G07G08G11G27G30                   0.000011930
  20945436.034 7  -2319323.363 7  -1740941.79349  20945436.83949
  21149248.183 7  -2039856.574 7  -1541063.36749  21149245.47649
  20941214.542 6   -334422.328 6   -251490.26649  20941215.17149
  19904344.081 6  -1261462.895 6   -950189.94949  19904340.98049
  22905479.198 5     59094.926 5     89637.24546  22905477.96046
  23523844.417 2  -2433754.430 2  -1842694.87948  23523844.95648
 20  5 16  3 48 47.9990000  0  6G01G07G08G11G27G30                   0.000010405
  20944461.925 7  -2324440.957 7  -1744929.52749  20944463.06249
  21148390.792 7  -2044360.777 7  -1544573.13749  21148388.14449
  20941079.605 6   -335131.262 6   -252042.68849  20941080.65549
  19903826.339 6  -1264184.438 6   -952310.63349  19903823.47649
  22905542.019 5     59425.055 5     89894.51246  22905540.71846
  23522774.456 2  -2439375.949 2  -1847075.28148  23522775.05448
 20  5 16  3 48 48.9990000  0  7G01G07G08G11G16G27G30                0.000008879
  20943488.355 7  -2329558.047 7  -1748916.87149  20943489.29649
  21147534.042 7  -2048864.426 7  -1548082.47349  21147531.09749
  20940945.019 6   -335840.008 6   -252594.96149  20940945.61249
  19903308.433 6  -1266905.336 6   -954430.81649  19903305.54649
  23297184.27613                                
  22905605.401 5     59755.152 5     90151.72746  22905603.65546
  23521704.925 2  -2444997.191 2  -1851455.47348  23521705.45648
 20  5 16  3 48 49.9990000  0  7G01G07G08G11G16G27G30                0.000007355
  20942514.198 7  -2334674.641 7  -1752903.82849  20942515.60549
  21146677.167 7  -2053367.555 7  -1551591.40249  21146674.36249
  20940810.105 6   -336548.598 6   -253147.11349  20940811.06549
  19902790.808 6  -1269625.645 6   -956550.53549  19902788.28449
  23297057.409 3     -2213.098 3                
  22905668.151 5     60085.254 5     90408.93046  22905666.98746
  23520635.269 2  -2450618.223 2  -1855835.50048  23520635.83948
 20  5 16  3 48 50.9990000  0  7G01G07G08G11G16G27G30                0.000005829
  20941540.980 7  -2339790.688 7  -1756890.35949  20941542.50749
  21145820.167 7  -2057870.109 7  -1555099.88349  21145817.65549
  20940675.136 6   -337256.965 6   -253699.08249  20940676.14749
  19902273.464 6  -1272345.367 6   -958669.79749  19902270.48749
  23296931.784 3     -2875.305 3                
  22905730.878 5     60415.352 5     90666.15646  22905729.62446
  23519565.730 2  -2456238.938 2  -1860215.27748  23519566.44848
 20  5 16  3 48 51.9990000  0  7G01G07G08G11G16G27G30                0.000004305
  20940568.050 7  -2344906.199 7  -1760876.46949  20940568.87849
  21144963.698 7  -2062372.125 7  -1558607.95349  21144960.89749
  20940540.644 6   -337965.141 6   -254250.91049  20940541.42149
  19901755.823 6  -1275064.457 6   -960788.57049  19901752.89049
  23296805.315 3     -3537.238 3                
  22905792.972 5     60745.505 5     90923.41046  22905792.01946
  23518496.612 3  -2461859.336 3  -1864594.80548  23518496.45648
 20  5 16  3 48 52.9990000  0  7G01G07G08G11G16G27G30                0.000002783
  20939594.511 7  -2350021.152 7  -1764862.14849  20939595.55849
  21144106.917 7  -2066873.590 7  -1562115.58649  21144104.26149
  20940405.956 6   -338673.055 6   -254802.53149  20940406.88649
  19901238.503 6  -1277782.914 6   -962906.84449  19901235.30849
  23296678.323 3     -4199.063 3                
  22905856.011 5     61075.656 5     91180.66846  22905854.69046
  23517427.230 2  -2467479.504 2  -1868974.16448  23517427.56548
 20  5 16  3 48 53.9990000  0  7G01G07G08G11G16G27G30                0.000001257
  20938621.253 7  -2355135.543 7  -1768847.39549  20938622.17149
  21143250.730 7  -2071374.465 7  -1565622.76249  21143247.79249
  20940270.956 6   -339380.750 6   -255353.98849  20940272.33949
  19900721.456 6  -1280500.715 6   -965024.61349  19900718.26149
  23296553.073 3     -4860.633 3                
  22905919.190 5     61405.855 5     91437.97346  22905918.37846
  23516358.323 3  -2473099.316 3  -1873353.24248  23516358.40948
 20  5 16  3 48 54.9990000  0  7G01G07G08G11G16G27G30               -0.000000267
  20937648.347 7  -2360249.410 7  -1772832.21949  20937649.61249
  21142394.222 7  -2075874.781 7  -1569129.50849  21142391.37449
  20940136.597 6   -340088.215 6   -255905.25849  20940137.46049
  19900204.323 6  -1283217.926 6   -967141.91849  19900201.58949
  23296426.401 2     -5521.945 2   -120419.39856  23296424.67556
  22905981.503 5     61736.152 5     91695.34846  22905981.17146
  23515288.737 2  -2478718.867 2  -1877732.11348  23515289.14748
 20  5 16  3 48 55.9990000  0  7G01G07G08G11G16G27G30               -0.000001793
  20936674.972 7  -2365362.730 7  -1776816.62149  20936676.05449
  21141537.948 7  -2080374.535 7  -1572635.80549  21141534.81949
  20940001.847 6   -340795.480 6   -256456.37549  20940002.82349
  19899687.206 6  -1285934.496 6   -969258.72749  19899684.31249
  23296300.355 2     -6183.145 2   -120934.61346  23296298.77646
  22906044.081 4     62066.437 4     91952.70946  22906043.90146
  23514219.784 3  -2484338.117 3  -1882110.73848  23514219.62848
 20  5 16  3 48 56.9990000  0  7G01G07G08G11G16G27G30               -0.000003319
  20935702.355 7  -2370475.516 7  -1780800.60549  20935703.25749
  21140681.792 7  -2084873.742 7  -1576141.68449  21140679.21049
  20939867.206 6   -341502.512 6   -257007.30149  20939868.45649
  19899170.628 6  -1288650.406 6   -971375.02049  19899167.50349
  23296174.698 2     -6844.102 2   -121449.67246  23296172.99146
  22906106.901 4     62396.719 4     92210.06346  22906106.99146
  23513150.315 3  -2489957.051 3  -1886489.12948  23513149.69048
 20  5 16  3 48 57.9990000  0  7G01G07G08G11G16G27G30               -0.000004843
  20934729.120 7  -2375587.742 7  -1784784.16049  20934730.42149
  21139825.776 7  -2089372.375 7  -1579647.11349  21139823.20249
  20939732.675 6   -342209.340 6   -257558.07849  20939733.74549
  19898654.089 6  -1291365.707 6   -973490.83649  19898650.69849
  23296049.034 3     -7504.863 3   -121964.57046  23296047.02646
  22906169.034 4     62727.078 4     92467.47346  22906170.33946
  23512080.636 3  -2495575.719 3  -1890867.30947  23512080.80047
 20  5 16  3 48 58.9990000  0  7G01G07G08G11G16G27G30               -0.000006369
  20933756.722 7  -2380699.434 7  -1788767.29349  20933757.53849
  21138969.519 7  -2093870.480 7  -1583152.12949  21138966.91349
  20939598.808 6   -342915.949 6   -258108.68849  20939599.55049
  19898137.378 6  -1294080.438 6   -975606.21549  19898133.90549
  23295923.245 2     -8165.469 2   -122479.35246  23295921.86646
  22906233.058 4     63057.410 4     92724.86346  22906233.06946
  23511011.878 3  -2501194.113 3  -1895245.27347  23511011.60147
 20  5 16  3 48 59.9990000  0  7G01G07G08G11G16G27G30               -0.000007893
  20932783.823 7  -2385810.563 7  -1792749.99649  20932784.88649
  21138113.862 7  -2098367.988 7  -1586656.67649  21138111.12049
  20939464.386 6   -343622.332 6   -258659.11349  20939465.08949
  19897620.886 6  -1296794.461 6   -977721.03949  19897617.47649
  23295797.230 2     -8825.926 2   -122993.98046  23295795.60846
  22906295.128 4     63387.832 4     92982.34046  22906295.55846
  23509942.917 3  -2506812.188 3  -1899622.99648  23509942.36248
 20  5 16  3 49  0.9990000  0  7G01G07G08G11G16G27G30               -0.000009418
  20931811.276 7  -2390921.203 7  -1796732.30949  20931812.32349
  21137257.940 7  -2102864.977 7  -1590160.82849  21137255.55449
  20939329.675 6   -344328.508 6   -259209.38749  20939330.69449
  19897104.714 6  -1299507.918 6   -979835.42649  19897101.37049
  23295671.315 2     -9486.133 2   -123508.40646  23295670.33546
  22906358.190 4     63718.270 4     93239.81646  22906359.05046
  23508873.448 3  -2512430.004 3  -1904000.52348  23508873.41748
 20  5 16  3 49  1.9990000  0  7G01G07G08G11G16G27G30               -0.000010944
  20930838.792 7  -2396031.270 7  -1800714.18049  20930839.70649
  21136402.573 7  -2107361.406 7  -1593664.54349  21136399.63249
  20939195.019 6   -345034.461 6   -259759.47349  20939195.97649
  19896588.331 6  -1302220.750 6   -981949.32049  19896584.45249
  23295545.573 3    -10146.160 3   -124022.73846  23295544.84346
  22906420.769 4     64048.719 4     93497.29746  22906422.15546
  23507804.980 3  -2518047.520 3  -1908377.80548  23507804.15948
 20  5 16  3 49  2.9990000  0  7G01G07G08G11G16G27G30               -0.000012468
  20929866.487 7  -2401140.863 7  -1804695.68049  20929867.73049
  21135546.620 7  -2111857.320 7  -1597167.85949  21135544.10549
  20939061.386 6   -345740.250 6   -260309.44549  20939061.56949
  19896071.855 6  -1304933.016 6   -984062.76649  19896068.82349
  23295420.120 3    -10806.055 3   -124536.97746  23295419.26546
  22906483.292 4     64379.105 4     93754.73446  22906484.79646
  23506735.855 3  -2523664.824 3  -1912754.91848  23506735.64748
 20  5 16  3 49  3.9990000  0  7G01G07G08G11G16G27G30               -0.000013994
  20928894.386 7  -2406249.918 7  -1808676.76249  20928895.58549
  21134691.698 7  -2116352.668 7  -1600670.73049  21134688.62049
  20938926.511 6   -346445.852 6   -260859.27049  20938927.40549
  19895555.597 6  -1307644.656 6   -986175.73049  19895552.66749
  23295294.151 3    -11465.793 3   -125051.06646  23295293.81546
  22906547.370 4     64709.563 4     94012.24646  22906547.73746
  23505667.011 3  -2529281.855 3  -1917131.81648  23505666.48048
 20  5 16  3 49  4.9990000  0  7G01G07G08G11G16G27G30               -0.000015518
  20927922.151 7  -2411358.410 7  -1812657.40649  20927923.49949
  21133836.315 7  -2120847.457 7  -1604173.16049  21133833.38249
  20938792.253 6   -347151.230 6   -261408.91849  20938793.23349
  19895039.690 6  -1310355.641 6   -988288.18849  19895036.89049
  23295168.870 3    -12125.289 3   -125564.95746  23295168.38246
  22906609.386 3     65040.063 3     94269.78946  22906610.56946
  23504597.862 3  -2534898.500 3  -1921508.42248  23504597.63648
 20  5 16  3 49  5.9990000  0  7G01G07G08G11G16G27G30               -0.000017042
  20926950.081 7  -2416466.402 7  -1816637.65649  20926951.36649
  21132980.933 7  -2125341.727 7  -1607675.18449  21132978.13249
  20938658.190 6   -347856.414 6   -261958.41449  20938658.88649
  19894524.300 6  -1313066.070 6   -990400.21149  19894520.98349
  23295043.761 3    -12784.695 3   -126078.77346  23295042.48746
  22906672.284 3     65370.512 3     94527.26646  22906673.76546
  23503528.222 3  -2540514.973 3  -1925884.88748  23503529.03448
 20  5 16  3 49  6.9990000  0  7G01G07G08G11G16G27G30               -0.000018568
  20925978.401 7  -2421573.840 7  -1820617.47749  20925979.71449
  21132125.776 7  -2129835.414 7  -1611176.75449  21132122.87449
  20938523.948 6   -348561.391 6   -262507.73849  20938524.96049
  19894008.526 6  -1315775.855 6   -992511.73449  19894005.87049
  23294917.417 3    -13443.820 3   -126592.37546  23294916.57746
  22906735.269 3     65701.012 3     94784.78546  22906736.59746
  23502460.042 3  -2546131.117 3  -1930261.10248  23502460.48048
 20  5 16  3 49  7.9990000  0  7G01G07G08G11G16G27G30               -0.000020092
  20925006.448 7  -2426680.758 7  -1824596.89549  20925007.64049
  21131270.886 7  -2134328.563 7  -1614677.90649  21131267.90949
  20938389.894 6   -349266.137 6   -263056.89149  20938390.56949
  19893493.362 6  -1318485.012 6   -994622.77049  19893490.08549
  23294792.331 3    -14102.793 3   -127105.85246  23294791.08946
  22906797.315 3     66031.539 3     95042.32846  22906799.33146
  23501392.019 3  -2551747.016 3  -1934637.11748  23501391.60148
 20  5 16  3 49  8.9990000  0  7G01G07G08G11G16G27G30               -0.000021618
  20924034.901 7  -2431787.109 7  -1828575.86349  20924035.99149
  21130416.136 7  -2138821.133 7  -1618178.61749  21130413.13249
  20938255.800 6   -349970.688 6   -263605.89149  20938256.00749
  19892977.659 6  -1321193.570 6   -996733.32449  19892974.64449
  23294667.034 2    -14761.574 2   -127619.18846  23294666.13646
  22906860.698 3     66362.078 3     95299.89846  22906862.20646
  23500323.370 3  -2557362.598 3  -1939012.90248  23500322.99948
 20  5 16  3 49  9.9990000  0  7G01G07G08G11G16G27G30               -0.000023142
  20923063.370 7  -2436892.918 7  -1832554.41849  20923064.12849
  21129561.214 7  -2143313.121 7  -1621678.86349  21129558.15549
  20938121.909 6   -350675.023 6   -264154.72349  20938122.59349
  19892462.347 6  -1323901.461 6   -998843.37549  19892459.35849
  23294542.065 2    -15420.121 2   -128132.31646  23294540.99546
  22906923.378 2     66692.695 2     95557.52046  22906925.13246
  23499254.034 3  -2562977.820 3  -1943388.40248  23499254.58948
 20  5 16  3 49 10.9990000  0  7G01G07G08G11G16G27G30               -0.000024666
  20922091.831 7  -2441998.129 7  -1836532.50049  20922092.44049
  21128706.440 7  -2147804.516 7  -1625178.65249  21128703.50749
  20937987.839 6   -351379.047 6   -264703.30549  20937988.68349
  19891947.511 6  -1326608.660 6  -1000952.88349  19891943.99149
  23294416.198 2    -16078.500 2   -128645.36346  23294415.76946
  22906986.698 3     67023.375 3     95815.18446  22906988.04246
  23498186.472 3  -2568592.707 3  -1947763.63748  23498186.06248
 20  5 16  3 49 11.9990000  0  7G01G07G08G11G16G27G30               -0.000026192
  20921120.519 7  -2447102.789 7  -1840510.16049  20921121.37849
  21127852.089 7  -2152295.340 7  -1628677.99649  21127848.78849
  20937854.425 6   -352082.891 6   -265251.76249  20937854.56549
  19891432.409 6  -1329315.270 6  -1003061.93449  19891429.12049
  23294291.190 2    -16736.594 2   -129158.18446  23294290.33146
  22907049.675 2     67354.035 2     96072.86346  22907050.71446
  23497118.237 4  -2574207.383 4  -1952138.70748  23497117.87448
 20  5 16  3 49 12.9990000  0  7G01G07G08G11G16G27G30               -0.000027716
  20920148.925 7  -2452206.910 7  -1844487.39149  20920150.08149
  21126997.370 7  -2156785.633 7  -1632176.92649  21126994.57349
  20937719.581 6   -352786.488 6   -265800.02049  20937720.54249
  19890917.542 6  -1332021.262 6  -1005170.49249  19890914.20649
  23294166.058 2    -17394.629 2   -129670.95746  23294165.52646
  22907112.167 2     67684.793 2     96330.60246  22907113.90546
  23496049.612 4  -2579821.723 4  -1956513.52048  23496049.27648
 20  5 16  3 49 13.9990000  0  7G01G07G08G11G16G27G30               -0.000029242
  20919178.128 7  -2457310.496 7  -1848464.21149  20919178.85849
  21126143.198 7  -2161275.336 7  -1635675.39549  21126140.12049
  20937586.081 6   -353489.891 6   -266348.12549  20937586.61649
  19890402.230 6  -1334726.582 6  -1007278.53949  19890399.48749
  23294040.792 2    -18052.359 2   -130183.49246  23294040.24146
  22907174.464 2     68015.570 2     96588.37146  22907176.93346
  23494981.800 4  -2585435.738 4  -1960888.07847  23494981.18747
 20  5 16  3 49 14.9990000  0  7G01G07G08G11G16G27G30               -0.000030766
  20918206.855 7  -2462413.563 7  -1852440.62549  20918208.28049
  21125288.495 7  -2165764.535 7  -1639173.47349  21125285.55849
  20937452.230 6   -354193.117 6   -266896.09449  20937452.85849
  19889887.987 6  -1337431.348 6  -1009386.14549  19889884.67949
  23293915.909 2    -18709.996 2   -130695.93846  23293915.07746
  22907237.792 1     68346.309 1     96846.10546  22907239.74946
  23493912.706 4  -2591049.543 4  -1965262.46948  23493912.75748
 20  5 16  3 49 15.9990000  0  7G01G07G08G11G16G27G30               -0.000032290
  20917235.769 7  -2467516.051 7  -1856416.59049  20917237.08549
  21124434.636 7  -2170253.137 7  -1642671.07849  21124431.80849
  20937318.675 6   -354896.086 6   -267443.87149  20937319.00349
  19889373.136 6  -1340135.461 6  -1011493.25049  19889369.93349
  23293791.464 2    -19367.344 2   -131208.13346  23293789.71846
  22907301.120 1     68677.203 1     97103.90246  22907303.03446
  23492844.558 4  -2596663.039 4  -1969636.62548  23492844.57748
 20  5 16  3 49 16.9990000  0  7G01G07G08G11G16G27G30               -0.000033813
  20916264.823 7  -2472617.996 7  -1860392.13349  20916266.26549
  21123580.784 7  -2174741.152 7  -1646168.23449  21123577.62449
  20937185.019 6   -355598.859 6   -267991.48049  20937184.96449
  19888858.706 6  -1342838.926 6  -1013599.85249  19888855.80049
  23293666.378 2    -20024.477 2   -131720.16846  23293665.01946
  22907364.894 2     69008.008 2     97361.66046  22907365.86246
  23491776.565 4  -2602276.199 4  -1974010.51248  23491776.44448
 20  5 16  3 49 17.9990000  0  7G01G07G08G11G16G27G30               -0.000035337
  20915294.214 7  -2477719.387 7  -1864367.24249  20915295.56549
  21122726.519 7  -2179228.617 7  -1649664.96549  21122723.61649
  20937050.511 6   -356301.398 6   -268538.91449  20937051.58149
  19888344.347 6  -1345541.766 6  -1015705.96149  19888341.48749
  23293541.034 2    -20681.473 2   -132232.10546  23293539.76146
  22907427.573 2     69338.891 2     97619.47346  22907428.46446
  23490708.167 4  -2607889.082 4  -1978384.19148  23490708.24148
 20  5 16  3 49 18.9990000  0  7G01G07G08G11G16G27G30               -0.000036861
  20914323.081 7  -2482820.254 7  -1868341.94549  20914324.86249
  21121872.901 7  -2183715.555 7  -1653161.27749  21121869.83949
  20936917.440 6   -357003.754 6   -269086.20749  20936917.92549
  19887830.300 6  -1348244.027 6  -1017811.61349  19887827.36249
  23293415.933 2    -21338.289 2   -132743.93046  23293414.94846
  22907491.190 3     69669.824 3     97877.35245  22907491.55445
  23489640.409 4  -2613501.664 4  -1982757.63348  23489639.92548
 20  5 16  3 49 19.9990000  0  7G01G07G08G11G16G27G30               -0.000038387
  20913352.683 7  -2487920.574 7  -1872316.21949  20913354.16349
  21121019.175 7  -2188201.930 7  -1656657.15249  21121015.90149
  20936784.284 6   -357705.867 6   -269633.30549  20936784.37049
  19887315.815 6  -1350945.637 6  -1019916.76249  19887312.64049
  23293290.831 2    -21994.941 2   -133255.62146  23293290.16746
  22907553.839 2     70000.750 2     98135.21545  22907554.60845
  23488572.198 4  -2619113.980 4  -1987130.85948  23488572.07748
 20  5 16  3 49 20.9990000  0  7G01G07G08G11G16G27G30               -0.000039911
  20912382.362 7  -2493020.438 7  -1876290.14149  20912384.03049
  21120165.269 7  -2192687.809 7  -1660152.64149  21120162.48049
  20936650.190 6   -358407.840 6   -270180.29749  20936650.40549
  19886802.058 6  -1353646.703 6  -1022021.49249  19886799.00749
  23293166.667 2    -22651.438 2   -133767.17246  23293165.12446
  22907616.784 1     70331.652 1     98393.07045  22907617.67145
  23487504.183 4  -2624726.051 4  -1991503.90248  23487503.96848
 20  5 16  3 49 21.9990000  0  7G01G07G08G11G16G27G30               -0.000041435
  20911411.659 7  -2498119.750 7  -1880263.63349  20911413.27249
  21119311.847 7  -2197173.117 7  -1663647.68849  21119308.90549
  20936516.058 6   -359109.656 6   -270727.18049  20936517.03449
  19886288.097 6  -1356347.117 6  -1024125.70749  19886285.29649
  23293042.019 2    -23307.738 2   -134278.56646  23293039.90546
  22907679.589 1     70662.555 1     98650.89145  22907680.37445
  23486436.308 4  -2630337.836 4  -1995876.71948  23486436.50348
 20  5 16  3 49 22.9990000  0  7G01G07G08G11G16G27G30               -0.000042959
  20910441.862 7  -2503218.449 7  -1884236.63349  20910443.23349
  21118458.495 7  -2201657.816 7  -1667142.25849  21118455.64049
  20936383.659 6   -359811.148 6   -271273.79349  20936383.50349
  19885774.472 6  -1359046.902 6  -1026229.43849  19885771.59749
  23292916.386 2    -23963.777 2   -134789.73846  23292915.30046
  22907742.511 1     70993.520 1     98908.79345  22907743.30445
  23485368.870 4  -2635949.297 4  -2000249.28948  23485368.31248
 20  5 16  3 49 23.9990000  0  7G01G07G08G11G16G27G30               -0.000044483
  20909470.972 7  -2508316.645 7  -1888209.25849  20909472.56249
  21117605.159 7  -2206142.016 7  -1670636.44149  21117602.05849
  20936249.737 6   -360512.531 6   -271820.32449  20936249.96049
  19885261.042 6  -1361746.090 6  -1028332.69949  19885257.83549
  23292792.300 2    -24619.613 2   -135300.77746  23292790.94846
  22907805.464 1     71324.465 1     99166.67645  22907806.32345
  23484300.347 4  -2641560.500 4  -2004621.66448  23484300.81248
 20  5 16  3 49 24.9990000  0  7G01G07G08G11G16G27G30               -0.000046007
  20908501.464 7  -2513414.289 7  -1892181.45349  20908502.80449
  21116752.276 7  -2210625.617 7  -1674130.16449  21116748.84749
  20936116.894 6   -361213.641 6   -272366.64149  20936116.01149
  19884747.519 6  -1364444.617 6  -1030435.44949  19884744.19449
  23292667.315 3    -25275.344 3   -135811.74645  23292665.84745
  22907869.847 3     71655.543 3     99424.66845  22907869.51945
  23483233.394 4  -2647171.395 4  -2008993.78548  23483233.17548
 20  5 16  3 49 25.9990000  0  7G01G07G08G11G16G27G30               -0.000047531
  20907531.862 7  -2518511.406 7  -1896153.23449  20907532.94049
  21115898.769 7  -2215108.648 7  -1677623.43049  21115896.32749
  20935982.667 6   -361914.520 6   -272912.77749  20935982.83549
  19884234.097 6  -1367142.527 6  -1032537.71549  19884230.61249
  23292542.542 3    -25930.895 3   -136322.57045  23292540.74145
  22907931.378 1     71986.539 1     99682.58645  22907932.41345
  23482165.894 4  -2652781.996 4  -2013365.68048  23482165.22248
 20  5 16  3 49 26.9990000  0  7G01G07G08G11G16G27G30               -0.000049055
  20906561.792 7  -2523607.926 7  -1900124.54349  20906562.90949
  21115046.206 7  -2219591.078 7  -1681116.23449  21115042.96849
  20935849.737 6   -362615.160 6   -273458.73449  20935849.42949
  19883720.769 6  -1369839.766 6  -1034639.45749  19883716.87849
  23292418.394 2    -26586.203 2   -136833.19145  23292416.28045
  22907993.503 2     72317.680 2     99940.57845  22907995.50345
  23481098.112 4  -2658392.246 4  -2017737.29748  23481097.58948
 20  5 16  3 49 27.9990000  0  7G01G07G08G11G16G27G30               -0.000050579
  20905592.175 6  -2528703.910 6  -1904095.43849  20905593.50749
  21114192.972 7  -2224073.000 7  -1684608.64549  21114189.79649
  20935716.480 6   -363315.574 6   -274004.51649  20935716.37049
  19883207.769 6  -1372536.434 6  -1036740.75849  19883204.40149
  23292293.073 2    -27241.277 2   -137343.62145  23292291.92145
  22908057.355 2     72648.758 2    100198.53545  22908058.12045
  23480030.401 4  -2664002.211 4  -2022108.69948  23480029.73348
 20  5 16  3 49 28.9990000  0  7G01G07G08G11G16G27G30               -0.000052103
  20904622.065 6  -2533799.402 6  -1908065.95349  20904623.59749
  21113340.315 7  -2228554.355 7  -1688100.61349  21113337.37449
  20935583.159 6   -364015.820 6   -274550.16849  20935582.95249
  19882694.808 6  -1375232.480 6  -1038841.57849  19882691.55449
  23292167.776 2    -27896.207 2   -137853.96145  23292166.65945
  22908120.190 2     72979.949 2    100456.64845  22908121.46045
  23478962.980 4  -2669611.977 4  -2026479.94548  23478962.47648
 20  5 16  3 49 29.9990000  0  7G01G07G08G11G16G27G30               -0.000053627
  20903653.073 6  -2538894.336 6  -1912036.02349  20903654.10149
  21112487.761 7  -2233035.176 7  -1691592.15249  21112484.70249
  20935449.769 6   -364715.863 6   -275095.65649  20935449.65149
  19882181.253 6  -1377927.914 6  -1040941.91849  19882178.37049
  23292043.667 2    -28550.969 2   -138364.17645  23292042.95645
  22908183.394 2     73311.043 2    100714.66845  22908184.72245
  23477895.612 4  -2675221.375 4  -2030850.90648  23477894.99548
 20  5 16  3 49 30.9990000  0  7G01G07G08G11G16G27G30               -0.000055151
  20902683.097 6  -2543988.711 6  -1916005.66849  20902684.74549
  21111634.737 7  -2237515.438 7  -1695083.26649  21111631.82749
  20935316.644 6   -365415.723 6   -275640.99249  20935316.62049
  19881668.503 6  -1380622.738 6  -1043041.77749  19881666.23349
  23291918.886 3    -29205.461 3   -138874.17645  23291917.99945
  22908246.909 2     73642.199 2    100972.72745  22908247.70245
  23476828.308 4  -2680830.516 4  -2035221.67648  23476827.77648
 20  5 16  3 49 31.9990000  0  7G01G07G08G11G16G27G30               -0.000056675
  20901713.870 6  -2549082.539 6  -1919974.88349  20901715.67149
  21110782.628 7  -2241995.117 7  -1698573.92649  21110779.56949
  20935183.565 6   -366115.313 6   -276186.13349  20935183.35849
  19881155.901 6  -1383316.887 6  -1045141.11349  19881153.14449
  23291793.940 2    -29859.801 2   -139384.04745  23291794.46045
  22908310.636 2     73973.410 2    101230.79745  22908310.99545
  23475760.683 4  -2686439.383 4  -2039592.21948  23475760.14748
 20  5 16  3 49 32.9990000  0  7G01G07G08G11G16G27G30               -0.000058199
  20900744.667 7  -2554175.855 7  -1923943.69949  20900746.40149
  21109930.323 7  -2246474.273 7  -1702064.18449  21109926.96049
  20935050.464 6   -366814.742 6   -276731.14549  20935049.89449
  19880643.612 6  -1386010.492 6  -1047240.03149  19880640.94449
  23291670.589 3    -30514.074 3   -139893.89545  23291669.48345
  22908372.823 3     74304.605 3    101488.84845  22908373.55845
  23474692.776 4  -2692047.988 4  -2043962.55548  23474692.86648
 20  5 16  3 49 33.9990000  0  7G01G07G08G11G16G27G30               -0.000059723
  20899775.495 7  -2559268.660 7  -1927912.11349  20899777.37449
  21109078.011 7  -2250952.883 7  -1705554.00849  21109075.13649
  20934917.526 6   -367513.969 6   -277276.00049  20934916.92949
  19880130.823 6  -1388703.441 6  -1049338.43049  19880127.90949
  23291546.058 3    -31168.137 3   -140403.55145  23291545.11645
  22908434.987 2     74635.875 2    101746.97345  22908436.18745
  23473625.636 4  -2697656.242 4  -2048332.61348  23473625.78848
 20  5 16  3 49 34.9990000  0  7G01G07G08G11G16G27G30               -0.000061245
  20898806.675 7  -2564360.895 7  -1931880.08649  20898808.10149
  21108225.425 7  -2255430.922 7  -1709043.38749  21108222.83149
  20934784.472 6   -368212.961 6   -277820.67249  20934784.31549
  19879618.839 6  -1391395.773 6  -1051436.34849  19879615.70249
  23291420.284 3    -31821.914 3   -140912.96945  23291420.84345
  22908498.323 2     74967.035 2    102005.01645  22908499.72645
  23472559.183 4  -2703264.270 4  -2052702.50848  23472558.46048
 20  5 16  3 49 35.9990000  0  7G01G07G08G11G16G27G30               -0.000062769
  20897837.847 6  -2569452.602 6  -1935847.64849  20897838.81249
  21107373.667 7  -2259908.426 7  -1712532.35249  21107370.78449
  20934651.097 6   -368911.738 6   -278365.17649  20934650.90549
  19879106.534 6  -1394087.484 6  -1053533.78549  19879103.58949
  23291297.136 3    -32475.574 3   -141422.28945  23291296.34745
  22908561.862 2     75298.316 2    102263.19145  22908562.88645
  23471492.073 4  -2708871.980 4  -2057072.15248  23471491.36648
 20  5 16  3 49 36.9990000  0  7G01G07G08G11G16G27G30               -0.000064293
  20896869.058 6  -2574543.789 6  -1939814.80949  20896870.44449
  21106521.995 7  -2264385.363 7  -1716020.87549  21106518.80049
  20934518.558 6   -369610.367 6   -278909.55949  20934518.03449
  19878594.456 6  -1396778.613 6  -1055630.76649  19878591.79249
  23291172.300 3    -33129.035 3   -141931.48045  23291171.78045
  22908624.487 2     75629.598 2    102521.36345  22908625.96045
  23470425.269 4  -2714479.434 4  -2061441.60548  23470424.56548
 20  5 16  3 49 37.9990000  0  7G01G07G08G11G16G27G30               -0.000065817
  20895900.440 6  -2579634.406 6  -1943781.52349  20895901.85549
  21105670.222 7  -2268861.734 7  -1719508.95749  21105667.02249
  20934385.706 6   -370308.734 6   -279453.73849  20934385.08949
  19878082.034 6  -1399469.094 6  -1057727.24649  19878079.61649
  23291048.081 3    -33782.258 3   -142440.48845  23291047.75345
  22908689.011 3     75960.980 3    102779.57845  22908688.92145
  23469358.440 4  -2720086.586 4  -2065810.81348  23469357.44848
 20  5 16  3 49 38.9990000  0  7G01G07G08G11G16G27G30               -0.000067341
  20894931.597 6  -2584724.461 6  -1947747.79749  20894932.63649
  21104818.300 7  -2273337.547 7  -1722996.60549  21104815.48349
  20934252.698 6   -371006.879 6   -279997.75049  20934252.47649
  19877570.620 6  -1402158.945 6  -1059823.23849  19877567.92949
  23290924.425 3    -34435.391 3   -142949.44145  23290923.18345
  22908750.972 3     76292.289 3    103037.72345  22908752.10545
  23468291.315 4  -2725693.410 4  -2070179.76648  23468290.26948
 20  5 16  3 49 39.9990000  0  7G01G07G08G11G16G27G30               -0.000068865
  20893963.128 6  -2589813.992 6  -1951713.66849  20893964.36649
  21103966.870 7  -2277812.793 7  -1726483.80549  21103963.95649
  20934120.058 6   -371704.832 6   -280541.60949  20934119.49149
  19877058.948 6  -1404848.184 6  -1061918.74649  19877056.05049
  23290799.823 3    -35088.188 3   -143458.11745  23290798.98745
  22908814.230 3     76623.613 3    103295.93045  22908814.77645
  23467224.480 5  -2731299.984 5  -2074548.52048  23467223.26548
 20  5 16  3 49 40.9990000  0  7G01G07G08G11G16G27G30               -0.000070387
  20892994.909 6  -2594902.973 6  -1955679.10549  20892996.05449
  21103114.964 7  -2282287.484 7  -1729970.57849  21103111.97649
  20933987.690 6   -372402.578 6   -281085.30949  20933986.73349
  19876547.112 6  -1407536.805 6  -1064013.78149  19876544.39449
  23290675.495 3    -35740.934 3   -143966.75845  23290674.91345
  22908877.995 3     76954.961 3                
  23466157.487 4  -2736906.242 4  -2078917.03948  23466156.67948
 20  5 16  3 49 41.9990000  0  7G01G07G08G11G16G27G30               -0.000071911
  20892026.425 6  -2599991.395 6  -1959644.11349  20892027.64049
  21102263.698 7  -2286761.590 7  -1733456.89149  21102260.85849
  20933854.628 6   -373100.066 6   -281628.80949  20933853.92149
  19876035.784 6  -1410224.773 6  -1066108.29749  19876032.74949
  23290551.089 3    -36393.414 3   -144475.20345  23290550.86645
  22908940.472 2     77286.461 2                
  23465090.511 4  -2742512.164 4  -2083285.28948  23465089.53448
 20  5 16  3 49 42.9990000  0  7G01G07G08G11G16G27G30               -0.000073435
  20891058.347 7  -2605079.219 7  -1963608.65249  20891059.35849
  21101412.581 7  -2291235.094 7  -1736942.73849  21101409.54249
  20933722.120 6   -373797.340 6   -282172.14549  20933721.18349
  19875524.558 6  -1412912.082 6  -1068202.30549  19875521.35149
  23290426.612 3    -37045.699 3   -144983.46546  23290426.54246
  22909002.800 2     77617.914 2                
  23464023.940 5  -2748117.816 5  -2087653.32448  23464022.86248
 20  5 16  3 49 43.9990000  0  7G01G07G08G11G16G27G30               -0.000074959
  20890090.183 6  -2610166.598 6  -1967572.84049  20890091.28049
  21100561.253 7  -2295708.102 7  -1740428.19549  21100558.63649
  20933589.800 6   -374494.469 6   -282715.35249  20933588.78849
  19875012.925 6  -1415598.852 6  -1070295.89149  19875010.21449
  23290302.558 3    -37697.773 3   -145491.57046  23290302.65546
  22909065.214 2     77949.359 2                
  23462957.917 4  -2753723.203 4  -2092021.16448  23462955.86648
 20  5 16  3 49 44.9990000  0  7G01G07G08G11G16G27G30               -0.000076481
  20889122.151 6  -2615253.418 6  -1971536.59849  20889123.24149
  21099710.183 7  -2300180.563 7  -1743913.23049  21099707.05049
  20933456.980 6   -375191.367 6   -283258.39149  20933455.91749
  19874501.784 6  -1418284.980 6  -1072388.97349  19874498.94049
  23290179.276 3    -38349.676 3   -145999.54346  23290178.83946
  22909128.972 3     78280.859 3                
  23461891.230 5  -2759328.316 5  -2096388.78948  23461889.56548
 20  5 16  3 49 45.9990000  0  7G01G07G08G11G16G27G30               -0.000078005
  20888154.440 6  -2620339.699 6  -1975499.93449  20888155.53049
  21098859.284 7  -2304652.465 7  -1747397.82449  21098856.19449
  20933323.925 6   -375888.066 6   -283801.27749  20933323.27649
  19873990.753 6  -1420970.504 6  -1074481.59049  19873987.95649
  23290055.065 3    -39001.469 3   -146507.44146  23290054.84346
  22909192.690 2     78612.336 2                
  23460824.737 5  -2764933.121 5  -2100756.16848  23460823.04648
 20  5 16  3 49 46.9990000  0  7G01G07G08G11G16G27G30               -0.000079529
  20887186.433 6  -2625425.410 6  -1979462.82849  20887187.91349
  21098008.503 7  -2309123.777 7  -1750881.96549  21098005.34749
  20933191.620 6   -376584.543 6   -284343.98849  20933190.85849
  19873480.214 6  -1423655.375 6  -1076573.69949  19873477.33149
  23289931.667 3    -39653.023 3   -147015.13346  23289930.19446
  22909254.800 2     78943.852 2                
  23459757.448 4  -2770537.652 4  -2105123.33248  23459756.54248
 20  5 16  3 49 47.9990000  0  7G01G07G08G11G16G27G30               -0.000081051
  20886218.940 6  -2630510.551 6  -1983425.27749  20886219.89449
  21097157.815 7  -2313594.508 7  -1754365.64849  21097154.60849
  20933058.980 6   -377280.754 6   -284886.49649  20933058.56949
  19872969.323 6  -1426339.590 6  -1078665.29349  19872966.46849
  23289806.706 3    -40304.324 3   -147522.64846  23289806.85146
  22909317.831 2     79275.488 2                
  23458690.870 5  -2776141.809 5  -2109490.20748  23458690.08548
 20  5 16  3 49 48.9990000  0  7G01G07G08G11G16G27G30               -0.000082575
  20885251.206 7  -2635595.121 7  -1987387.28549  20885252.76149
  21096306.894 7  -2318064.652 7  -1757848.88349  21096303.58149
  20932926.589 6   -377976.770 6   -285428.84049  20932926.01949
  19872458.495 7  -1429023.199 7  -1080756.41849  19872455.83949
  23289683.808 4    -40955.473 4   -148030.05946  23289682.91346
  22909381.339 2     79607.070 2                
  23457625.097 5  -2781745.699 5  -2113856.87548  23457623.49148
 20  5 16  3 49 49.9990000  0  7G01G07G08G11G16G27G30               -0.000084097
  20884283.417 7  -2640679.156 7  -1991348.86349  20884284.84749
  21095456.628 7  -2322534.242 7  -1761331.68049  21095453.46449
  20932794.222 6   -378672.531 6   -285970.99249  20932793.43349
  19871947.940 7  -1431706.156 7  -1082847.03149  19871945.52649
  23289559.628 3    -41606.383 3   -148537.26246  23289558.92946
  22909443.565 2     79938.766 2                
  23456558.534 5  -2787349.266 5  -2118223.28948  23456557.35848
 20  5 16  3 49 50.9990000  0  7G01G07G08G11G16G27G30               -0.000085621
  20883316.495 7  -2645762.645 7  -1995310.02049  20883317.24149
  21094606.261 7  -2327003.262 7  -1764814.03949  21094602.77249
  20932661.628 6   -379368.102 6   -286513.00049  20932661.33949
  19871437.581 7  -1434388.484 7  -1084937.15649  19871435.10549
  23289435.823 3    -42257.113 3   -149044.32445  23289435.74145
  22909507.011 2     80270.531 2                
  23455492.042 5  -2792952.574 5  -2122589.50448  23455491.29248
 20  5 16  3 49 51.9990000  0  7G01G07G08G11G16G27G30               -0.000087145
  20882348.987 7  -2650845.621 7  -1999270.78149  20882350.04649
  21093755.737 7  -2331471.773 7  -1768295.99649  21093752.15949
  20932529.308 6   -380063.520 6   -287054.88349  20932528.91349
  19870927.425 7  -1437070.262 7  -1087026.85249  19870924.77649
  23289310.800 3    -42907.703 3   -149551.28945  23289311.47645
  22909569.50311                                
  23454425.870 5  -2798555.594 5  -2126955.49248  23454424.65148
 20  5 16  3 49 52.9990000  0  7G01G07G08G11G16G27G30               -0.000088667
  20881381.823 7  -2655928.051 7  -2003231.11749  20881383.33549
  21092905.628 7  -2335939.703 7  -1771777.50049  21092901.94449
  20932397.487 6   -380758.719 6   -287596.59449  20932396.77649
  19870417.003 6  -1439751.398 6  -1089116.04749  19870414.23349
  23289187.323 3    -43558.082 3   -150058.07845  23289187.48745
  22909633.370 1                                
  23453360.378 5  -2804158.344 5  -2131321.27348  23453358.99148
 20  5 16  3 49 53.9990000  0  7G01G07G08G11G16G27G30               -0.000090189
  20880414.964 7  -2661009.953 7  -2007191.03549  20880416.06949
  21092055.519 7  -2340407.117 7  -1775258.59849  21092052.32749
  20932265.206 6   -381453.734 6   -288138.17249  20932264.49549
  19869906.800 6  -1442431.918 6  -1091204.76649  19869903.79249
  23289064.401 3    -44208.332 3   -150564.78546  23289063.89746
  22909697.190 1                                
  23452293.792 5  -2809760.793 5  -2135686.81648  23452292.67948
 20  5 16  3 49 54.9990000  0  7G01G07G08G11G16G27G30               -0.000091713
  20879447.894 6  -2666091.355 6  -2011150.56649  20879449.36649
  21091205.550 7  -2344873.984 7  -1778739.27349  21091202.37449
  20932132.769 6   -382148.535 6   -288679.57049  20932132.06549
  19869397.300 6  -1445111.910 6  -1093293.06649  19869393.91349
  23288939.480 3    -44858.402 3   -151071.32446  23288939.98346
  22909759.925 1                                
  23451227.917 5  -2815363.020 5  -2140052.18848  23451226.75348
 20  5 16  3 49 55.9990000  0  7G01G07G08G11G16G27G30               -0.000093235
  20878481.261 6  -2671172.191 6  -2015109.66449  20878482.13649
  21090355.542 7  -2349340.289 7  -1782219.50849  21090352.33949
  20932000.550 6   -382843.125 6   -289220.80949  20931999.79649
  19868886.855 6  -1447791.230 6  -1095380.84849  19868883.76549
  23288817.050 3    -45508.301 3   -151577.73446  23288816.40146
  22909822.886 1     81928.828 1                
  23450161.464 5  -2820964.941 5  -2144417.31348  23450160.26948
 20  5 16  3 49 56.9990000  0  7G01G07G08G11G16G27G30               -0.000094759
  20877514.386 7  -2676252.484 7  -2019068.33249  20877515.55449
  21089505.714 7  -2353806.027 7  -1785699.31349  21089502.24949
  20931868.386 6   -383537.500 6   -289761.88349  20931867.81249
  19868377.347 6  -1450469.918 6  -1097468.13749  19868374.47249
  23288693.308 3    -46157.930 3   -152083.94146  23288692.93346
  22909886.823 2     82260.609 2                
  23449095.808 5  -2826566.551 5  -2148782.19548  23449094.19848
 20  5 16  3 49 57.9990000  0  7G01G07G08G11G16G27G30               -0.000096283
  20876547.730 7  -2681332.242 7  -2023026.58249  20876548.42149
  21088656.081 7  -2358271.215 7  -1789178.67649  21088652.94049
  20931736.425 6   -384231.723 6   -290302.83249  20931735.70249
  19867867.550 6  -1453148.016 6  -1099554.96949  19867865.33949
  23288570.495 3    -46807.461 3   -152590.08246  23288569.30846
  22909950.253 1     82592.383 1                
  23448029.886 5  -2832167.883 5  -2153146.87948  23448028.74148
 20  5 16  3 49 58.9990000  0  7G01G07G08G11G16G27G30               -0.000097805
  20875581.261 7  -2686411.500 7  -2026984.45349  20875582.45649
  21087806.409 7  -2362735.859 7  -1792657.62149  21087803.24149
  20931604.433 6   -384925.754 6   -290843.63349  20931603.83549
  19867358.433 6  -1455825.508 6  -1101641.32849  19867355.31249
  23288446.323 3    -47456.758 3   -153096.02345  23288445.75745
  22910013.769 2     82924.125 2                
  23446964.214 5  -2837768.945 5  -2157511.35248  23446962.57348
 20  5 16  3 49 59.9990000  0  7G01G07G08G11G16G27G30               -0.000099327
  20874614.659 6  -2691490.117 6  -2030941.81649  20874615.71449
  21086957.034 7  -2367199.887 7  -1796136.08649  21086953.18349
  20931472.464 6   -385619.473 6   -291384.19149  20931472.18349
  19866849.042 6  -1458502.344 6  -1103727.17649  19866845.91349
  23288322.284 3    -48105.859 3   -153601.82845  23288321.87445
  22910075.636 2     83255.922 2                
  23445898.136 5  -2843369.664 5  -2161875.54748  23445897.11648
 20  5 16  3 50  0.9990000  0  7G01G07G08G11G16G27G30               -0.000100851
  20873648.347 7  -2696568.223 7  -2034898.78149  20873649.83949
  21086107.495 7  -2371663.344 7  -1799614.10949  21086104.31949
  20931339.651 6   -386313.035 6   -291924.62949  20931339.62449
  19866339.792 6  -1461178.527 6  -1105812.51249  19866336.67549
  23288197.636 2    -48754.781 2   -154107.50445  23288198.59745
  22910140.050 2     83587.781 2                
  23444832.097 5  -2848970.047 5  -2166239.47748  23444831.38248
 20  5 16  3 50  1.9990000  0  7G01G07G08G11G16G27G30               -0.000102373
  20872682.464 6  -2701645.813 6  -2038855.34449  20872683.52649
  21085258.230 7  -2376126.277 7  -1803091.71549  21085255.12449
  20931208.425 6   -387006.395 6   -292464.91049  20931207.96449
  19865830.667 6  -1463854.129 6  -1107897.39549  19865827.50749
  23288075.526 3    -49403.496 3   -154612.98845  23288075.01545
  22910202.956 3     83919.672 3                
  23443766.519 5  -2854570.207 5  -2170603.23448  23443765.75348
 20  5 16  3 50  2.9990000  0  7G01G07G08G11G16G27G30               -0.000103897
  20871715.839 6  -2706722.887 6  -2042811.50049  20871717.37049
  21084409.370 7  -2380588.699 7  -1806568.93449  21084405.64749
  20931076.831 6   -387699.590 6   -293005.06349  20931075.85549
  19865321.558 6  -1466529.164 6  -1109981.83649  19865318.55449
  23287951.784 3    -50052.148 3   -155118.44145  23287951.55445
  22910265.862 3     84251.453 3                
  23442700.972 5  -2860170.117 5  -2174966.80548  23442700.23048
 20  5 16  3 50  3.9990000  0  7G01G07G08G11G16G27G30               -0.000105419
  20870749.948 7  -2711799.379 7  -2046767.19949  20870751.12849
  21083560.183 7  -2385050.520 7  -1810045.67649  21083556.89449
  20930944.667 6   -388392.520 6   -293545.00849  20930944.16749
  19864812.550 6  -1469203.520 6  -1112065.75049  19864810.01949
  23287828.972 3    -50700.422 3   -155623.59045  23287827.88645
  22910330.269 3     84583.410 3                
  23441635.870 5  -2865769.672 5  -2179330.09048  23441634.38248
 20  5 16  3 50  4.9990000  0  7G01G07G08G11G16G27G30               -0.000106941
  20869784.464 7  -2716875.277 7  -2050722.44149  20869785.53049
  21082710.940 7  -2389511.746 7  -1813521.95349  21082708.14449
  20930812.823 6   -389085.195 6   -294084.75449  20930812.49549
  19864303.456 6  -1471877.230 6  -1114149.15649  19864300.84349
  23287705.120 2    -51348.641 2   -156128.69545  23287704.82345
  22910392.300 3     84915.219 3                
  23440570.245 5  -2871368.934 5  -2183693.14848  23440569.01548
 20  5 16  3 50  5.9990000  0  7G01G07G08G11G16G27G30               -0.000108465
  20868818.589 7  -2721950.637 7  -2054677.27049  20868819.51949
  21081862.667 7  -2393972.402 7  -1816997.79349  21081859.30449
  20930680.472 6   -389777.668 6   -294624.34049  20930680.80449
  19863794.925 6  -1474550.313 6  -1116232.07849  19863791.83549
  23287581.839 2    -51996.520 2   -156633.52045  23287581.05845
  22910455.776 3     85247.281 3                
  23439504.464 5  -2876967.902 5  -2188055.97748  23439503.46048
 20  5 16  3 50  6.9990000  0  7G01G07G08G11G16G27G30               -0.000109987
  20867852.464 7  -2727025.484 7  -2058631.69549  20867853.88249
  21081013.612 7  -2398432.504 7  -1820473.19549  21081010.55449
  20930549.058 6   -390469.949 6   -295163.78549  20930548.68749
  19863286.378 7  -1477222.813 7  -1118314.55549  19863283.78049
  23287458.315 2    -52644.328 2   -157138.29745  23287457.58545
  22910518.706 3     85579.234 3                
  23438438.839 5  -2882566.555 5  -2192418.56648  23438438.32748
 20  5 16  3 50  7.9990000  0  7G01G07G08G11G16G27G30               -0.000111509
  20866886.933 7  -2732099.750 7  -2062585.67249  20866888.16749
  21080164.956 7  -2402892.051 7  -1823948.17249  21080161.89449
  20930417.456 6   -391162.035 6   -295703.07449  20930417.14049
  19862778.237 6  -1479894.688 6  -1120396.53149  19862775.15549
  23287335.073 1    -53291.961 1   -157642.94545  23287334.91345
  22910582.058 3     85911.230 3                
  23437373.097 5  -2888164.957 5  -2196780.95748  23437372.56948
 20  5 16  3 50  8.9990000  0  7G01G07G08G11G16G27G30               -0.000113033
  20865921.308 7  -2737173.500 7  -2066539.24249  20865923.19049
  21079316.308 7  -2407351.063 7  -1827422.73049  21079313.39749
  20930285.370 6   -391853.953 6   -296242.23049  20930285.45249
  19862269.651 6  -1482565.938 6  -1122478.02749  19862266.78849
  23287211.214 1    -53939.336 1   -158147.41445  23287211.81945
  22910645.487 3     86243.250 3                
  23436308.565 5  -2893763.066 5  -2201143.12148  23436306.98348
 20  5 16  3 50  9.9990000  0  7G01G07G08G11G16G27G30               -0.000114559
  20864956.003 7  -2742246.746 7  -2070492.41849  20864957.54249
  21078468.050 7  -2411809.531 7  -1830896.86349  21078464.96049
  20930154.605 6   -392545.637 6   -296781.20749  20930154.12849
  19861761.534 6  -1485236.594 6  -1124559.05949  19861758.55849
  23287087.10511                   -158651.74655  23287088.24155
  22910708.542 3     86575.281 3                
  23435242.855 4  -2899360.871 4  -2205505.05148  23435242.17548
 20  5 16  3 50 10.9990000  0  7G01G07G08G11G16G27G30               -0.000116079
  20863990.472 7  -2747319.469 7  -2074445.18449  20863992.12449
  21077620.097 7  -2416267.477 7  -1834370.58649  21077616.67949
  20930022.605 6   -393237.180 6   -297320.07449  20930022.87449
  19861253.503 6  -1487906.688 6  -1126639.64849  19861250.53849
  23286963.230 1    -55233.648 1   -159155.96945  23286964.89745
  22910771.370 3     86907.250 3                
  23434177.761 4  -2904958.480 4  -2209866.82048  23434176.89748
 20  5 16  3 50 11.9990000  0  7G01G07G08G11G16G27G30               -0.000117599
  20863025.378 7  -2752391.656 7  -2078397.53949  20863027.17949
  21076771.667 7  -2420724.863 7  -1837843.87949  21076768.14749
  20929891.011 6   -393928.535 6   -297858.78949  20929890.81549
  19860745.339 6  -1490576.141 6  -1128719.74649  19860742.58549
  23286841.683 1    -55880.570 1   -159660.06345  23286842.16745
  22910834.542 4     87239.219 4                
  23433112.401 4  -2910555.773 4  -2214228.34448  23433111.74948
 20  5 16  3 50 12.9990000  0  7G01G07G08G11G16G27G30               -0.000119123
  20862060.456 7  -2757463.281 7  -2082349.45749  20862061.56549
  21075923.612 7  -2425181.699 7  -1841316.73849  21075920.22249
  20929759.526 6   -394619.668 6   -298397.33249  20929759.19449
  19860237.261 6  -1493244.977 6  -1130799.35549  19860234.25349
  23286717.448 1    -56527.355 1   -160164.03145  23286718.96845
  22910899.269 4     87571.238 4                
  23432047.472 4  -2916152.762 4  -2218589.62948  23432046.75748
 20  5 16  3 50 13.9990000  0  7G01G07G08G11G16G27G30               -0.000120646
  20861095.495 7  -2762534.328 7  -2086300.91849  20861097.01149
  21075075.487 7  -2429637.926 7  -1844789.12149  21075072.28449
  20929628.573 6   -395310.516 6   -298935.66049  20929628.19449
  19859729.612 6  -1495913.152 6  -1132878.44549  19859727.08949
  23286593.026 1    -57173.766 1   -160667.70745  23286595.47645
  22910961.401 3     87903.359 3                
  23430982.019 4  -2921749.453 4  -2222950.69547  23430981.52647
 20  5 16  3 50 14.9990000  0  7G01G07G08G11G16G27G30               -0.000122171
  20860130.542 7  -2767604.848 7  -2090251.96949  20860131.96849
  21074227.487 7  -2434093.590 7  -1848261.06349  21074224.40549
  20929496.581 6   -396001.211 6   -299473.86349  20929496.54249
  19859221.808 6  -1498580.727 6  -1134957.08649  19859219.51949
  23286469.67511    -57820.19911   -161171.39555  23286472.27255
  22911023.956 3     88235.465 3                
  23429916.698 4  -2927345.816 4  -2227311.49247  23429917.20647
 20  5 16  3 50 15.9990000  0  7G01G07G08G11G16G27G30               -0.000123692
  20859165.823 7  -2772674.852 7  -2094202.62949  20859167.16349
  21073380.011 7  -2438548.738 7  -1851732.61349  21073376.83549
  20929365.519 6   -396691.680 6   -300011.89549  20929364.86249
  19858714.831 6  -1501247.715 6  -1137035.25449  19858711.37449
  23286346.46411                   -161674.87555  23286349.82755
  22911087.261 2     88567.504 2                
  23428851.886 4  -2932941.927 4  -2231672.09648  23428851.94448
 20  5 16  3 50 16.9990000  0  7G01G07G08G11G16G27G30               -0.000125216
  20858201.089 7  -2777744.316 7  -2098152.85949  20858202.64049
  21072532.120 7  -2443003.344 7  -1855203.72749  21072529.32349
  20929233.933 6   -397382.004 6   -300549.81349  20929234.14749
  19858206.894 6  -1503914.086 6  -1139112.94549  19858204.66349
  23286222.05011                   -162178.19555  23286226.64755
  22911150.401 3     88899.629 3                
  23427787.628 4  -2938537.773 4  -2236032.48848  23427786.93348
 20  5 16  3 50 17.9990000  0  7G01G07G08G11G16G27G30               -0.000126738
  20857236.612 7  -2782813.234 7  -2102102.66049  20857238.06549
  21071684.980 7  -2447457.371 7  -1858674.40649  21071681.58949
  20929102.503 6   -398072.082 6   -301087.53949  20929102.25749
  19857699.948 6  -1506579.832 6  -1141190.15249  19857696.71049
  23286099.980 1    -59758.070 1   -162681.47745  23286104.24945
  22911213.706 3     89231.746 3                
  23426722.855 4  -2944133.320 4  -2240392.65648  23426722.81548
 20  5 16  3 50 18.9990000  0  7G01G07G08G11G16G27G30               -0.000128262
  20856271.745 7  -2787881.633 7  -2106052.05949  20856273.33949
  21070837.230 7  -2451910.871 7  -1862144.66449  21070833.75749
  20928971.628 6   -398761.988 6   -301625.12149  20928971.12049
  19857192.870 6  -1509245.000 6  -1143266.90649  19857189.59349
  23285976.54211                   -163184.63355  23285981.27655
  22911276.487 3     89563.879 3                
  23425657.862 4  -2949728.574 4  -2244752.59048  23425657.90948
 20  5 16  3 50 19.9990000  0  7G01G07G08G11G16G27G30               -0.000129782
  20855307.792 7  -2792949.477 7  -2110001.02749  20855309.39449
  21069989.565 7  -2456363.789 7  -1865614.46949  21069987.08149
  20928839.933 6   -399451.684 6   -302162.55149  20928839.90949
  19856685.464 6  -1511909.590 6  -1145343.20749  19856682.44449
  23285854.44811                   -163687.50455  23285858.86655
  22911338.534 2     89896.016 2                
  23424592.573 4  -2955323.539 4  -2249112.30548  23424593.65148
 20  5 16  3 50 20.9990000  0  7G01G07G08G11G16G27G30               -0.000131304
  20854343.433 7  -2798016.844 7  -2113949.62949  20854344.68349
  21069142.464 7  -2460816.211 7  -1869083.89549  21069139.63649
  20928708.823 6   -400141.227 6   -302699.85949  20928709.06949
  19856178.980 6  -1514573.516 6  -1147418.98849  19856175.64749
  23285733.480 1                   -164190.34445  23285735.67545
  22911402.651 2     90228.188 2                
  23423528.511 4  -2960918.285 4  -2253471.83648  23423528.85548
 20  5 16  3 50 21.9990000  0  7G01G07G08G11G16G27G30               -0.000132826
  20853378.909 6  -2803083.680 6  -2117897.80549  20853380.50349
  21068295.230 7  -2465268.109 7  -1872552.90249  21068292.19849
  20928577.995 6   -400830.602 6   -303237.03949  20928577.24149
  19855672.034 6  -1517236.934 6  -1149494.38749  19855668.96849
  23285609.987 1                   -164693.13745  23285612.57745
  22911466.644 3     90560.215 3                
  23422463.245 4  -2966512.766 4  -2257831.17648  23422464.40948
 20  5 16  3 50 22.9990000  0  7G01G07G08G11G16G27G30               -0.000134348
  20852415.112 7  -2808150.020 7  -2121845.60249  20852416.90549
  21067448.097 7  -2469719.453 7  -1876021.48449  21067445.32349
  20928446.112 6   -401519.781 6   -303774.06349  20928446.51549
  19855165.065 6  -1519899.742 6  -1151569.30549  19855161.89449
  23285486.40911                   -165195.72355  23285490.12055
  22911528.315 2     90892.367 2                
  23421398.987 4  -2972106.992 4  -2262190.31648  23421399.56948
 20  5 16  3 50 23.9990000  0  7G01G07G08G11G16G27G30               -0.000135870
  20851451.253 6  -2813215.789 6  -2125792.95749  20851452.80849
  21066601.378 7  -2474170.238 7  -1879489.62949  21066598.54649
  20928315.440 6   -402208.770 6   -304310.93849  20928315.44049
  19854658.409 6  -1522561.926 6  -1153643.72749  19854655.16349
  23285365.706 1                   -165698.05945  23285367.81545
  22911593.206 3     91224.414 3                
  23420335.097 4  -2977700.891 4  -2266549.20348  23420335.89448
 20  5 16  3 50 24.9990000  0  7G01G07G08G11G16G27G30               -0.000137392
  20850487.097 6  -2818280.988 6  -2129739.85949  20850488.86249
  21065754.472 7  -2478620.453 7  -1882957.33249  21065751.26149
  20928183.644 6   -402897.488 6   -304847.59849  20928184.20249
  19854152.323 7  -1525223.461 7  -1155717.65249  19854149.36649
  23285244.644 1                   -166200.32845  23285245.14045
  22911655.776 1     91556.527 1                
  23419270.401 4  -2983294.477 4  -2270907.82048  23419271.22648
 20  5 16  3 50 25.9990000  0  7G01G07G08G11G16G27G30               -0.000138916
  20849523.097 7  -2823345.680 7  -2133686.37549  20849525.17549
  21064907.565 7  -2483070.105 7  -1886424.59049  21064904.87049
  20928052.855 6   -403586.066 6   -305384.16049  20928053.21449
  19853645.948 6  -1527884.406 6  -1157791.11749  19853642.62449
  23285122.706 2    -64918.391 2   -166702.45745  23285122.28845
  22911719.620 3     91888.770 3                
  23418206.144 4  -2988887.801 4  -2275266.27048  23418206.70248
 20  5 16  3 50 26.9990000  0  7G01G07G08G11G16G27G30               -0.000140436
  20848559.448 7  -2828409.789 7  -2137632.43849  20848561.48049
  21064060.823 7  -2487519.180 7  -1889891.39849  21064057.92949
  20927922.261 6   -404274.414 6   -305920.53149  20927922.39749
  19853139.565 6  -1530544.703 6  -1159864.07849  19853136.41749
  23285000.526 2    -65562.563 2   -167204.43845  23284999.54245
  22911783.230 3     92220.906 3                
  23417141.784 3  -2994480.801 3  -2279624.44548  23417142.68748
 20  5 16  3 50 27.9990000  0  7G01G07G08G11G16G27G30               -0.000141958
  20847596.308 7  -2833473.379 7  -2141578.08649  20847597.85549
  21063214.550 7  -2491967.715 7  -1893357.79349  21063211.28049
  20927791.433 6   -404962.598 6   -306456.78149  20927791.24949
  19852633.409 6  -1533204.414 6  -1161936.57849  19852630.47249
  23284877.909 1    -66206.535 1   -167706.27045  23284877.15145
  22911846.355 3     92553.129 3                
  23416077.581 4  -3000073.508 4  -2283982.39548  23416078.12848
 20  5 16  3 50 28.9990000  0  7G01G07G08G11G16G27G30               -0.000143478
  20846632.605 7  -2838536.469 7  -2145523.34449  20846634.19449
  21062368.151 7  -2496415.723 7  -1896823.77349  21062365.19849
  20927660.659 6   -405650.594 6   -306992.88749  20927660.61649
  19852127.370 6  -1535863.531 6  -1164008.62149  19852124.02649
  23284756.011 2    -66850.504 2   -168208.07845  23284754.76945
  22911908.581 3     92885.289 3                
  23415012.933 4  -3005666.027 4  -2288340.20748  23415014.01948
 20  5 16  3 50 29.9990000  0  7G01G07G08G11G16G27G30               -0.000145002
  20845669.565 7  -2843598.930 7  -2149468.11349  20845671.29249
  21061521.644 7  -2500863.133 7  -1900289.28949  21061519.04649
  20927529.644 6   -406338.328 6   -307528.78149  20927529.68749
  19851621.448 6  -1538522.004 6  -1166080.16049  19851617.94449
  23284633.026 2    -67494.109 2   -168709.58245  23284632.06245
  22911971.698 3     93217.531 3                
  23413949.042 4  -3011258.152 4  -2292697.69948  23413950.08948
 20  5 16  3 50 30.9990000  0  7G01G07G08G11G16G27G30               -0.000146524
  20844706.237 7  -2848660.918 7  -2153412.52049  20844707.77649
  21060675.394 7  -2505309.992 7  -1903754.37149  21060672.73749
  20927397.948 6   -407025.922 6   -308064.56649  20927398.30449
  19851115.917 6  -1541179.883 6  -1168151.22749  19851112.51549
  23284510.362 2    -68137.574 2   -169211.00445  23284509.81245
  22912035.987 2     93549.730 2                
  23412885.042 4  -3016850.020 4  -2297054.99648  23412886.17548
 20  5 16  3 50 31.9990000  0  7G01G07G08G11G16G27G30               -0.000148045
  20843743.269 7  -2853722.383 7  -2157356.52049  20843744.60149
  21059829.144 7  -2509756.340 7  -1907219.05549  21059826.60149
  20927267.480 6   -407713.328 6   -308600.20749  20927267.62049
  19850609.995 6  -1543837.176 6  -1170221.84849  19850607.07749
  23284387.519 2    -68780.895 2   -169712.29345  23284387.19445
  22912099.073 3     93881.930 3                
  23411821.065 4  -3022441.664 4  -2301412.12148  23411821.94048
 20  5 16  3 50 32.9990000  0  7G01G07G08G11G16G27G30               -0.000149569
  20842779.909 7  -2858783.273 7  -2161300.06649  20842781.82749
  21058983.269 7  -2514202.109 7  -1910683.28949  21058980.61649
  20927136.737 6   -408400.551 6   -309135.70349  20927136.94449
  19850104.519 6  -1546493.836 6  -1172291.97349  19850101.37849
  23284264.151 2    -69424.070 2   -170213.45345  23284264.63645
  22912162.222 2     94214.199 2                
  23410756.440 4  -3028032.949 4  -2305768.96948  23410757.46448
 20  5 16  3 50 33.9990000  0  7G01G07G08G11G16G27G30               -0.000151089
  20841816.776 7  -2863843.637 7  -2165243.20749  20841818.79649
  21058137.651 7  -2518647.316 7  -1914147.08649  21058135.16749
  20927005.901 6   -409087.520 6   -309671.00849  20927006.39749
  19849598.722 6  -1549149.879 6  -1174361.61749  19849595.58949
  23284142.776 2    -70066.969 2   -170714.39845  23284141.99545
  22912224.456 2     94546.484 2                
  23409692.628 4  -3033623.984 4  -2310125.62948  23409693.71448
 20  5 16  3 50 34.9990000  0  7G01G07G08G11G16G27G30               -0.000152611
  20840854.245 7  -2868903.434 7  -2169185.90649  20840855.66349
  21057291.573 7  -2523091.949 7  -1917610.43849  21057289.07349
  20926875.605 6   -409774.316 6   -310206.18049  20926875.41349
  19849093.464 6  -1551805.305 6  -1176430.77749  19849090.38249
  23284020.261 2    -70709.695 2   -171215.20745  23284019.69045
  22912287.573 2     94878.727 2                
  23408628.534 4  -3039214.680 4  -2314482.02048  23408629.87448
 20  5 16  3 50 35.9990000  0  7G01G07G08G11G16G27G30               -0.000154133
  20839891.605 7  -2873962.707 7  -2173128.19949  20839893.11249
  21056445.948 7  -2527536.043 7  -1921073.36749  21056443.10549
  20926744.706 6   -410460.918 6   -310741.19949  20926744.72249
  19848588.800 6  -1554460.121 6  -1178499.46149  19848585.24149
  23283898.308 2    -71352.293 2   -171715.90645  23283897.67145
  22912351.862 2     95211.059 2                
  23407565.300 4  -3044805.121 4  -2318838.19548  23407565.88248
 20  5 16  3 50 36.9990000  0  7G01G07G08G11G16G27G30               -0.000155655
  20838928.722 7  -2879021.445 7  -2177070.07849  20838930.54249
  21055600.417 7  -2531979.566 7  -1924535.84849  21055597.69849
  20926614.050 6   -411147.313 6   -311276.04749  20926613.98749
  19848083.573 6  -1557114.359 6  -1180567.69949  19848080.35549
  23283775.886 2    -71994.695 2   -172216.50845  23283775.58945
  22912415.315 2     95543.301 2                
  23406502.089 3  -3050395.305 3  -2323194.18448  23406501.87448
 20  5 16  3 50 37.9990000  0  7G01G07G08G11G16G27G30               -0.000157177
  20837966.214 7  -2884079.602 7  -2181011.50049  20837967.88249
  21054755.073 7  -2536422.574 7  -1927997.93449  21054752.09349
  20926483.526 6   -411833.488 6   -311810.73049  20926483.24149
  19847578.128 6  -1559767.930 6  -1182635.41449  19847575.46449
  23283652.667 3    -72636.895 3   -172716.93445  23283652.71045
  22912477.448 2     95875.652 2                
  23405437.722 4  -3055985.117 4  -2327549.87948  23405438.39448
 20  5 16  3 50 38.9990000  0  7G01G07G08G11G16G27G30               -0.000158697
  20837003.612 7  -2889137.215 7  -2184952.49249  20837005.34749
  21053909.651 7  -2540864.949 7  -1931459.52349  21053906.51549
  20926353.151 6   -412519.395 6   -312345.21149  20926352.89749
  19847073.417 6  -1562420.887 6  -1184702.66049  19847070.16749
  23283531.550 3    -73278.871 3   -173217.25445  23283531.10145
  22912542.198 2     96208.023 2                
  23404374.175 4  -3061574.660 4  -2331905.36348  23404374.61248
 20  5 16  3 50 39.9990000  0  7G01G07G08G11G16G27G30               -0.000160219
  20836041.222 7  -2894194.301 7  -2188893.07849  20836043.17549
  21053064.409 7  -2545306.816 7  -1934920.71549  21053061.65149
  20926222.487 6   -413205.199 6   -312879.59849  20926222.51549
  19846568.917 6  -1565073.242 6  -1186769.43049  19846565.69849
  23283409.339 3    -73920.691 3   -173717.39545  23283409.05845
  22912603.370 2     96540.379 2                
  23403310.409 4  -3067163.930 4  -2336260.63748  23403310.80448
 20  5 16  3 50 40.9990000  0  7G01G07G08G11G16G27G30               -0.000161741
  20835079.019 7  -2899250.848 7  -2192833.23449  20835081.05049
  21052219.284 7  -2549748.117 7  -1938381.47349  21052216.33549
  20926092.019 6   -413890.766 6   -313413.80549  20926091.94449
  19846064.019 6  -1567724.988 6  -1188835.73049  19846061.04249
  23283286.901 2    -74562.297 2   -174217.32845  23283286.71445
  22912667.487 1     96872.887 1                
  23402247.159 4  -3072752.946 4  -2340615.71748  23402247.22248
 20  5 16  3 50 41.9990000  0  7G01G07G08G11G16G27G30               -0.000163263
  20834117.034 6  -2904306.836 6  -2196772.97349  20834118.96449
  21051374.050 7  -2554188.836 7  -1941841.77049  21051371.33949
  20925961.636 6   -414576.109 6   -313947.83649  20925961.56549
  19845559.456 6  -1570376.113 6  -1190901.53949  19845556.53449
  23283164.839 3    -75203.840 3   -174717.26645  23283164.73045
  22912731.222 1     97205.074 1                
  23401183.894 4  -3078341.582 4  -2344970.49648  23401183.64048
 20  5 16  3 50 42.9990000  0  7G01G07G08G11G16G27G30               -0.000164785
  20833154.667 6  -2909362.273 6  -2200712.26649  20833156.90149
  21050529.073 7  -2558628.992 7  -1945301.62949  21050526.47649
  20925830.815 6   -415261.266 6   -314481.72349  20925831.21449
  19845055.253 6  -1573026.613 6  -1192966.86349  19845052.51549
  23283043.339 3    -75845.023 3                
  22912793.511 1     97537.473 1                
  23400120.948 4  -3083929.953 4  -2349325.07848  23400120.88648
 20  5 16  3 50 43.9990000  0  7G01G07G08G11G16G27G30               -0.000166307
  20832193.261 7  -2914417.125 7  -2204651.10949  20832194.92549
  21049684.284 7  -2563068.563 7  -1948761.03149  21049681.62449
  20925700.980 6   -415946.180 6   -315015.41449  20925701.01149
  19844551.222 6  -1575676.465 6  -1195031.68049  19844548.28449
  23282921.151 2    -76486.125 2                
  22912857.534 1     97870.066 1                
  23399056.831 4  -3089518.004 4  -2353679.40248  23399057.24948
 20  5 16  3 50 44.9990000  0  7G01G07G08G11G16G27G30               -0.000167828
  20831231.206 7  -2919471.457 7  -2208589.55549  20831233.23749
  21048839.487 7  -2567507.578 7  -1952220.00449  21048836.78449
  20925570.480 6   -416630.891 6   -315548.95749  20925570.46049
  19844046.878 6  -1578325.684 6  -1197096.00448  19844043.91748
  23282798.058 2    -77126.965 2                
  22912918.823 1     98202.457 1                
  23397994.417 4  -3095105.762 4  -2358033.49248  23397993.60148
 20  5 16  3 50 45.9990000  0  7G01G07G08G11G16G27G30               -0.000169350
  20830269.261 7  -2924525.250 7  -2212527.56649  20830271.01549
  21047995.042 7  -2571946.059 7  -1955678.56349  21047992.24549
  20925440.855 6   -417315.465 6   -316082.39549  20925440.17549
  19843542.526 6  -1580974.328 6  -1199159.88349  19843540.07749
  23282676.034 1    -77767.645 1                
  22912982.558 1     98534.949 1                
  23396930.448 4  -3100693.285 4  -2362387.41048  23396930.34348
 20  5 16  3 50 46.9990000  0  7G01G07G08G11G16G27G30               -0.000170872
  20829308.065 6  -2929578.480 6  -2216465.14849  20829309.81949
  21047150.550 7  -2576383.969 7  -1959136.67649  21047147.94449
  20925310.237 6   -417999.785 6   -316615.62949  20925310.16749
  19843038.667 6  -1583622.363 6  -1201223.29349  19843036.01149
  23282554.261 1    -78408.188 1                
  22913045.230 1     98867.504 1                
  23395867.245 4  -3106280.488 4  -2366741.06648  23395867.14048
 20  5 16  3 50 47.9990000  0  7G01G07G08G11G16G27G30               -0.000172392
  20828346.440 7  -2934631.207 7  -2220402.34449  20828348.06949
  21046305.987 7  -2580821.320 7  -1962594.35249  21046303.22249
  20925180.144 6   -418683.961 6   -317148.76249  20925180.10849
  19842535.355 6  -1586269.793 6  -1203286.22349  19842532.52649
  23282432.105 1    -79048.438 1                
  22913109.245 1     99199.957 1                
  23394804.136 4  -3111867.379 4  -2371094.48448  23394803.99548
 20  5 16  3 50 48.9990000  0  7G01G07G08G11G16G27G30               -0.000173914
  20827384.894 7  -2939683.402 7  -2224339.11349  20827386.96049
  21045461.636 7  -2585258.152 7  -1966051.62149  21045459.09749
  20925050.214 6   -419367.891 6   -317681.69149  20925049.58549
  19842031.534 6  -1588916.605 6  -1205348.67249  19842028.80449
  23282309.714 1    -79688.641 1                
  22913171.808 1     99532.453 1                
  23393741.237 4  -3117454.020 4  -2375447.70748  23393740.83948
 20  5 16  3 50 49.9990000  0  7G01G07G08G11G16G27G30               -0.000175434
  20826423.972 6  -2944734.977 6  -2228275.39849  20826425.72649
  21044617.456 7  -2589694.355 7  -1969508.40249  21044615.02649
  20924919.870 6   -420051.625 6   -318214.46949  20924919.59349
  19841527.894 6  -1591562.770 6  -1207410.62149  19841525.21049
  23282188.776 1    -80328.602 1                
  22913234.53411                                
  23392678.886 4  -3123040.324 4  -2379800.68048  23392677.74548
 20  5 16  3 50 50.9990000  0  7G01G07G08G11G16G27G30               -0.000176962
  20825462.151 6  -2949786.066 6  -2232211.32049  20825464.53849
  21043773.284 7  -2594130.063 7  -1972964.79749  21043770.59749
  20924789.401 6   -420735.172 6   -318747.09849  20924789.14749
  19841024.612 6  -1594208.359 6  -1209472.12549  19841021.65149
  23282065.96411                                
  22913298.159 1                                
  23391614.761 4  -3128626.371 4  -2384153.44148  23391614.70648
 20  5 16  3 50 51.9990000  0  7G01G07G08G11G16G27G30               -0.000178480
  20824501.706 6  -2954836.672 6  -2236146.85949  20824503.67549
  21042929.769 7  -2598565.227 7  -1976420.77349  21042926.90149
  20924659.901 6   -421418.625 6   -319279.66049  20924659.38649
  19840521.315 6  -1596853.375 6  -1211533.17249  19840518.74549
  23281943.394 1                                
  22913361.948 1                                
  23390552.612 5  -3134212.160 5  -2388506.01248  23390551.70648
 20  5 16  3 50 52.9990000  0  7G01G07G08G11G16G27G30               -0.000180002
  20823540.362 6  -2959886.723 6  -2240081.96149  20823542.68749
  21042085.456 7  -2602999.852 7  -1979876.32849  21042082.83549
  20924529.448 6   -422101.832 6   -319812.02049  20924529.47249
  19840017.792 6  -1599497.813 6  -1213593.77049  19840015.02649
  23281822.253 1                                
  22913425.878 1                                
  23389489.362 4  -3139797.695 4  -2392858.37948  23389488.79648
 20  5 16  3 50 53.9990000  0  7G01G07G08G11G16G27G30               -0.000181524
  20822579.565 6  -2964936.266 6  -2244016.66849  20822581.55449
  21041241.878 7  -2607433.957 7  -1983331.46949  21041239.30049
  20924399.573 6   -422784.887 6   -320344.27749  20924399.45649
  19839515.011 6  -1602141.641 6  -1215653.89549  19839511.85849
  23281701.026 1                                
  22913488.308 1                                
  23388426.519 4  -3145382.953 4  -2397210.52748  23388426.14048
 20  5 16  3 50 54.9990000  0  7G01G07G08G11G16G27G30               -0.000183044
  20821618.394 6  -2969985.219 6  -2247950.91849  20821620.24549
  21040398.347 7  -2611867.449 7  -1986786.14149  21040395.60149
  20924270.245 6   -423467.691 6   -320876.33249  20924269.49549
  19839011.792 6  -1604784.840 6  -1217713.53149  19839009.39049
  23281580.050 1                                
  22913550.97211                                
  23387363.925 5  -3150967.879 5  -2401562.42248  23387363.25348
 20  5 16  3 50 55.9990000  0  7G01G07G08G11G16G27G30               -0.000184566
  20820657.980 6  -2975033.641 6  -2251884.75449  20820660.22649
  21039554.495 7  -2616300.430 7  -1990240.41049  21039552.04249
  20924139.878 6   -424150.383 6   -321408.29749  20924139.53049
  19838509.237 6  -1607427.430 6  -1219772.68849  19838506.48049
  23281456.78411                                
  22913614.808 1    101861.086 1                
  23386301.409 4  -3156552.531 4  -2405914.09448  23386300.82348
 20  5 16  3 50 56.9990000  0  7G01G07G08G11G16G27G30               -0.000186085
  20819696.972 6  -2980081.566 6  -2255818.20749  20819699.17949
  21038711.050 7  -2620732.828 7  -1993694.22749  21038708.66349
  20924009.550 6   -424832.840 6   -321940.09049  20924009.75349
  19838006.370 6  -1610069.426 6  -1221831.38749  19838003.34749
  23281335.159 1                                
  22913678.394 1    102193.594 1                
  23385238.026 4  -3162136.949 4  -2410265.59048  23385237.66348
 20  5 16  3 50 57.9990000  0  7G01G07G08G11G16G27G30               -0.000187609
  20818736.987 6  -2985128.938 6  -2259751.22349  20818738.71049
  21037867.706 7  -2625164.688 7  -1997147.62549  21037865.02249
  20923880.323 6   -425515.125 6   -322471.73849  20923879.61249
  19837503.253 6  -1612710.813 6  -1223889.61749  19837501.02249
  23281213.581 1                                
  22913742.27611                                
  23384175.855 4  -3167721.090 4  -2414616.86748  23384175.18748
 20  5 16  3 50 58.9990000  0  7G01G07G08G11G16G27G30               -0.000189131
  20817776.503 7  -2990175.762 7  -2263683.80949  20817778.41349
  21037024.753 7  -2629595.977 7  -2000600.57849  21037022.15549
  20923750.534 6   -426197.203 6   -323003.22749  20923749.30049
  19837001.105 6  -1615351.586 6  -1225947.36348  19836998.58148
  23281091.690 1                                
  22913804.78411                                
  23383113.081 4  -3173304.891 4  -2418967.87548  23383112.42948
 20  5 16  3 50 59.9990000  0  7G01G07G08G11G16G27G30               -0.000190651
  20816815.839 6  -2995222.055 6  -2267615.98449  20816818.11249
  21036181.214 7  -2634026.727 7  -2004053.11349  21036179.21849
  20923621.159 6   -426879.082 6   -323534.55949  20923620.10849
  19836498.987 6  -1617991.727 6  -1228004.62149  19836495.90549
  23280970.300 1                                
  22913867.401 1                                
  23382050.776 5  -3178888.414 5  -2423318.66848  23382050.16748
 20  5 16  3 51  0.9990000  0  7G01G07G08G11G16G27G30               -0.000192173
  20815855.401 6  -3000267.777 6  -2271547.71949  20815857.89449
  21035338.433 7  -2638456.898 7  -2007505.19149  21035336.00749
  20923491.058 6   -427560.754 6   -324065.72749  20923490.33949
  19835996.425 6  -1620631.313 6  -1230061.44149  19835993.99149
  23280849.495 1    -87356.926 1                
  22913931.901 1    103523.871 1                
  23380988.612 5  -3184471.652 5  -2427669.25448  23380987.65548
 20  5 16  3 51  1.9990000  0  7G01G07G08G11G16G27G30               -0.000193689
  20814896.097 6  -3005313.047 6  -2275479.08649  20814897.59349
  21034495.105 7  -2642886.602 7  -2010956.89849  21034492.97649
  20923361.675 6   -428242.277 6   -324596.77749  20923360.25349
  19835494.550 6  -1623270.289 6  -1232117.78149  19835491.40149
  23280729.011 1    -87994.922 1                
  22913995.355 1    103856.266 1                
  23379925.714 5  -3190054.641 5  -2432019.63348  23379925.44448
 20  5 16  3 51  2.9990000  0  7G01G07G08G11G16G27G30               -0.000195211
  20813935.456 6  -3010357.754 6  -2279410.02749  20813937.85549
  21033652.605 7  -2647315.742 7  -2014408.18449  21033650.11649
  20923231.073 6   -428923.680 6   -325127.73449  20923230.55049
  19834991.972 6  -1625908.688 6  -1234173.68049  19834989.33149
  23280609.261 1    -88632.656 1                
  22914058.308 1    104188.797 1                
  23378863.808 4  -3195637.375 4  -2436369.81348  23378862.76548
 20  5 16  3 51  3.9990000  0  7G01G07G08G11G16G27G30               -0.000196733
  20812975.698 6  -3015401.965 6  -2283340.58249  20812978.00749
  21032809.253 7  -2651744.332 7  -2017859.03149  21032806.94449
  20923102.370 6   -429604.855 6   -325658.52349  20923101.33149
  19834490.292 6  -1628546.520 6  -1236229.13349  19834487.37849
  23280487.362 1    -89270.184 1                
  22914120.96411                                
  23377801.308 5  -3201219.840 5  -2440719.77748  23377800.31248
 20  5 16  3 51  4.9990000  0  7G01G07G08G11G16G27G30               -0.000198254
  20812016.269 6  -3020445.684 6  -2287270.76249  20812018.25749
  21031967.151 7  -2656172.438 7  -2021309.50449  21031964.54249
  20922973.112 6   -430285.895 6   -326189.20749  20922972.04649
  19833988.183 6  -1631183.762 6  -1238284.12549  19833985.39449
  23280366.308 1    -89907.707 1                
  22914183.57311                                
  23376738.901 4  -3206802.027 4  -2445069.53548  23376738.17948
 20  5 16  3 51  5.9990000  0  7G01G07G08G11G16G27G30               -0.000199774
  20811056.573 6  -3025488.820 6  -2291200.47349  20811058.35549
  21031124.706 7  -2660599.910 7  -2024759.48849  21031122.21049
  20922842.917 6   -430966.648 6   -326719.66849  20922842.38649
  19833486.480 6  -1633820.344 6  -1240338.60549  19833484.05449
  23280245.862 1    -90544.969 1                
  22914248.730 1                                
  23375676.417 5  -3212383.898 5  -2449419.05148  23375675.90548
 20  5 16  3 51  6.9990000  0  7G01G07G08G11G16G27G30               -0.000201296
  20810096.769 6  -3030531.359 6  -2295129.73449  20810099.24149
  21030282.065 7  -2665026.832 7  -2028209.04349  21030279.54249
  20922713.144 6   -431647.246 6   -327250.00449  20922712.64749
  19832985.487 6  -1636456.352 6  -1242392.64549  19832983.01549
  23280124.558 1    -91181.984 1                
  22914310.222 1    105518.809 1                
  23374615.222 5  -3217965.504 5  -2453768.35248  23374613.68348
 20  5 16  3 51  7.9990000  0  7G01G07G08G11G16G27G30               -0.000202816
  20809137.245 6  -3035573.469 6  -2299058.65649  20809139.65549
  21029439.784 7  -2669453.285 7  -2031658.22749  21029437.83149
  20922583.933 6   -432327.703 6   -327780.23449  20922583.30449
  19832483.456 6  -1639091.793 6  -1244446.23049  19832481.10549
  23280003.284 2    -91818.902 2                
  22914373.96411                                
  23373552.323 4  -3223546.898 4  -2458117.48848  23373551.91348
 20  5 16  3 51  8.9990000  0  7G01G07G08G11G16G27G30               -0.000204338
  20808178.206 6  -3040614.980 6  -2302987.10549  20808180.18349
  21028597.636 7  -2673879.121 7  -2035106.93049  21028595.15549
  20922454.511 6   -433007.941 6   -328310.28949  20922453.83549
  19831982.128 6  -1641726.578 6  -1246499.30949  19831979.37449
  23279882.097 2    -92455.633 2                
  22914439.183 1    106183.828 1                
  23372490.237 4  -3229127.871 4  -2462466.31648  23372489.64748
 20  5 16  3 51  9.9990000  0  7G01G07G08G11G16G27G30               -0.000205858
  20807218.714 6  -3045655.969 6  -2306915.14849  20807220.93349
  21027756.058 7  -2678304.410 7  -2038555.20349  21027753.29249
  20922325.081 6   -433687.988 6   -328840.19949  20922324.69049
  19831480.784 6  -1644360.793 6  -1248551.94149  19831478.03449
  23279762.042 3    -93092.141 3                
  22914501.769 1    106516.367 1                
  23371427.894 5  -3234708.645 5  -2466814.97748  23371427.57748
 20  5 16  3 51 10.9990000  0  7G01G07G08G11G16G27G30               -0.000207378
  20806259.690 6  -3050696.434 6  -2310842.77049  20806261.98749
  21026913.581 7  -2682729.164 7  -2042003.06649  21026911.15949
  20922195.815 6   -434367.855 6   -329369.96949  20922194.58149
  19830979.894 6  -1646994.387 6  -1250604.09449  19830977.21849
  23279641.112 2    -93728.484 2                
  22914563.698 1    106848.863 1                
  23370366.589 5  -3240289.156 5  -2471163.41448  23370365.35848
 20  5 16  3 51 11.9990000  0  7G01G07G08G11G16G27G30               -0.000208900
  20805300.269 6  -3055736.418 6  -2314770.02349  20805302.94449
  21026071.339 7  -2687153.410 7  -2045450.53149  21026068.96849
  20922066.347 6   -435047.582 6   -329899.62549  20922065.35549
  19830478.253 6  -1649627.445 6  -1252655.82849  19830475.94849
  23279519.917 3    -94364.797 3                
  22914627.714 1    107181.320 1                
  23369304.667 5  -3245869.375 5  -2475511.64848  23369303.43348
 20  5 16  3 51 12.9990000  0  7G01G07G08G11G16G27G30               -0.000210421
  20804341.487 6  -3060775.824 6  -2318696.83649  20804343.72249
  21025229.995 7  -2691577.113 7  -2048897.57049  21025227.24549
  20921937.433 6   -435727.129 6   -330429.14149  20921936.90949
  19829977.722 6  -1652259.887 6  -1254707.08649  19829975.17549
  23279399.214 2    -95000.770 2                
  22914692.675 1    107513.805 1                
  23368242.815 5  -3251449.324 5  -2479859.65248  23368241.67948
 20  5 16  3 51 13.9990000  0  7G01G07G08G11G16G27G30               -0.000211943
  20803382.206 6  -3065814.719 6  -2322623.25449  20803384.85549
  21024387.972 7  -2696000.223 7  -2052344.15249  21024385.53849
  20921807.253 6   -436406.484 6   -330958.50449  20921807.35149
  19829476.769 6  -1654891.699 6  -1256757.85249  19829474.15149
  23279277.605 3    -95636.645 3                
  22914755.011 1    107846.355 1                
  23367181.183 5  -3257029.004 5  -2484207.44948  23367180.24148
 20  5 16  3 51 14.9990000  0  7G01G07G08G11G16G27G30               -0.000213463
  20802424.003 6  -3070853.059 6  -2326549.23449  20802425.78449
  21023546.589 7  -2700422.777 7  -2055790.29349  21023543.80049
  20921678.144 6   -437085.621 6   -331487.70749  20921678.28049
  19828976.167 6  -1657522.918 6  -1258808.14549  19828973.76149
  23279156.503 3    -96272.363 3                
  22914817.753 1    108178.852 1                
  23366118.831 5  -3262608.363 5  -2488555.00048  23366118.21848
 20  5 16  3 51 15.9990000  0  7G01G07G08G11G16G27G30               -0.000214983
  20801464.776 6  -3075890.793 6  -2330474.74649  20801467.02649
  21022705.050 7  -2704844.762 7  -2059235.99649  21022702.47249
  20921549.464 6   -437764.520 6   -332016.71549  20921548.96049
  19828475.964 6  -1660153.465 6  -1260857.93049  19828473.11249
  23279035.753 3    -96907.840 3                
  22914881.401 1    108511.418 1                
  23365056.886 5  -3268187.395 5  -2492902.29348  23365056.54648
 20  5 16  3 51 16.9990000  0  7G01G07G08G11G16G27G30               -0.000216505
  20800506.464 6  -3080928.027 6  -2334399.87149  20800508.74149
  21021864.050 7  -2709266.168 7  -2062681.24249  21021861.21049
  20921420.159 6   -438443.234 6   -332545.58649  20921419.75349
  19827975.253 6  -1662783.445 6  -1262907.26649  19827972.73749
  23278914.722 3    -97543.109 3                
  22914945.292 1    108843.914 1                
  23363996.034 5  -3273766.180 5  -2497249.39547  23363994.51147
 20  5 16  3 51 17.9990000  0  7G01G07G08G11G16G27G30               -0.000218025
  20799548.050 6  -3085964.734 6  -2338324.57049  20799550.74149
  21021022.730 7  -2713687.063 7  -2066126.09849  21021019.85849
  20921291.026 6   -439121.797 6   -333074.34449  20921290.28849
  19827474.542 6  -1665412.832 6  -1264956.13749  19827471.87849
  23278794.347 3    -98178.246 3                
  22915008.628 1    109176.496 1                
  23362933.511 5  -3279344.668 5  -2501596.27348  23362933.37848
 20  5 16  3 51 18.9990000  0  7G01G07G08G11G16G27G30               -0.000219545
  20798589.409 6  -3091000.898 6  -2342248.84849  20798592.04649
  21020181.261 7  -2718107.391 7  -2069570.50849  21020178.98049
  20921162.151 6   -439800.168 6   -333602.94149  20921161.37849
  19826974.605 6  -1668041.605 6  -1267004.53149  19826971.89049
  23278672.886 3    -98813.234 3                
  22915072.26111                                
  23361872.355 5  -3284922.863 5  -2505942.91848  23361871.35548
 20  5 16  3 51 19.9990000  0  7G01G07G08G11G16G27G30               -0.000221066
  20797631.589 6  -3096036.496 6  -2346172.68849  20797633.96049
  21019340.183 7  -2722527.207 7  -2073014.52749  21019338.05849
  20921032.870 6   -440478.328 6   -334131.37549  20921032.89749
  19826474.339 6  -1670669.789 6  -1269052.46949  19826472.17549
  23278552.269 3    -99447.984 3                
  22915135.558 1    109841.574 1                
  23360811.300 5  -3290500.809 5  -2510289.35947  23360810.59347
 20  5 16  3 51 20.9990000  0  7G01G07G08G11G16G27G30               -0.000222588
  20796673.308 6  -3101071.621 6  -2350096.16849  20796675.56949
  21018499.464 7  -2726946.469 7  -2076458.10249  21018496.71049
  20920904.245 6   -441156.309 6   -334659.66849  20920903.92149
  19825974.433 6  -1673297.402 6  -1271099.96149  19825971.95249
  23278432.190 3   -100082.637 3                
  22915198.355 1    110174.063 1                
  23359750.214 5  -3296078.484 5  -2514635.59448  23359749.41748
 20  5 16  3 51 21.9990000  0  7G01G07G08G11G16G27G30               -0.000224108
  20795715.136 6  -3106106.168 6  -2354019.19149  20795717.43349
  21017658.440 7  -2731365.156 7  -2079901.23049  21017655.77249
  20920775.175 6   -441834.105 6   -335187.82849  20920774.66749
  19825474.730 6  -1675924.344 6  -1273146.92249  19825471.49549
  23278311.190 3   -100717.059 3                
  22915260.480 1    110506.555 1                
  23358688.581 5  -3301655.828 5  -2518981.57848  23358688.10848
 20  5 16  3 51 22.9990000  0  7G01G07G08G11G16G27G30               -0.000225628
  20794757.573 6  -3111140.207 6  -2357941.82449  20794759.67949
  21016817.784 7  -2735783.316 7  -2083343.95349  21016814.96049
  20920646.065 6   -442511.770 6   -335715.87949  20920645.42149
  19824974.667 6  -1678550.734 6  -1275193.46149  19824971.94449
  23278190.159 3   -101351.336 3                
  22915324.667 1    110839.219 1                
  23357627.511 5  -3307232.934 5  -2523327.36347  23357626.55047
 20  5 16  3 51 23.9990000  0  7G01G07G08G11G16G27G30               -0.000227150
  20793799.214 6  -3116173.660 6  -2361863.99249  20793801.72649
  21015977.370 7  -2740200.859 7  -2086786.19149  21015974.60149
  20920516.573 6   -443189.148 6   -336243.71949  20920516.80449
  19824474.909 6  -1681176.477 6  -1277239.48849  19824472.44449
  23278069.409 3   -101985.402 3                
  22915387.651 1    111171.715 1                
  23356566.128 5  -3312809.691 5  -2527672.88747  23356565.22647
 20  5 16  3 51 24.9990000  0  7G01G07G08G11G16G27G30               -0.000228670
  20792841.315 6  -3121206.559 6  -2365785.73449  20792843.85149
  21015136.472 7  -2744617.828 7  -2090227.98849  21015133.74549
  20920387.948 6   -443866.340 6   -336771.40649  20920387.81249
  19823975.519 6  -1683801.578 6  -1279285.02349  19823972.68349
  23277949.073 4   -102619.246 4                
  22915450.644 1    111504.293 1                
  23355504.480 5  -3318386.133 5  -2532018.15648  23355504.12448
 20  5 16  3 51 25.9990000  0  7G01G07G08G11G16G27G30               -0.000230190
  20791884.034 6  -3126238.891 6  -2369707.03149  20791886.39049
  21014295.839 7  -2749034.234 7  -2093669.35549  21014293.53849
  20920258.901 6   -444543.305 6   -337298.91049  20920259.22249
  19823475.714 6  -1686426.059 6  -1281330.07449  19823473.53449
  23277828.214 3   -103252.906 3                
  22915514.675 1    111837.031 1                
  23354443.605 5  -3323962.246 5  -2536363.17248  23354442.63248
 20  5 16  3 51 26.9990000  0  7G01G07G08G11G16G27G30               -0.000231709
  20790926.636 6  -3131270.664 6  -2373627.89149  20790928.75349
  21013455.698 7  -2753450.078 7  -2097110.27349  21013453.03049
  20920130.308 6   -445220.094 6   -337826.28149  20920130.13249
  19822976.917 6  -1689049.930 6  -1283374.64849  19822974.04249
  23277707.784 4   -103886.332 4                
  22915576.730 1    112169.609 1                
  23353382.386 5  -3329538.129 5  -2540708.02048  23353381.48048
 20  5 16  3 51 27.9990000  0  7G01G07G08G11G16G27G30               -0.000233229
  20789969.183 6  -3136301.902 6  -2377548.33249  20789971.43349
  21012615.378 7  -2757865.371 7  -2100550.76249  21012613.12849
  20920001.956 6   -445896.734 6   -338353.53549  20920001.62849
  19822477.409 6  -1691673.199 6  -1285418.75449  19822474.96049
  23277587.292 3   -104519.664 3                
  22915640.050 1    112502.270 1                
  23352321.815 5  -3335113.676 5  -2545052.60248  23352320.66348
 20  5 16  3 51 28.9990000  0  7G01G07G08G11G16G27G30               -0.000234749
  20789011.730 6  -3141332.629 6  -2381468.37549  20789013.95649
  21011775.378 7  -2762280.109 7  -2103990.82449  21011772.80049
  20919872.667 6   -446573.160 6   -338880.62149  20919873.06549
  19821978.573 6  -1694295.871 6  -1287462.39549  19821975.83949
  23277467.136 4   -105152.789 4                
  22915703.675 1    112834.895 1                
  23351261.081 5  -3340688.969 5  -2549396.97748  23351259.73048
 20  5 16  3 51 29.9990000  0  7G01G07G08G11G16G27G30               -0.000236269
  20788054.425 6  -3146362.852 6  -2385388.02749  20788057.00749
  21010935.175 7  -2766694.359 7  -2107430.49649  21010933.46049
  20919744.347 6   -447249.453 6   -339407.60249  20919744.03849
  19821479.323 6  -1696917.984 6  -1289505.59849  19821476.60849
  23277346.487 3   -105785.828 3                
  22915766.581 1    113167.531 1                
  23350200.019 5  -3346264.035 5  -2553741.18848  23350198.74948
 20  5 16  3 51 30.9990000  0  7G01G07G08G11G16G27G30               -0.000237791
  20787097.198 6  -3151392.523 6  -2389307.25849  20787099.64449
  21010095.573 7  -2771108.039 7  -2110869.72749  21010092.67549
  20919615.370 6   -447925.543 6   -339934.43049  20919615.60549
  19820980.542 6  -1699539.508 6  -1291548.34849  19820977.60549
  23277225.417 4   -106418.656 4                
  22915832.167 1    113500.070 1                
  23349139.128 5  -3351838.805 5  -2558085.16848  23349138.50748
 20  5 16  3 51 31.9990000  0  7G01G07G08G11G16G27G30               -0.000239311
  20786140.409 6  -3156421.648 6  -2393226.05949  20786142.78849
  21009255.995 7  -2775521.148 7  -2114308.50449  21009253.08949
  20919487.042 6   -448601.402 6   -340461.06649  20919487.17549
  19820481.940 6  -1702160.414 6  -1293590.60949  19820479.24949
  23277105.206 3   -107051.215 3                
  22915894.425 1    113832.688 1                
  23348077.792 5  -3357413.270 5  -2562428.90648  23348077.44048
 20  5 16  3 51 32.9990000  0  7G01G07G08G11G16G27G30               -0.000240831
  20785183.253 6  -3161450.211 6  -2397144.41849  20785185.84749
  21008415.964 7  -2779933.699 7  -2117746.85549  21008413.65949
  20919358.206 6   -449277.109 6   -340987.60249  20919358.65949
  19819983.511 6  -1704780.680 6  -1295632.37549  19819980.84349
  23276985.237 4   -107683.695 4                
  22915957.14411                                
  23347017.605 5  -3362987.418 5  -2566772.40248  23347016.68748
 20  5 16  3 51 33.9990000  0  7G01G07G08G11G16G27G30               -0.000242352
  20784226.573 6  -3166478.254 6  -2401062.37549  20784229.26949
  21007576.433 7  -2784345.676 7  -2121184.76249  21007573.99549
  20919230.058 6   -449952.621 6   -341513.97349  20919230.21049
  19819484.628 6  -1707400.363 6  -1297673.68849  19819481.90149
  23276864.870 3   -108316.000 3                
  22916020.98011                                
  23345956.972 5  -3368561.305 5  -2571115.68048  23345955.92948
 20  5 16  3 51 34.9990000  0  7G01G07G08G11G16G27G30               -0.000243870
  20783270.034 6  -3171505.773 6  -2404979.92249  20783272.22649
  21006737.050 7  -2788757.145 7  -2124622.26249  21006734.80849
  20919101.511 6   -450627.867 6   -342040.14149  20919101.79649
  19818986.558 6  -1710019.453 6  -1299714.53549  19818983.82349
  23276744.011 3   -108948.109 3                
  22916083.034 1                                
  23344896.175 5  -3374134.902 5  -2575458.73448  23344895.41748
 20  5 16  3 51 35.9990000  0  7G01G07G08G11G16G27G30               -0.000245392
  20782313.214 6  -3176532.766 6  -2408897.05949  20782315.72249
  21005897.886 7  -2793168.031 7  -2128059.32049  21005895.28049
  20918972.745 6   -451303.043 6   -342566.25049  20918973.14749
  19818488.245 6  -1712637.938 6  -1301754.90648  19818485.38648
  23276623.425 3   -109580.074 3                
  22916146.03411                                
  23343835.933 5  -3379708.211 5  -2579801.57048  23343834.15948
 20  5 16  3 51 36.9990000  0  7G01G07G08G11G16G27G30               -0.000246912
  20781356.792 6  -3181559.211 6  -2412813.76649  20781359.19449
  21005058.433 7  -2797578.398 7  -2131495.96949  21005056.01549
  20918844.323 6   -451978.008 6   -343092.20349  20918844.90149
  19817989.995 6  -1715255.836 6  -1303794.82449  19817987.28849
  23276503.636 3   -110211.801 3                
  22916210.769 1    115495.797 1                
  23342775.034 5  -3385281.270 5  -2584144.21148  23342774.21848
 20  5 16  3 51 37.9990000  0  7G01G07G08G11G16G27G30               -0.000248432
  20780400.253 6  -3186585.145 6  -2416730.07449  20780402.66349
  21004219.198 7  -2801988.234 7  -2134932.20349  21004216.81949
  20918715.597 6   -452652.793 6   -343618.00849  20918715.86649
  19817491.933 6  -1717873.141 6  -1305834.28948  19817489.37048
  23276383.722 3   -110843.414 3                
  22916274.792 1    115828.336 1                
  23341714.636 5  -3390854.047 5  -2588486.63348  23341713.56548
 20  5 16  3 51 38.9990000  0  7G01G07G08G11G16G27G30               -0.000249952
  20779444.175 6  -3191610.527 6  -2420645.96149  20779446.53849
  21003379.995 7  -2806397.508 7  -2138368.00449  21003377.63249
  20918587.237 6   -453327.430 6   -344143.69949  20918587.85849
  19816994.284 6  -1720489.855 6  -1307873.28149  19816991.05049
  23276263.073 3   -111474.922 3                
  22916336.49511                                
  23340654.792 5  -3396426.543 5  -2592828.84448  23340653.20648
 20  5 16  3 51 39.9990000  0  7G01G07G08G11G16G27G30               -0.000251472
  20778487.690 6  -3196635.371 6  -2424561.43049  20778490.53849
  21002540.870 7  -2810806.215 7  -2141803.35549  21002538.99949
  20918458.644 6   -454001.875 6   -344669.23449  20918459.63649
  19816495.823 6  -1723105.977 6  -1309911.82049  19816493.14449
  23276143.300 2   -112106.137 2                
  22916400.011 1    116493.594 1                
  23339593.925 5  -3401998.746 5  -2597170.82848  23339592.59748
 20  5 16  3 51 40.9990000  0  7G01G07G08G11G16G27G30               -0.000252993
  20777531.644 6  -3201659.621 6  -2428476.42649  20777534.37449
  21001701.901 7  -2815214.320 7  -2145238.25049  21001699.96849
  20918330.487 6   -454676.059 6   -345194.57049  20918330.88649
  19815998.542 6  -1725721.414 6  -1311949.82449  19815995.81549
  23276022.862 2   -112737.188 2                
  22916462.831 1    116826.273 1                
  23338533.183 5  -3407570.629 5  -2601512.55148  23338532.40148
 20  5 16  3 51 41.9990000  0  7G01G07G08G11G16G27G30               -0.000254513
  20776575.690 6  -3206683.410 6  -2432391.07049  20776578.43349
  21000863.495 7  -2819621.938 7  -2148672.75449  21000861.64049
  20918202.480 6   -455350.129 6   -345719.82449  20918202.66349
  19815500.636 6  -1728336.309 6  -1313987.40249  19815498.28849
  23275902.940 2   -113368.055 2                
  22916527.45611                                
  23337472.933 5  -3413142.250 5  -2605854.07448  23337472.27648
 20  5 16  3 51 42.9990000  0  7G01G07G08G11G16G27G30               -0.000256033
  20775619.878 6  -3211706.652 6  -2436305.28549  20775622.31249
  21000024.862 6  -2824029.055 6  -2152106.87549  21000022.51149
  20918074.308 6   -456024.086 6   -346244.98849  20918074.77249
  19815003.433 6  -1730950.637 6  -1316024.53949  19815000.65149
  23275782.214 2   -113998.902 2                
  22916591.628 1    117491.363 1                
  23336412.878 5  -3418713.656 5  -2610195.42648  23336412.01148
 20  5 16  3 51 43.9990000  0  7G01G07G08G11G16G27G30               -0.000257553
  20774664.128 6  -3216729.383 6  -2440219.10249  20774666.19849
  20999186.448 6  -2828435.570 6  -2155540.52349  20999184.07349
  20917946.065 6   -456697.844 6   -346769.99249  20917946.25349
  19814506.292 6  -1733564.344 6  -1318061.20349  19814503.05449
  23275662.558 2   -114629.461 2                
  22916654.839 1    117823.898 1                
  23335353.542 5  -3424284.727 5  -2614536.51648  23335351.74148
 20  5 16  3 51 44.9990000  0  7G01G07G08G11G16G27G30               -0.000259073
  20773708.737 6  -3221751.535 6  -2444132.47349  20773710.94849
  20998347.956 6  -2832841.523 6  -2158973.73049  20998345.58149
  20917817.769 6   -457371.359 6   -347294.80949  20917818.24149
  19814008.581 6  -1736177.441 6  -1320097.37949  19814005.78449
  23275542.456 2   -115259.848 2                
  22916717.55811                                
  23334293.628 5  -3429855.500 5  -2618877.37148  23334291.65948
 20  5 16  3 51 45.9990000  0  7G01G07G08G11G16G27G30               -0.000260593
  20772752.987 6  -3226773.164 6  -2448045.42649  20772755.75349
  20997509.706 7  -2837246.934 7  -2162406.51649  20997507.63649
  20917689.995 6   -458044.661 6   -347819.46449  20917690.08549
  19813511.417 6  -1738789.945 6  -1322133.09449  19813508.49149
  23275422.487 2   -115890.125 2                
  22916780.050 1    118489.086 1                
  23333233.097 5  -3435426.023 5  -2623218.04348  23333231.46848
 20  5 16  3 51 46.9990000  0  7G01G07G08G11G16G27G30               -0.000262114
  20771797.464 6  -3231794.293 6  -2451957.99649  20771799.76149
  20996671.487 7  -2841651.844 7  -2165838.91849  20996669.20249
  20917562.206 6   -458717.891 6   -348344.06349  20917562.35549
  19813014.261 6  -1741401.895 6  -1324168.38349  19813011.62849
  23275303.362 2   -116520.184 2                
  22916844.487 1    118821.668 1                
  23332172.878 5  -3440996.289 5  -2627558.50048  23332171.40548
 20  5 16  3 51 47.9990000  0  7G01G07G08G11G16G27G30               -0.000263634
  20770842.026 6  -3236814.906 6  -2455870.15649  20770844.22649
  20995833.253 6  -2846056.191 6  -2169270.87149  20995830.93349
  20917434.073 6   -459390.918 6   -348868.49249  20917433.84749
  19812517.409 6  -1744013.234 6  -1326203.19149  19812514.45249
  23275182.948 2   -117150.141 2                
  22916907.323 1    119154.184 1                
  23331113.136 5  -3446566.266 5  -2631898.74248  23331111.54248
 20  5 16  3 51 48.9990000  0  7G01G07G08G11G16G27G30               -0.000265154
  20769886.831 6  -3241834.988 6  -2459781.91449  20769889.32749
  20994994.972 6  -2850460.063 6  -2172702.46549  20994992.97249
  20917305.909 6   -460063.813 6   -349392.82849  20917305.96449
  19812020.573 6  -1746624.039 6  -1328237.58248  19812017.99948
  23275063.409 2   -117779.957 2                
  22916972.315 1    119486.613 1                
  23330053.026 5  -3452136.016 5  -2636238.80548  23330051.29248
 20  5 16  3 51 49.9990000  0  7G01G07G08G11G16G27G30               -0.000266674
  20768931.964 6  -3246854.531 6  -2463693.24649  20768934.28049
  20994157.370 7  -2854863.320 7  -2176133.57049  20994155.24549
  20917177.589 6   -460736.496 6   -349916.99249  20917177.90549
  19811524.112 6  -1749234.207 6  -1330271.47748  19811520.70248
  23274942.909 2   -118409.535 2                
  22917037.081 1    119819.145 1                
  23328992.940 5  -3457705.469 5  -2640578.62948  23328991.69448
 20  5 16  3 51 50.9990000  0  7G01G07G08G11G16G27G30               -0.000268192
  20767976.597 6  -3251873.555 6  -2467604.17649  20767978.76949
  20993319.394 6  -2859266.051 6  -2179564.27349  20993317.34749
  20917050.034 6   -461408.961 6   -350440.98849  20917050.05849
  19811027.206 6  -1751843.785 6  -1332304.91448  19811024.19848
  23274822.964 1   -119039.008 1                
  22917097.96411                                
  23327933.472 5  -3463274.617 5  -2644918.23048  23327931.52648
 20  5 16  3 51 51.9990000  0  7G01G07G08G11G16G27G30               -0.000269712
  20767021.339 6  -3256892.063 6  -2471514.69949  20767023.95649
  20992481.964 7  -2863668.250 7  -2182994.55949  20992479.41749
  20916921.323 6   -462081.340 6   -350964.92249  20916921.99949
  19810531.058 6  -1754452.797 6  -1334337.91449  19810527.50349
  23274702.753 2   -119668.320 2                
  22917161.01111                                
  23326873.769 5  -3468843.504 5  -2649257.62548  23326872.19048
 20  5 16  3 51 52.9990000  0  7G01G07G08G11G16G27G30               -0.000271233
  20766066.503 6  -3261910.031 6  -2475424.80549  20766069.22649
  20991644.261 7  -2868069.906 7  -2186424.41449  20991641.86249
  20916793.855 6   -462753.488 6   -351488.67649  20916793.80049
  19810034.659 6  -1757061.180 6  -1336370.42248  19810031.38648
  23274584.026 2   -120297.398 2                
  22917225.136 1                                
  23325814.659 5  -3474412.117 5  -2653596.80548  23325812.53848
 20  5 16  3 51 53.9990000  0  7G01G07G08G11G16G27G30               -0.000272753
  20765111.948 6  -3266927.523 6  -2479334.52749  20765113.98349
  20990806.534 6  -2872471.051 6  -2189853.88349  20990804.53049
  20916666.003 6   -463425.512 6   -352012.33649  20916666.10549
  19809538.315 6  -1759669.055 6  -1338402.52748  19809535.12848
  23274464.339 1   -120926.395 1                
  22917287.558 1                                
  23324754.409 5  -3479980.504 5  -2657935.81648  23324752.84748
