     2.10           OBSERVATION DATA    GPS(GPS)            RINEX VERSION / TYPE
cnvtToRINEX 3.07.0  convertToRINEX OPR  19-May-20 12:30 UTC PGM / RUN BY / DATE 
----------------------------------------------------------- COMMENT             
GG06                                                        MARKER NAME         
GG06                                                        MARKER NUMBER       
GNSS Observer       Trimble                                 OBSERVER / AGENCY   
0440101800          5700                2.32                REC # / TYPE / VERS 
                    TRM39105.00                             ANT # / TYPE        
 -3050162.7771  4928363.6029  2653597.5691                  APPROX POSITION XYZ 
        0.1030        0.0000        0.0000                  ANTENNA: DELTA H/E/N
     1     1     0                                          WAVELENGTH FACT L1/2
     4    C1    L1    L2    P2                              # / TYPES OF OBSERV 
  2020     5    16     1    38   31.0000000     GPS         TIME OF FIRST OBS   
  2020     5    16     3     9    5.0000000     GPS         TIME OF LAST OBS    
     0                                                      RCV CLOCK OFFS APPL 
    18                                                      LEAP SECONDS        
    11                                                      # OF SATELLITES     
   G01  3046  3046  3046  3046                              PRN / # OF OBS      
   G04  5435  5435  5435  5435                              PRN / # OF OBS      
   G07  3929  3929  3929  3929                              PRN / # OF OBS      
   G08  5416  5416  5416  5416                              PRN / # OF OBS      
   G09  5416  5416  5416  5416                              PRN / # OF OBS      
   G11  5435  5435  5435  5435                              PRN / # OF OBS      
   G16  5416  5416  5416  5416                              PRN / # OF OBS      
   G21   147   146   142   142                              PRN / # OF OBS      
   G26  5435  5435  5429  5429                              PRN / # OF OBS      
   G27  5435  5435  5435  5435                              PRN / # OF OBS      
   G31  2817  2817  2817  2817                              PRN / # OF OBS      
CARRIER PHASE MEASUREMENTS: PHASE SHIFTS REMOVED            COMMENT             
                                                            END OF HEADER       
 20  5 16  1 38 31.0000000  0  6G04G11G21G26G27G31                   0.000136271
  21453963.20316    -41081.88716     -9181.95758  21453962.51658
  23524265.35916   -117350.27016    -53211.00457  23524263.54357
  25200024.83613                                
  22907824.46915    -19487.89815                
  20140744.32817    -40075.99617     -6927.48959  20140736.28959
  23503252.23416    -13625.00816     -6509.86757  23503251.25057
 20  5 16  1 38 32.0000000  0  6G04G11G21G26G27G31                   0.000134182
  21453423.492 6    -43918.055 6    -11391.94548  21453422.80148
  23522987.055 6   -124066.566 6    -58444.47347  23522985.16047
  25199763.391 3     -6619.223 3                
  22907524.461 5    -21062.074 5      -199.28957  22907525.72357
  20140220.453 7    -42828.406 7     -9072.21449  20140212.59049
  23503082.914 6    -14513.543 6     -7202.23047  23503081.71147
 20  5 16  1 38 33.0000000  0  6G04G11G21G26G27G31                   0.000132092
  21452883.438 6    -46755.504 6    -13602.93848  21452882.81648
  23521708.789 6   -130784.719 6    -63679.39147  23521706.58247
  25199502.359 3     -7990.871 3                
  22907225.070 5    -22638.117 5     -1427.37947  22907225.61347
  20139696.430 7    -45582.133 7    -11217.94949  20139696.87149
  23502913.813 5    -15403.691 5     -7895.85247  23502912.52747
 20  5 16  1 38 34.0000000  0  6G04G11G21G26G27G31                   0.000129999
  21452343.227 6    -49594.395 6    -15815.04748  21452342.98048
  23520430.023 5   -137504.793 5    -68915.82047  23520428.03147
  25199241.563 3     -9364.141 3                
  22906924.359 5    -24216.234 5     -2657.08247  22906925.88747
  20139172.156 7    -48337.270 7    -13364.83249  20139172.69949
  23502744.281 6    -16295.609 6     -8590.84447  23502743.05147
 20  5 16  1 38 35.0000000  0  6G04G11G21G26G27G31                   0.000127899
  21451802.828 6    -52434.559 6    -18028.16848  21451802.68048
  23519150.242 5   -144226.715 5    -74153.68047  23519149.09047
  25198979.680 2    -10738.938 2                
  22906623.859 5    -25796.215 5     -3888.23847  22906625.30947
  20138647.648 7    -51093.699 7    -15512.71149  20138648.38349
  23502573.922 6    -17189.145 6     -9287.10547  23502572.64547
 20  5 16  1 38 36.0000000  0  6G04G11G21G26G27G31                   0.000125807
  21451261.961 6    -55275.996 6    -20242.27748  21451261.58648
  23517870.867 5   -150950.418 5    -79392.93847  23517869.56347
  25198717.930 3    -12115.211 3      -810.62956  25198714.59456
  22906322.695 5    -27378.113 5     -5120.89847  22906324.34047
  20138123.070 7    -53851.402 7    -17661.57449  20138123.14849
  23502403.859 6    -18084.305 6     -9984.63748  23502402.55548
 20  5 16  1 38 37.0000000  0  6G04G11G21G26G27G31                   0.000123705
  21450721.414 6    -58118.492 6    -22457.21948  21450720.40648
  23516590.586 5   -157675.715 5    -84633.41847  23516590.19947
  25198455.305 2    -13492.805 2     -1884.07046  25198452.75846
  22906021.367 5    -28961.660 5     -6354.82847  22906023.04347
  20137597.844 7    -56610.160 7    -19811.24649  20137598.05949
  23502232.945 6    -18980.848 6    -10683.24648  23502232.00448
 20  5 16  1 38 38.0000000  0  6G04G11G21G26G27G31                   0.000121609
  21450180.383 6    -60962.055 6    -24672.98048  21450179.58648
  23515311.234 5   -164402.570 5    -89875.13347  23515309.96147
  25198193.281 2    -14871.648 2     -2958.49646  25198190.13346
  22905719.609 5    -30546.875 5     -7590.05947  22905721.25047
  20137072.891 7    -59369.980 7    -21961.74649  20137072.76649
  23502062.438 5    -19878.770 5    -11382.92247  23502061.29347
 20  5 16  1 38 39.0000000  0  6G04G11G21G26G27G31                   0.000119505
  21449638.828 6    -63806.664 6    -26889.55948  21449638.12548
  23514031.031 5   -171131.031 5    -95118.08647  23514029.27047
  25197930.250 3    -16251.711 3     -4033.87946  25197928.00046
  22905417.500 5    -32133.754 5     -8826.59047  22905419.32047
  20136547.508 7    -62130.848 7    -24113.07449  20136547.63749
  23501890.344 5    -20778.078 5    -12083.69147  23501890.25047
 20  5 16  1 38 40.0000000  0  6G04G11G21G26G27G31                   0.000117405
  21449097.445 6    -66652.227 6    -29106.88748  21449096.76648
  23512750.250 5   -177860.977 5   -100362.19147  23512748.82047
  25197666.984 2    -17632.996 2     -5110.21146  25197664.94546
  22905115.508 5    -33722.195 5    -10064.33247  22905116.75047
  20136021.898 7    -64892.672 7    -26265.14149  20136022.24649
  23501719.266 5    -21678.688 5    -12785.46547  23501718.79347
 20  5 16  1 38 41.0000000  0  6G04G11G21G26G27G31                   0.000115301
  21448555.875 6    -69498.617 6    -31324.85248  21448555.06648
  23511468.719 5   -184592.266 5   -105607.35247  23511467.71147
  25197404.086 3    -19015.316 3     -6187.35946  25197401.97346
  22904812.508 5    -35312.094 5    -11303.22347  22904814.98847
  20135496.023 7    -67655.324 7    -28417.85549  20135496.41449
  23501547.898 5    -22580.477 5    -13488.16447  23501547.29347
 20  5 16  1 38 42.0000000  0  6G04G11G21G26G27G31                   0.000113199
  21448013.914 6    -72345.863 6    -33543.48448  21448012.89548
  23510187.633 5   -191324.957 5   -110853.60247  23510186.47347
  25197141.734 3    -20398.656 3     -7265.27746  25197138.93446
  22904509.891 5    -36903.461 5    -12543.25047  22904512.03947
  20134970.047 7    -70418.832 7    -30571.23849  20134970.29749
  23501376.266 5    -23483.410 5    -14191.75047  23501375.88347
 20  5 16  1 38 43.0000000  0  6G04G11G21G26G27G31                   0.000111094
  21447472.008 6    -75193.969 6    -35762.78148  21447471.18048
  23508906.266 5   -198059.048 5   -116100.93347  23508904.91847
  25196877.984 3    -21783.152 3     -8344.10246  25196875.28946
  22904206.828 5    -38496.277 5    -13784.40647  22904208.48847
  20134443.922 7    -73183.203 7    -32725.29349  20134444.41449
  23501203.852 5    -24387.578 5    -14896.29347  23501203.42247
 20  5 16  1 38 44.0000000  0  6G04G11G21G26G27G31                   0.000108990
  21446930.016 6    -78042.770 6    -37982.62948  21446928.86348
  23507624.422 5   -204794.300 5   -121349.17747  23507623.14847
  25196614.016 3    -23168.570 3     -9423.64146  25196611.98046
  22903903.305 5    -40090.408 5    -15026.58247  22903905.20347
  20133917.906 7    -75948.266 7    -34879.88749  20133918.37949
  23501031.281 5    -25292.762 5    -15601.62947  23501031.07447
 20  5 16  1 38 45.0000000  0  6G04G11G21G26G27G31                   0.000106882
  21446387.398 6    -80892.273 6    -40203.02348  21446387.03548
  23506343.070 5   -211530.832 5   -126598.41847  23506341.43447
  25196350.148 3    -24554.832 3    -10503.82846  25196348.26646
  22903600.102 5    -41685.871 5    -16269.80547  22903601.68447
  20133391.523 7    -78714.012 7    -37035.02049  20133391.66049
  23500859.656 5    -26198.943 5    -16307.74747  23500858.64847
 20  5 16  1 38 46.0000000  0  6G04G11G21G26G27G31                   0.000104776
  21445845.148 6    -83742.422 6    -42423.91448  21445844.59848
  23505061.047 5   -218268.531 5   -131848.56647  23505059.18047
  25196086.313 3    -25941.934 3    -11584.68846  25196084.44546
  22903296.133 5    -43282.559 5    -17513.97747  22903297.53147
  20132865.320 7    -81480.414 7    -39190.65649  20132865.14849
  23500686.617 5    -27106.152 5    -17014.66447  23500685.82047
 20  5 16  1 38 47.0000000  0  6G04G11G21G26G27G31                   0.000102667
  21445302.977 6    -86593.176 6    -44645.28548  21445302.24648
  23503778.914 5   -225007.348 5   -137099.59847  23503776.64847
  25195822.117 3    -27329.934 3    -12666.25846  25195820.49646
  22902992.148 5    -44880.484 5    -18759.12147  22902993.89847
  20132338.633 7    -84247.430 7    -41346.77349  20132338.81649
  23500513.758 5    -28014.293 5    -17722.31347  23500513.25847
 20  5 16  1 38 48.0000000  0  6G04G11G21G26G27G31                   0.000100561
  21444760.430 6    -89444.402 6    -46867.02348  21444759.53548
  23502495.766 5   -231747.180 5   -142351.42247  23502493.94147
  25195558.039 3    -28718.629 3    -13748.36346  25195555.75846
  22902687.891 5    -46479.492 5    -20005.09847  22902689.11347
  20131812.102 7    -87014.914 7    -43503.25849  20131812.31349
  23500340.922 5    -28923.234 5    -18430.57447  23500340.07847
 20  5 16  1 38 49.0000000  0  6G04G11G21G26G27G31                   0.000098450
  21444217.500 6    -92296.164 6    -49089.17648  21444216.78948
  23501213.438 5   -238488.082 5   -147604.07847  23501211.00047
  25195293.648 3    -30108.016 3    -14831.01246  25195291.46546
  22902383.242 5    -48079.648 5    -21251.98047  22902384.87947
  20131285.398 7    -89782.941 7    -45660.16449  20131285.55149
  23500167.797 5    -29833.039 5    -19139.52347  23500167.19947
 20  5 16  1 38 50.0000000  0  9G04G08G09G11G16G21G26G27G31          0.000096342
  21443674.883 6    -95148.449 6    -51311.73448  21443674.28948
  20749986.37517   -120268.00017    -71649.86759  20749986.95359
  23071049.34416   -121654.70716    -62617.77359  23071049.69559
  23499930.172 5   -245230.023 5   -152857.53547  23499927.94547
  21501675.12516    -52885.84016    -26685.34858  21501672.70358
  25195029.117 3    -31498.191 3    -15914.27046  25195026.91446
  22902078.773 5    -49680.895 5    -22499.69547  22902080.19547
  20130758.578 7    -92551.461 7    -47817.45349  20130758.57849
  23499994.094 5    -30743.703 5    -19849.13747  23499993.48047
 20  5 16  1 38 51.0000000  0  9G04G08G09G11G16G21G26G27G31          0.000094231
  21443131.852 6    -98001.121 6    -53534.59848  21443131.06348
  20749054.547 7   -125164.891 7    -75465.62149  20749054.91049
  23070148.586 6   -126387.977 6    -66306.03949  23070149.14849
  23498647.461 5   -251972.840 5   -158111.67647  23498645.15647
  21501274.734 6    -54989.734 6    -28324.74248  21501272.17248
  25194764.234 3    -32888.930 3    -16997.96546  25194762.67246
  22901773.609 5    -51283.191 5    -23748.23447  22901775.57447
  20130231.539 7    -95320.395 7    -49975.06349  20130231.66849
  23499821.039 5    -31655.113 5    -20559.32847  23499820.37547
 20  5 16  1 38 52.0000000  0  9G04G08G09G11G16G21G26G27G31          0.000092123
  21442589.047 6   -100854.215 6    -55757.78948  21442588.10948
  20748122.250 7   -130062.234 7    -79281.73849  20748123.03549
  23069248.109 6   -131121.676 6    -69994.63349  23069248.16049
  23497364.055 5   -258716.641 5   -163366.58647  23497361.96947
  21500874.078 6    -57094.582 6    -29964.88348  21500871.64548
  25194499.336 2    -34280.316 2    -18082.16446  25194497.88346
  22901468.898 5    -52886.473 5    -24997.54747  22901470.11747
  20129704.625 7    -98089.742 7    -52132.98849  20129704.93049
  23499647.375 5    -32567.267 5    -21270.10347  23499646.62547
 20  5 16  1 38 53.0000000  0  9G04G08G09G11G16G21G26G27G31          0.000090010
  21442046.063 6   -103707.551 6    -57981.17248  21442045.27048
  20747190.328 7   -134959.887 7    -83098.09049  20747191.08249
  23068346.750 6   -135855.691 6    -73683.48049  23068347.05149
  23496081.109 5   -265461.230 5   -168622.10247  23496078.55947
  21500473.109 6    -59200.219 6    -31605.64148  21500470.42248
  25194234.414 3    -35672.199 3    -19166.74646  25194233.33646
  22901163.094 5    -54490.645 5    -26247.55947  22901165.23047
  20129177.617 7   -100859.336 7    -54291.11349  20129177.43049
  23499473.789 5    -33479.984 5    -21981.32047  23499473.02747
 20  5 16  1 38 54.0000000  0  9G04G08G09G11G16G21G26G27G31          0.000087898
  21441503.227 6   -106561.207 6    -60204.79748  21441502.05148
  20746258.570 7   -139857.895 7    -86914.71949  20746259.10249
  23067445.734 6   -140590.070 6    -77372.60549  23067446.07049
  23494796.367 5   -272206.621 5   -173878.24647  23494794.62147
  21500072.703 6    -61306.695 6    -33247.05148  21500069.66448
  25193968.953 2    -37064.586 2    -20251.71546  25193968.29346
  22900857.820 5    -56095.727 5    -27498.27047  22900859.28147
  20128650.641 7   -103629.230 7    -56449.48049  20128650.62949
  23499300.250 6    -34393.359 6    -22693.03547  23499299.35947
 20  5 16  1 38 55.0000000  0  9G04G08G09G11G16G21G26G27G31          0.000085785
  21440960.117 6   -109415.168 6    -62428.66448  21440958.90648
  20745326.391 7   -144756.281 7    -90731.63749  20745326.77049
  23066544.930 6   -145324.801 6    -81062.00849  23066545.20349
  23493512.883 5   -278952.895 5   -179135.08247  23493511.35947
  21499671.047 6    -63414.047 6    -34889.14548  21499668.67648
  25193704.445 2    -38457.496 2    -21337.09446  25193703.12546
  22900552.383 5    -57701.730 5    -28749.69947  22900554.07447
  20128123.383 7   -106399.457 7    -58608.09449  20128123.69149
  23499126.172 6    -35307.402 6    -23405.28147  23499125.48047
 20  5 16  1 38 56.0000000  0  9G04G08G09G11G16G21G26G27G31          0.000083673
  21440416.813 6   -112269.348 6    -64652.69948  21440415.91848
  20744393.961 7   -149654.906 7    -94548.75049  20744394.78549
  23065643.906 6   -150059.801 6    -84751.61349  23065644.26249
  23492228.938 5   -285699.867 5   -184392.47347  23492227.04347
  21499270.430 6    -65522.137 6    -36531.80948  21499268.05548
  25193439.141 2    -39850.840 2    -22422.80546  25193438.24246
  22900246.000 5    -59308.563 5    -30001.78147  22900248.21147
  20127596.055 7   -109169.883 7    -60766.86349  20127596.55149
  23498952.164 5    -36221.953 5    -24117.92247  23498951.13747
 20  5 16  1 38 57.0000000  0  9G04G08G09G11G16G21G26G27G31          0.000081556
  21439873.758 6   -115123.707 6    -66876.87948  21439872.77048
  20743461.789 7   -154553.828 7    -98366.09449  20743462.28149
  23064742.758 5   -154795.051 5    -88441.41849  23064742.95349
  23490945.461 6   -292447.566 6   -189650.41847  23490943.49647
  21498869.039 6    -67630.961 6    -38175.05148  21498866.39148
  25193174.813 2    -41244.582 2    -23508.84446  25193173.19546
  22899940.273 5    -60916.203 5    -31254.49247  22899942.14147
  20127068.781 7   -111940.512 7    -62925.79749  20127069.10249
  23498778.125 6    -37137.035 6    -24830.97347  23498776.97747
 20  5 16  1 38 58.0000000  0  9G04G08G09G11G16G21G26G27G31          0.000079445
  21439330.484 6   -117978.332 6    -69101.25848  21439329.75848
  20742529.406 7   -159453.039 7   -102183.66049  20742530.35949
  23063841.438 6   -159530.574 6    -92131.43449  23063842.10249
  23489661.305 6   -299196.043 6   -194908.97347  23489659.06647
  21498467.328 6    -69740.551 6    -39818.88748  21498465.21148
  25192908.664 3    -42638.777 3    -24595.25046  25192907.48846
  22899634.289 5    -62524.668 5    -32507.85247  22899636.17647
  20126541.570 7   -114711.375 7    -65084.91049  20126541.71549
  23498604.570 6    -38052.723 6    -25544.49247  23498602.73047
 20  5 16  1 38 59.0000000  0  9G04G08G09G11G16G21G26G27G31          0.000077328
  21438787.086 6   -120833.230 6    -71325.85948  21438785.75448
  20741596.977 7   -164352.582 7   -106001.48849  20741598.20349
  23062940.328 6   -164266.434 6    -95821.71549  23062940.74249
  23488376.570 6   -305945.320 6   -200168.14847  23488375.12547
  21498066.102 6    -71850.984 6    -41463.37948  21498063.69948
  25192644.391 3    -44033.512 3    -25682.05546  25192642.23446
  22899327.891 5    -64134.074 5    -33761.93047  22899330.06347
  20126014.414 7   -117482.520 7    -67244.25049  20126014.90249
  23498429.766 6    -38969.004 6    -26258.48447  23498428.16847
 20  5 16  1 39  0.0000000  0  9G04G08G09G11G16G21G26G27G31          0.000075214
  21438243.859 6   -123688.313 6    -73550.59848  21438242.94548
  20740664.789 7   -169252.367 7   -109819.50449  20740665.61349
  23062039.234 6   -169002.543 6    -99512.18849  23062039.75449
  23487092.094 6   -312695.293 6   -205427.86747  23487089.84847
  21497664.039 6    -73962.113 6    -43108.41448  21497661.88748
  25192378.719 3    -45428.637 3    -26769.16046  25192376.68846
  22899021.781 5    -65744.254 5    -35016.62147  22899023.56347
  20125487.266 7   -120253.859 7    -69403.74249  20125487.28949
  23498255.125 6    -39885.832 6    -26972.88747  23498253.56347
 20  5 16  1 39  1.0000000  0  9G04G08G09G11G16G21G26G27G31          0.000073097
  21437700.695 6   -126543.516 6    -75775.43848  21437699.64148
  20739732.211 7   -174152.332 7   -113637.65649  20739732.92249
  23061138.125 6   -173738.801 6   -103202.77749  23061138.32049
  23485807.945 6   -319445.949 6   -210688.12147  23485805.50047
  21497262.383 6    -76073.930 6    -44753.99648  21497259.78148
  25192112.641 3    -46824.125 3    -27856.54746  25192111.21146
  22898715.383 5    -67355.160 5    -36271.87547  22898717.18047
  20124959.672 7   -123025.320 7    -71563.32449  20124959.94149
  23498080.563 6    -40803.109 6    -27687.65247  23498079.25047
 20  5 16  1 39  2.0000000  0  9G04G08G09G11G16G21G26G27G31          0.000070982
  21437156.727 6   -129398.863 6    -78000.38348  21437156.47748
  20738799.773 7   -179052.500 7   -117455.96949  20738800.46949
  23060236.898 6   -178475.258 6   -106893.52749  23060236.68049
  23484523.367 6   -326197.234 6   -215948.85947  23484520.82047
  21496860.852 6    -78186.430 6    -46400.09448  21496857.85948
  25191847.375 3    -48219.918 3    -28944.18846  25191845.62146
  22898408.734 5    -68966.801 5    -37527.69947  22898410.36347
  20124432.016 7   -125796.902 7    -73722.99649  20124432.27349
  23497905.898 6    -41720.855 6    -28402.78547  23497904.46947
 20  5 16  1 39  3.0000000  0  9G04G08G09G11G16G21G26G27G31          0.000068865
  21436613.648 6   -132254.332 6    -80225.41848  21436612.98848
  20737867.219 7   -183952.844 7   -121274.41849  20737867.78549
  23059334.992 6   -183211.871 6   -110584.39549  23059335.84449
  23483238.258 6   -332949.184 6   -221210.12147  23483235.93847
  21496458.797 6    -80299.563 6    -48046.69548  21496455.75848
  25191581.680 3    -49616.078 3    -30032.10246  25191579.52046
  22898101.461 5    -70579.203 5    -38784.10947  22898103.66047
  20123904.578 7   -128568.617 7    -75882.77049  20123904.94949
  23497731.352 6    -42639.027 6    -29118.25047  23497729.90647
 20  5 16  1 39  4.0000000  0  9G04G08G09G11G16G21G26G27G31          0.000066750
  21436070.328 6   -135109.906 6    -82450.55148  21436069.35548
  20736934.672 7   -188853.363 7   -125093.00449  20736935.62549
  23058433.938 6   -187948.660 6   -114275.40649  23058434.26249
  23481953.031 6   -339701.777 6   -226471.88347  23481951.03947
  21496056.031 6    -82413.383 6    -49693.82448  21496053.34048
  25191315.578 3    -51012.559 3    -31120.26246  25191314.09446
  22897794.773 5    -72192.301 5    -40041.06647  22897796.74247
  20123377.281 7   -131340.457 7    -78042.65249  20123377.37949
  23497556.563 6    -43557.676 6    -29834.08247  23497555.05947
 20  5 16  1 39  5.0000000  0  9G04G08G09G11G16G21G26G27G31          0.000064629
  21435527.031 6   -137965.574 6    -84675.75048  21435525.96948
  20736002.195 7   -193754.020 7   -128911.70349  20736003.06649
  23057532.891 6   -192685.574 6   -117966.50449  23057533.05549
  23480668.313 6   -346454.973 6   -231734.11347  23480665.89847
  21495653.445 6    -84527.797 6    -51341.42648  21495650.88748
  25191049.617 3    -52409.320 3    -32208.66046  25191048.20346
  22897487.414 5    -73806.125 5    -41298.59847  22897489.66847
  20122849.867 7   -134112.367 7    -80202.57449  20122849.62949
  23497381.555 6    -44476.734 6    -30550.23047  23497379.98847
 20  5 16  1 39  6.0000000  0  9G04G08G09G11G16G21G26G27G31          0.000062513
  21434983.836 6   -140821.367 6    -86901.03948  21434982.70348
  20735069.500 7   -198654.828 7   -132730.51649  20735070.30549
  23056630.773 6   -197422.652 6   -121657.73449  23056631.27749
  23479382.711 6   -353208.813 6   -236996.84447  23479381.05147
  21495251.188 6    -86642.891 6    -52989.54748  21495248.75048
  25190783.609 3    -53806.457 3    -33297.33646  25190782.35546
  22897180.508 5    -75420.664 5    -42556.68847  22897182.11747
  20122322.391 7   -136884.422 7    -82362.62149  20122322.19949
  23497205.977 6    -45396.246 6    -31266.72347  23497205.10547
 20  5 16  1 39  7.0000000  0  9G04G08G09G11G16G21G26G27G31          0.000060392
  21434440.320 6   -143677.203 6    -89126.36348  21434439.11348
  20734136.742 7   -203555.746 7   -136549.41049  20734137.44949
  23055729.391 6   -202159.848 6   -125349.05549  23055729.64849
  23478097.852 6   -359963.277 6   -242260.07047  23478095.35947
  21494848.797 6    -88758.582 6    -54638.13748  21494846.19148
  25190518.141 3    -55203.855 3    -34386.21146  25190516.13746
  22896872.813 5    -77035.871 5    -43815.29347  22896875.41847
  20121794.594 7   -139656.504 7    -84522.68849  20121795.00849
  23497031.000 6    -46316.160 6    -31983.53547  23497030.12547
 20  5 16  1 39  8.0000000  0  9G04G08G09G11G16G21G26G27G31          0.000058275
  21433896.789 6   -146533.063 6    -91351.71148  21433895.83248
  20733204.336 6   -208456.777 6   -140368.39149  20733205.15249
  23054827.516 5   -206897.109 5   -129040.43049  23054828.41849
  23476812.008 6   -366718.250 6   -247523.67647  23476809.94147
  21494445.719 6    -90874.820 6    -56287.15248  21494442.95348
  25190251.742 3    -56601.508 3    -35475.28546  25190250.30946
  22896565.758 5    -78651.715 5    -45074.39147  22896567.53547
  20121267.125 7   -142428.637 7    -86682.78149  20121267.38749
  23496855.820 5    -47236.441 5    -32700.64147  23496854.69147
 20  5 16  1 39  9.0000000  0  9G04G08G09G11G16G21G26G27G31          0.000056154
  21433353.203 6   -149389.141 6    -93577.22748  21433352.38748
  20732271.695 7   -213358.063 7   -144187.57449  20732272.39849
  23053926.500 6   -211634.629 6   -132732.00049  23053926.87949
  23475526.148 6   -373473.953 6   -252787.85547  23475524.46547
  21494043.219 6    -92991.813 6    -57936.76248  21494040.30548
  25189986.039 3    -57999.520 3    -36564.65646  25189984.47746
  22896257.742 5    -80268.371 5    -46334.12147  22896260.20747
  20120739.844 7   -145200.953 7    -88843.03549  20120740.01649
  23496680.883 6    -48157.238 6    -33418.14147  23496679.18047
 20  5 16  1 39 10.0000000  0  9G04G08G09G11G16G21G26G27G31          0.000054037
  21432809.219 6   -152245.270 6    -95802.77348  21432808.44148
  20731338.875 6   -218259.473 6   -148006.84849  20731339.66049
  23053024.703 5   -216372.246 5   -136423.64549  23053025.41049
  23474241.023 6   -380230.262 6   -258052.51647  23474238.65647
  21493640.305 6    -95109.426 6    -59586.84048  21493637.78948
  25189719.141 3    -59397.863 3    -37654.29346  25189717.98446
  22895949.773 5    -81885.691 5    -47594.37147  22895952.36347
  20120212.055 7   -147973.348 7    -91003.34049  20120211.99649
  23496506.148 6    -49078.453 6    -34135.96947  23496504.28947
 20  5 16  1 39 11.0000000  0  9G04G08G09G11G16G21G26G27G31          0.000051914
  21432266.398 6   -155101.410 6    -98028.34048  21432265.44948
  20730406.070 7   -223160.922 7   -151826.16049  20730406.94149
  23052123.234 5   -221109.902 5   -140115.32849  23052123.58649
  23472955.336 6   -386987.074 6   -263317.56647  23472953.40647
  21493237.141 6    -97227.527 6    -61237.31648  21493234.36748
  25189453.656 2    -60796.441 2    -38744.09846  25189451.86746
  22895641.961 5    -83503.609 5    -48855.08647  22895644.37147
  20119684.375 7   -150745.730 7    -93163.63749  20119684.56649
  23496330.383 6    -49999.969 6    -34854.03947  23496328.75447
 20  5 16  1 39 12.0000000  0  9G04G08G09G11G16G21G26G27G31          0.000049795
  21431722.359 6   -157957.492 6   -100253.86748  21431721.58648
  20729473.398 6   -228062.348 6   -155645.45749  20729474.16449
  23051221.438 5   -225847.547 5   -143807.00049  23051222.10549
  23471669.320 6   -393744.348 6   -268582.97347  23471667.22747
  21492834.047 6    -99346.148 6    -62888.18848  21492831.62948
  25189187.797 3    -62195.152 3    -39834.01246  25189185.88746
  22895334.227 5    -85122.094 5    -50116.24247  22895336.26247
  20119157.078 7   -153518.059 7    -95323.89849  20119157.14849
  23496154.586 6    -50921.793 6    -35572.35247  23496153.14147
 20  5 16  1 39 13.0000000  0  9G04G08G09G11G16G21G26G27G31          0.000047672
  21431179.055 6   -160813.508 6   -102479.33248  21431178.21948
  20728540.719 7   -232963.801 7   -159464.77349  20728541.28949
  23050319.898 5   -230585.203 5   -147498.68849  23050320.88749
  23470383.359 6   -400502.113 6   -273848.75847  23470381.70347
  21492430.602 6   -101465.238 6    -64539.43048  21492428.14848
  25188921.695 3    -63594.020 3    -40924.03546  25188919.65646
  22895026.063 5    -86741.121 5    -51377.81647  22895027.91447
  20118629.617 7   -156290.340 7    -97484.11349  20118629.45749
  23495978.930 6    -51843.895 6    -36290.87147  23495977.72347
 20  5 16  1 39 14.0000000  0  9G04G08G09G11G16G21G26G27G31          0.000045553
  21430635.758 6   -163669.500 6   -104704.77748  21430634.84848
  20727608.258 7   -237865.258 7   -163284.09449  20727608.76249
  23049418.758 5   -235322.867 5   -151190.36749  23049418.71549
  23469097.109 6   -407260.332 6   -279114.91047  23469095.51247
  21492027.422 6   -103584.844 6    -66191.06648  21492024.68048
  25188655.781 3    -64993.121 3    -42014.25046  25188653.27346
  22894718.242 5    -88360.730 5    -52639.84847  22894720.05147
  20118101.836 7   -159062.559 7    -99644.29349  20118102.00849
  23495803.727 5    -52766.285 5    -37009.61747  23495802.23847
 20  5 16  1 39 15.0000000  0  9G04G08G09G11G16G21G26G27G31          0.000043428
  21430092.063 6   -166525.500 6   -106930.23048  21430091.35548
  20726675.453 7   -242766.809 7   -167103.47749  20726675.93449
  23048517.789 5   -240060.547 5   -154882.07049  23048517.34049
  23467811.281 6   -414019.109 6   -284381.48847  23467809.23447
  21491623.820 6   -105704.992 6    -67843.13748  21491621.05948
  25188388.859 3    -66392.375 3    -43104.57046  25188387.39546
  22894409.531 5    -89980.969 5    -53902.37947  22894411.93047
  20117574.438 7   -161834.809 7   -101804.48449  20117574.71949
  23495628.094 5    -53688.984 5    -37728.60547  23495626.78947
 20  5 16  1 39 16.0000000  0  9G04G08G09G11G16G21G26G27G31          0.000041309
  21429548.383 6   -169381.473 6   -109155.66048  21429547.68448
  20725742.734 7   -247668.371 7   -170922.87949  20725743.24249
  23047615.367 5   -244798.293 5   -158573.82049  23047615.69949
  23466525.133 6   -420778.398 6   -289648.46947  23466523.32847
  21491221.023 6   -107825.684 6    -69495.62548  21491217.75448
  25188123.039 3    -67791.879 3    -44195.08646  25188121.04346
  22894101.523 5    -91601.781 5    -55165.35547  22894103.44147
  20117046.758 7   -164607.055 7   -103964.67649  20117047.07449
  23495452.055 5    -54612.063 5    -38447.87947  23495450.87947
 20  5 16  1 39 17.0000000  0  9G04G08G09G11G16G21G26G27G31          0.000039185
  21429005.055 6   -172237.328 6   -111381.01248  21429004.34848
  20724810.070 7   -252569.895 7   -174742.23849  20724810.61749
  23046714.211 5   -249535.984 5   -162265.52349  23046714.31649
  23465238.648 6   -427538.063 6   -294915.73847  23465236.84047
  21490816.836 6   -109946.754 6    -71148.40248  21490814.37148
  25187856.602 3    -69191.461 3    -45285.66046  25187854.60546
  22893793.078 5    -93223.102 5    -56428.73047  22893794.91047
  20116519.375 7   -167379.156 7   -106124.75049  20116519.74249
  23495277.078 5    -55535.328 5    -39167.30547  23495275.39547
 20  5 16  1 39 18.0000000  0  9G04G08G09G11G16G21G26G27G31          0.000037064
  21428461.453 6   -175093.117 6   -113606.30148  21428460.92648
  20723877.602 7   -257471.414 7   -178561.60949  20723877.82849
  23045812.688 5   -254273.617 5   -165957.18849  23045812.94949
  23463952.375 6   -434298.199 6   -300183.37547  23463950.39847
  21490412.852 6   -112068.320 6    -72801.57448  21490410.57448
  25187590.109 3    -70591.191 3    -46376.34846  25187588.22346
  22893484.461 5    -94844.953 5    -57692.50447  22893486.12147
  20115991.938 7   -170151.184 7   -108284.77349  20115991.68449
  23495100.516 5    -56458.840 5    -39886.92647  23495099.75047
 20  5 16  1 39 19.0000000  0  9G04G08G09G11G16G21G26G27G31          0.000034939
  21427918.250 6   -177948.852 6   -115831.55148  21427917.48048
  20722944.570 7   -262372.910 7   -182380.95749  20722945.39149
  23044911.125 6   -259011.262 6   -169648.85549  23044911.22349
  23462665.758 6   -441058.820 6   -305451.39547  23462663.80147
  21490009.398 6   -114190.375 6    -74455.12148  21490006.73048
  25187323.547 3    -71991.098 3    -47467.19146  25187321.80146
  22893175.188 5    -96467.367 5    -58956.72747  22893177.61347
  20115464.516 7   -172923.195 7   -110444.78549  20115464.60549
  23494924.711 5    -57382.668 5    -40606.80147  23494923.66447
 20  5 16  1 39 20.0000000  0  9G04G08G09G11G16G21G26G27G31          0.000032818
  21427374.758 6   -180804.535 6   -118056.75848  21427374.30548
  20722011.688 7   -267274.426 7   -186200.31349  20722012.35249
  23044009.117 5   -263748.906 5   -173340.52749  23044009.81649
  23461379.266 6   -447819.914 6   -310719.78547  23461376.99247
  21489605.617 6   -116312.910 6    -76109.04748  21489602.76248
  25187057.078 3    -73391.191 3    -48558.18046  25187055.16046
  22892866.586 5    -98090.332 5    -60221.38747  22892868.73847
  20114936.828 7   -175695.109 7   -112604.71949  20114937.01649
  23494749.047 5    -58306.762 5    -41326.87547  23494747.85247
 20  5 16  1 39 21.0000000  0  9G04G08G09G11G16G21G26G27G31          0.000030691
  21426831.398 6   -183660.238 6   -120281.98048  21426830.71148
  20721079.211 7   -272176.008 7   -190019.73049  20721079.77049
  23043107.734 5   -268486.590 5   -177032.22349  23043108.10949
  23460092.445 6   -454581.527 6   -315988.57847  23460090.75047
  21489201.273 6   -118435.969 6    -77763.37948  21489198.65648
  25186791.070 3    -74791.445 3    -49649.28946  25186789.01246
  22892557.203 5    -99713.898 5    -61486.50047  22892559.18847
  20114409.523 7   -178467.059 7   -114764.68049  20114409.47349
  23494572.836 5    -59231.203 5    -42047.22347  23494571.74247
 20  5 16  1 39 22.0000000  0  9G04G08G09G11G16G21G26G27G31          0.000028570
  21426288.359 6   -186515.816 6   -122507.10548  21426287.64548
  20720146.195 7   -277077.516 7   -193839.08649  20720146.96549
  23042206.492 5   -273224.219 5   -180723.87949  23042206.44549
  23458805.672 6   -461343.543 6   -321257.67247  23458803.73047
  21488797.313 6   -120559.496 6    -79418.07048  21488794.68448
  25186524.438 3    -76191.867 3    -50740.50046  25186522.51246
  22892248.852 5   -101337.992 5    -62752.03147  22892250.55947
  20113881.914 7   -181238.898 7   -116924.55549  20113882.26649
  23494397.180 5    -60155.863 5    -42767.73047  23494395.95347
 20  5 16  1 39 23.0000000  0  9G04G08G09G11G16G21G26G27G31          0.000026443
  21425744.820 6   -189371.328 6   -124732.18448  21425743.93048
  20719213.367 7   -281979.016 7   -197658.43849  20719214.25449
  23041304.508 5   -277961.832 5   -184415.53149  23041304.97349
  23457518.875 6   -468106.023 6   -326527.13747  23457516.89147
  21488392.898 6   -122683.441 6    -81073.10248  21488389.92648
  25186257.906 3    -77592.375 3    -51831.81346  25186256.29346
  22891939.461 5   -102962.582 5    -64017.95347  22891941.18047
  20113354.516 7   -184010.664 7   -119084.37149  20113354.44549
  23494221.070 5    -61080.801 5    -43488.46947  23494219.87547
 20  5 16  1 39 24.0000000  0  9G04G08G09G11G16G21G26G27G31          0.000024321
  21425201.523 6   -192226.773 6   -126957.20748  21425200.43048
  20718280.781 7   -286880.500 7   -201477.78149  20718281.62949
  23040403.672 5   -282699.425 5   -188107.16049  23040403.40249
  23456231.891 6   -474868.941 6   -331796.94547  23456230.19547
  21487988.672 6   -124807.914 6    -82728.53548  21487986.16048
  25185990.898 3    -78993.055 3    -52923.26646  25185989.58646
  22891630.672 5   -104587.750 5    -65284.32047  22891632.00047
  20112827.148 7   -186782.379 7   -121244.14849  20112827.29749
  23494045.148 5    -62005.961 5    -44209.37147  23494044.48047
 20  5 16  1 39 25.0000000  0  9G04G08G09G11G16G21G26G27G31          0.000022192
  21424658.219 6   -195082.254 6   -129182.25848  21424657.07448
  20717348.211 7   -291782.031 7   -205297.15649  20717349.03549
  23039501.664 6   -287437.059 6   -191798.82449  23039502.06349
  23454944.320 6   -481632.398 6   -337067.17247  23454943.00847
  21487584.352 6   -126932.926 6    -84384.39148  21487581.54348
  25185724.289 3    -80393.992 3    -54014.89546  25185722.99646
  22891321.273 5   -106213.543 5    -66551.16847  22891322.52047
  20112299.555 7   -189554.086 7   -123403.92649  20112299.73049
  23493869.398 5    -62931.496 5    -44930.56647  23493868.23847
 20  5 16  1 39 26.0000000  0  9G04G08G09G11G16G21G26G27G31          0.000020069
  21424114.305 6   -197937.570 6   -131407.18048  21424113.73848
  20716415.320 7   -296683.492 7   -209116.48449  20716416.18449
  23038599.984 5   -292174.582 5   -195490.40649  23038600.62949
  23453657.023 6   -488396.246 6   -342337.69947  23453655.71947
  21487179.859 6   -129058.332 6    -86040.54748  21487177.34048
  25185457.977 3    -81795.004 3    -55106.60546  25185456.39546
  22891011.820 5   -107839.793 5    -67818.37147  22891012.92647
  20111772.047 7   -192325.660 7   -125563.59049  20111772.41049
  23493693.219 5    -63857.234 5    -45651.91847  23493691.85947
 20  5 16  1 39 27.0000000  0  9G04G08G09G11G16G21G26G27G31          0.000017941
  21423571.242 6   -200792.816 6   -133632.04748  21423570.39148
  20715482.914 7   -301584.934 7   -212935.78549  20715483.48449
  23037698.859 5   -296912.102 5   -199181.98449  23037698.91049
  23452370.109 6   -495160.555 6   -347608.59847  23452368.84447
  21486775.555 6   -131184.184 6    -87697.05948  21486772.68848
  25185190.969 2    -83196.086 2    -56198.35546  25185189.94546
  22890702.039 5   -109466.613 5    -69086.02747  22890703.78947
  20111244.781 7   -195097.156 7   -127723.19949  20111244.68449
  23493516.742 5    -64783.246 5    -46373.48847  23493515.45347
 20  5 16  1 39 28.0000000  0  9G04G08G09G11G16G21G26G27G31          0.000015818
  21423027.727 6   -203648.004 6   -135856.87148  21423026.86748
  20714550.094 7   -306486.391 7   -216755.09849  20714551.01649
  23036797.141 6   -301649.594 6   -202873.53549  23036797.46149
  23451082.367 5   -501925.332 5   -352879.85247  23451081.86347
  21486370.633 6   -133310.551 6    -89353.96148  21486368.04348
  25184925.039 3    -84597.383 3    -57290.27746  25184923.09846
  22890391.953 5   -111093.953 5    -70354.08647  22890394.00847
  20110717.492 7   -197868.617 7   -129882.77749  20110717.52749
  23493340.586 5    -65709.512 5    -47095.25047  23493339.35547
 20  5 16  1 39 29.0000000  0  9G04G08G09G11G16G21G26G27G31          0.000013687
  21422484.484 6   -206503.277 6   -138081.75848  21422483.97348
  20713617.008 7   -311387.957 7   -220574.49649  20713618.21949
  23035895.656 5   -306387.219 5   -206565.19149  23035895.98449
  23449795.359 5   -508690.680 5   -358151.54347  23449793.91047
  21485965.938 6   -135437.504 6    -91011.33648  21485963.40248
  25184657.758 3    -85998.980 3    -58382.43046  25184656.68846
  22890082.313 5   -112721.988 5    -71622.68447  22890084.53147
  20110189.797 7   -200640.133 7   -132042.39549  20110190.02049
  23493164.336 5    -66636.164 5    -47817.32447  23493162.96947
 20  5 16  1 39 30.0000000  0  9G04G08G09G11G16G21G26G27G31          0.000011564
  21421941.547 6   -209358.316 6   -140306.45748  21421940.81648
  20712684.828 7   -316289.344 7   -224393.76249  20712685.51249
  23034994.367 5   -311124.703 5   -210256.73449  23034994.16449
  23448508.133 5   -515456.363 5   -363423.49647  23448506.52047
  21485561.617 6   -137564.781 6    -92668.94948  21485558.40648
  25184391.203 2    -87400.523 2    -59474.55546  25184389.99246
  22889772.508 5   -114350.379 5    -72891.55147  22889774.55947
  20109662.344 7   -203411.406 7   -134201.83649  20109662.82449
  23492987.961 5    -67562.934 5    -48539.48847  23492986.69147
 20  5 16  1 39 31.0000000  0  9G04G08G09G11G16G21G26G27G31          0.000009434
  21421398.117 6   -212213.164 6   -142531.02048  21421397.21148
  20711751.867 7   -321190.621 7   -228212.94149  20711752.56349
  23034092.266 6   -315862.023 6   -213948.15649  23034093.05949
  23447220.188 6   -522222.359 6   -368695.69547  23447219.11747
  21485156.383 6   -139692.422 6    -94326.85548  21485153.70748
  25184125.102 2    -88802.215 2    -60566.79746  25184123.01246
  22889462.211 5   -115979.242 5    -74160.80147  22889464.34847
  20109135.180 7   -206182.555 7   -136361.17249  20109135.56349
  23492811.695 5    -68489.906 5    -49261.80947  23492810.26247
 20  5 16  1 39 32.0000000  0  9G04G08G09G11G16G21G26G27G31          0.000007309
  21420854.922 6   -215067.945 6   -144755.52348  21420854.07848
  20710819.148 7   -326091.840 7   -232032.06349  20710820.14849
  23033191.313 5   -320599.262 5   -217639.50849  23033191.57449
  23445932.781 5   -528988.789 5   -373968.24247  23445931.38347
  21484751.383 6   -141820.492 6    -95985.09448  21484749.03148
  25183857.586 3    -90203.910 3    -61659.02346  25183856.21946
  22889152.406 5   -117608.570 5    -75430.40647  22889154.30547
  20108608.039 7   -208953.578 7   -138520.40249  20108607.92249
  23492635.180 5    -69417.070 5    -49984.27347  23492633.96547
 20  5 16  1 39 33.0000000  0  9G04G08G09G11G16G21G26G27G31          0.000005178
  21420311.555 6   -217922.672 6   -146979.98448  21420310.62148
  20709886.523 7   -330993.102 7   -235851.23449  20709887.10549
  23032289.383 5   -325336.566 5   -221330.91449  23032289.85549
  23444644.953 6   -535755.684 6   -379241.14147  23444643.37947
  21484346.313 6   -143949.078 6    -97643.73448  21484343.77048
  25183591.258 2    -91605.875 2    -62751.44946  25183590.10246
  22888842.313 5   -119238.492 5    -76700.47747  22888843.98847
  20108080.672 7   -211724.563 7   -140679.61349  20108080.80949
  23492458.391 5    -70344.570 5    -50707.00047  23492457.91447
 20  5 16  1 39 34.0000000  0  9G04G08G09G11G16G21G26G27G31          0.000003052
  21419768.375 6   -220777.262 6   -149204.33648  21419767.93448
  20708953.969 7   -335894.273 7   -239670.32849  20708954.73049
  23031387.969 5   -330073.711 5   -225022.19949  23031388.56349
  23443357.352 5   -542522.984 5   -384514.36347  23443355.70347
  21483941.070 6   -146078.063 6    -99302.68048  21483938.81648
  25183324.148 3    -93007.832 3    -63843.87946  25183322.93846
  22888532.188 5   -120868.883 5    -77970.91047  22888533.78947
  20107553.789 7   -214495.410 7   -142838.71949  20107553.38349
  23492282.250 5    -71272.230 5    -51429.85547  23492280.96547
 20  5 16  1 39 35.0000000  0  9G04G08G09G11G16G21G26G27G31          0.000000921
  21419225.484 6   -223631.813 6   -151428.66448  21419224.59048
  20708021.188 7   -340795.469 7   -243489.44549  20708022.00849
  23030486.344 5   -334810.906 5   -228713.51649  23030487.02749
  23442069.586 5   -549290.785 5   -389787.97347  23442067.89147
  21483536.148 6   -148207.535 6   -100962.01648  21483533.59848
  25183057.719 3    -94410.051 3    -64936.51246  25183055.90246
  22888221.375 5   -122499.875 5    -79241.81647  22888223.78547
  20107026.297 7   -217266.230 7   -144997.80149  20107026.43049
  23492105.391 5    -72200.207 5    -52152.95347  23492104.52747
 20  5 16  1 39 36.0000000  0  9G04G08G09G11G16G21G26G27G31         -0.000001205
  21418682.039 6   -226486.281 6   -153652.92248  21418681.09848
  20707088.617 7   -345696.625 7   -247308.53149  20707089.12549
  23029585.227 5   -339548.055 5   -232404.80149  23029585.78949
  23440781.125 5   -556058.965 5   -395061.88347  23440779.72347
  21483130.594 6   -150337.488 6   -102621.71548  21483128.16448
  25182790.789 2    -95812.352 2    -66029.21146  25182789.32446
  22887910.641 5   -124131.348 5    -80513.08647  22887913.13347
  20106498.906 7   -220036.961 7   -147156.80949  20106498.85949
  23491928.984 5    -73128.426 5    -52876.23847  23491927.95347
 20  5 16  1 39 37.0000000  0  9G04G08G09G11G16G21G26G27G31         -0.000003336
  21418138.836 6   -229340.660 6   -155877.12548  21418137.84048
  20706156.039 7   -350597.754 7   -251127.59049  20706156.76249
  23028683.367 5   -344285.152 5   -236096.04749  23028683.84049
  23439493.602 5   -562827.621 5   -400336.16047  23439492.27747
  21482725.148 6   -152467.867 6   -104281.75848  21482722.40648
  25182524.438 2    -97214.797 2    -67122.02046  25182522.40246
  22887600.414 5   -125763.359 5    -81784.78547  22887602.46547
  20105971.570 7   -222807.590 7   -149315.74249  20105971.53949
  23491752.250 5    -74056.879 5    -53599.71947  23491751.19147
 20  5 16  1 39 38.0000000  0  9G04G08G09G11G16G21G26G27G31         -0.000005465
  21417595.813 6   -232194.965 6   -158101.26248  21417595.10548
  20705223.547 7   -355498.875 7   -254946.64849  20705224.14849
  23027782.117 5   -349022.254 5   -239787.29749  23027783.04349
  23438205.375 6   -569596.707 6   -405610.76647  23438203.78147
  21482319.359 6   -154598.719 6   -105942.15648  21482316.94548
  25182257.414 3    -98617.391 3    -68214.93046  25182255.55946
  22887290.078 5   -127395.902 5    -83056.90247  22887291.75847
  20105444.648 7   -225578.148 7   -151474.62549  20105444.51249
  23491575.406 5    -74985.621 5    -54323.41847  23491574.62947
 20  5 16  1 39 39.0000000  0  9G04G08G09G11G16G21G26G27G31         -0.000007595
  21417052.617 6   -235049.000 6   -160325.18448  21417051.63748
  20704290.844 7   -360399.734 7   -258765.49649  20704291.37949
  23026880.641 5   -353759.066 5   -243478.32049  23026881.35949
  23436917.258 6   -576366.031 6   -410885.55947  23436915.66047
  21481914.063 6   -156729.824 6   -107602.75848  21481911.65248
  25181989.461 3   -100019.902 3    -69307.80946  25181988.57446
  22886978.789 5   -129028.785 5    -84329.28147  22886980.99247
  20104917.414 7   -228348.441 7   -153633.28949  20104917.44149
  23491398.961 5    -75914.371 5    -55047.12547  23491398.15647
 20  5 16  1 39 40.0000000  0  9G04G08G09G11G16G21G26G27G31         -0.000009724
  21416509.203 6   -237902.992 6   -162549.07448  21416508.46148
  20703358.234 7   -365300.645 7   -262584.39149  20703358.80149
  23025979.688 6   -358495.926 6   -247169.37949  23025979.78149
  23435628.836 6   -583135.875 6   -416160.75047  23435627.21147
  21481509.313 6   -158861.453 6   -109263.76648  21481506.02048
  25181723.453 3   -101422.578 3    -70400.79346  25181721.76246
  22886667.523 5   -130662.227 5    -85602.08247  22886670.31347
  20104390.313 7   -231118.688 7   -155791.92649  20104390.23849
  23491222.570 5    -76843.453 5    -55771.08647  23491221.14847
 20  5 16  1 39 41.0000000  0  9G04G08G09G11G16G21G26G27G31         -0.000011856
  21415966.844 6   -240756.820 6   -164772.83648  21415965.89848
  20702425.078 7   -370201.410 7   -266403.16449  20702426.39149
  23025078.031 6   -363232.645 6   -250860.32449  23025078.72749
  23434340.703 6   -589906.023 6   -421436.19547  23434338.73047
  21481103.086 6   -160993.414 6   -110925.03948  21481100.46548
  25181456.406 3   -102825.316 3    -71493.84446  25181454.61746
  22886357.125 5   -132296.094 5    -86875.22747  22886359.38347
  20103863.398 7   -233888.770 7   -157950.43449  20103862.96149
  23491045.375 6    -77772.672 6    -56495.15247  23491044.11347
 20  5 16  1 39 42.0000000  0  9G04G08G09G11G16G21G26G27G31         -0.000013985
  21415423.438 6   -243610.410 6   -166996.41048  21415422.58648
  20701492.750 7   -375102.000 7   -270221.80949  20701493.59449
  23024177.234 6   -367969.191 6   -254551.14149  23024177.33249
  23433052.266 5   -596676.461 5   -426711.86347  23433050.77747
  21480697.172 6   -163125.703 6   -112586.56348  21480694.52048
  25181188.656 3   -104228.074 3    -72586.90646  25181187.68846
  22886046.117 5   -133930.367 5    -88148.69147  22886048.76247
  20103335.867 7   -236658.645 7   -160108.77049  20103336.00849
  23490869.109 6    -78702.047 6    -57219.33647  23490867.68047
 20  5 16  1 39 43.0000000  0  9G04G08G09G11G16G21G26G27G31         -0.000016117
  21414880.578 6   -246463.844 6   -169219.87548  21414879.33248
  20700560.484 7   -380002.523 7   -274040.39849  20700561.19149
  23023276.414 6   -372705.645 6   -258241.89149  23023276.14149
  23431764.023 5   -603447.293 5   -431987.83647  23431762.44547
  21480291.047 6   -165258.383 6   -114248.38748  21480288.44148
  25180921.727 3   -105630.859 3    -73680.00046  25180920.28146
  22885735.188 5   -135565.086 5    -89422.50447  22885737.53547
  20102808.867 7   -239428.332 7   -162266.97349  20102809.12949
  23490691.984 5    -79631.555 5    -57943.62947  23490690.77047
 20  5 16  1 39 44.0000000  0  9G04G08G09G11G16G21G26G27G31         -0.000018248
  21414337.234 6   -249317.184 6   -171443.25448  21414336.75448
  20699627.914 7   -384902.973 7   -277858.92649  20699628.37549
  23022374.516 6   -377442.027 6   -261932.57449  23022374.76649
  23430475.313 6   -610218.559 6   -437264.14547  23430473.41047
  21479885.313 6   -167391.520 6   -115910.57448  21479882.70748
  25180655.383 3   -107033.785 3    -74773.19146  25180653.19146
  22885424.195 5   -137200.309 5    -90696.71547  22885426.37147
  20102281.922 7   -242197.961 7   -164425.12549  20102282.16049
  23490515.016 6    -80561.316 6    -58668.11747  23490513.94947
 20  5 16  1 39 45.0000000  0  9G04G08G09G11G16G21G26G27G31         -0.000020380
  21413794.484 6   -252170.410 6   -173666.54748  21413793.55148
  20698695.367 7   -389803.320 7   -281677.37949  20698696.34449
  23021472.859 6   -382178.313 6   -265623.18449  23021473.68449
  23429186.789 6   -616990.145 6   -442540.70747  23429184.88347
  21479479.273 6   -169525.020 6   -117573.03948  21479476.53148
  25180388.633 3   -108436.805 3    -75866.45746  25180386.59846
  22885113.195 5   -138835.996 5    -91971.27747  22885114.69147
  20101754.922 7   -244967.410 7   -166583.13749  20101755.04749
  23490337.734 6    -81491.266 6    -59392.75847  23490336.49247
 20  5 16  1 39 46.0000000  0  9G04G08G09G11G16G21G26G27G31         -0.000022511
  21413251.523 6   -255023.367 6   -175889.63348  21413250.76248
  20697762.750 7   -394703.488 7   -285495.69149  20697763.33249
  23020571.609 6   -386914.398 6   -269313.64549  23020572.25849
  23427898.094 6   -623762.070 6   -447817.53147  23427896.53947
  21479073.031 6   -171658.820 6   -119235.74248  21479070.65248
  25180121.734 3   -109839.703 3    -76959.62546  25180119.86346
  22884801.586 5   -140472.086 5    -93246.14547  22884803.81647
  20101228.063 7   -247736.637 7   -168740.97749  20101227.93449
  23490160.836 6    -82421.316 6    -60117.47747  23490159.65647
 20  5 16  1 39 47.0000000  0  9G04G08G09G11G16G21G26G27G31         -0.000024645
  21412708.313 6   -257876.184 6   -178112.60248  21412707.65248
  20696830.453 7   -399603.570 7   -289313.93849  20696830.90649
  23019670.398 6   -391650.383 6   -273004.02349  23019671.03549
  23426609.234 6   -630534.352 6   -453094.63347  23426607.41447
  21478666.953 6   -173793.039 6   -120898.77048  21478664.19148
  25179854.000 3   -111242.797 3    -78052.94946  25179852.28546
  22884490.875 5   -142108.609 5    -94521.35947  22884492.22747
  20100701.117 7   -250505.734 7   -170898.71549  20100701.02749
  23489983.656 6    -83351.590 6    -60842.37147  23489982.64147
 20  5 16  1 39 48.0000000  0  9G04G08G09G11G16G21G26G27G31         -0.000026775
  21412166.031 6   -260728.848 6   -180335.45748  21412164.93048
  20695898.063 7   -404503.535 7   -293132.09449  20695898.84049
  23018769.336 6   -396386.250 6   -276694.30549  23018769.77049
  23425320.102 6   -637306.961 6   -458371.99247  23425318.66847
  21478261.047 6   -175927.609 6   -122562.07048  21478258.46148
  25179587.039 3   -112645.875 3    -79146.26246  25179585.36346
  22884179.445 5   -143745.551 5    -95796.90647  22884180.96947
  20100174.094 7   -253274.641 7   -173056.30949  20100174.22349
  23489806.680 6    -84281.984 6    -61567.35547  23489805.75447
 20  5 16  1 39 49.0000000  0  9G04G08G09G11G16G21G26G27G31         -0.000028910
  21411623.102 6   -263581.320 6   -182558.16048  21411622.32848
  20694965.461 7   -409403.406 7   -296950.17649  20694966.29749
  23017868.500 6   -401122.000 6   -280384.50449  23017868.65649
  23424031.789 5   -644079.949 5   -463649.64547  23424029.85547
  21477855.094 6   -178062.535 6   -124225.64848  21477852.16448
  25179320.008 3   -114049.035 3    -80239.62946  25179318.65246
  22883867.555 5   -145382.973 5    -97072.82047  22883869.25447
  20099647.039 7   -256043.410 7   -175213.78949  20099647.31349
  23489629.133 6    -85212.559 6    -62292.48047  23489628.71547
 20  5 16  1 39 50.0000000  0  9G04G08G09G11G16G21G26G27G31         -0.000031040
  21411080.344 6   -266433.781 6   -184780.86348  21411079.36748
  20694033.008 7   -414303.297 7   -300768.27349  20694033.72749
  23016967.008 6   -405857.746 6   -284074.70349  23016967.52049
  23422742.289 5   -650853.410 5   -468927.66447  23422741.23847
  21477448.414 6   -180198.016 6   -125889.66448  21477445.88348
  25179052.781 3   -115452.383 3    -81333.13746  25179051.83646
  22883555.758 5   -147020.961 5    -98349.18047  22883557.32047
  20099120.227 7   -258812.113 7   -177371.22749  20099120.39549
  23489452.344 6    -86143.434 6    -63017.84447  23489451.44147
 20  5 16  1 39 51.0000000  0  9G04G08G09G11G16G21G26G27G31         -0.000033176
  21410537.648 6   -269286.063 6   -187003.41848  21410536.27048
  20693100.531 7   -419203.074 7   -304586.27749  20693101.31349
  23016065.531 5   -410593.348 5   -287764.78949  23016066.38349
  23421453.273 6   -657627.203 6   -474205.94547  23421451.86747
  21477041.773 6   -182333.844 6   -127553.95348  21477039.26248
  25178786.000 3   -116855.727 3    -82426.63346  25178784.69146
  22883243.539 5   -148659.359 5    -99625.85947  22883245.55147
  20098593.242 7   -261580.672 7   -179528.54349  20098593.50049
  23489274.906 6    -87074.457 6    -63743.32047  23489274.27047
 20  5 16  1 39 52.0000000  0  9G04G08G09G11G16G21G26G27G31         -0.000035307
  21409994.914 6   -272138.176 6   -189225.84848  21409993.85548
  20692168.289 7   -424102.727 7   -308404.18849  20692169.53549
  23015164.070 5   -415328.852 5   -291454.79349  23015164.83649
  23420164.734 5   -664401.391 5   -479484.53547  23420162.58647
  21476635.531 6   -184470.031 6   -129218.51648  21476632.96948
  25178519.219 3   -118259.172 3    -83520.23446  25178517.66846
  22882931.953 5   -150298.227 5   -100902.89847  22882933.78947
  20098066.570 7   -264349.070 7   -181685.73049  20098066.46949
  23489097.828 5    -88005.684 5    -64468.95347  23489097.43047
 20  5 16  1 39 53.0000000  0  9G04G08G09G11G16G21G26G27G31         -0.000037443
  21409452.078 6   -274990.059 6   -191448.09448  21409451.20348
  20691235.664 7   -429002.195 7   -312221.95749  20691236.72749
  23014263.523 5   -420064.176 5   -295144.65249  23014263.89849
  23418875.672 6   -671175.840 6   -484763.32447  23418873.55947
  21476228.781 6   -186606.539 6   -130883.32848  21476226.09848
  25178252.531 3   -119662.605 3    -84613.82446  25178250.47346
  22882620.000 5   -151937.488 5   -102180.24647  22882621.57047
  20097539.867 7   -267117.223 7   -183842.73449  20097539.68849
  23488920.516 6    -88936.980 6    -65194.64547  23488920.43047
 20  5 16  1 39 54.0000000  0  9G04G08G09G11G16G21G26G27G31         -0.000039576
  21408909.773 6   -277841.660 6   -193670.11348  21408908.87948
  20690303.805 7   -433901.422 7   -316039.53949  20690304.42649
  23013362.594 5   -424799.227 5   -298834.30549  23013363.24249
  23417586.383 6   -677950.520 6   -490042.29747  23417584.32047
  21475822.188 6   -188743.297 6   -132548.33248  21475819.70348
  25177985.297 3   -121065.977 3    -85707.36746  25177983.55946
  22882308.078 5   -153577.012 5   -103457.79347  22882310.09047
  20097013.297 7   -269885.078 7   -185999.50049  20097013.23849
  23488743.523 5    -89868.320 5    -65920.36347  23488742.70347
 20  5 16  1 39 55.0000000  0  9G04G08G09G11G16G21G26G27G31         -0.000041712
  21408366.859 6   -280693.098 6   -195892.01648  21408365.77048
  20689371.523 7   -438800.555 7   -319857.03949  20689372.44549
  23012461.289 5   -429534.176 5   -302523.86749  23012461.69949
  23416297.258 6   -684725.563 6   -495321.54747  23416295.02347
  21475415.836 6   -190880.410 6   -134213.60548  21475413.49248
  25177718.164 3   -122469.359 3    -86800.91046  25177716.56646
  22881995.609 5   -155216.984 5   -104735.69147  22881997.66047
  20096486.320 7   -272652.773 7   -188156.14849  20096486.35549
  23488566.180 5    -90799.828 5    -66646.21147  23488565.21547
 20  5 16  1 39 56.0000000  0  9G04G08G09G11G16G21G26G27G31         -0.000043844
  21407824.359 6   -283544.316 6   -198113.74248  21407823.53548
  20688439.156 7   -443699.535 7   -323674.42649  20688440.15649
  23011560.492 5   -434269.000 5   -306213.34049  23011560.80149
  23415008.188 6   -691500.918 6   -500601.04747  23415005.30947
  21475008.297 6   -193017.879 6   -135879.16048  21475006.06348
  25177451.156 3   -123872.773 3    -87894.48046  25177449.39846
  22881683.625 5   -156857.438 5   -106013.96147  22881685.74647
  20095959.797 7   -275420.285 7   -190312.65249  20095959.75449
  23488388.547 5    -91731.480 5    -67372.18047  23488387.98047
 20  5 16  1 39 57.0000000  0  9G04G08G09G11G16G21G26G27G31         -0.000045982
  21407281.484 6   -286395.477 6   -200335.42648  21407280.73848
  20687507.266 7   -448598.465 7   -327491.77049  20687507.98049
  23010659.938 5   -439003.719 5   -309902.72349  23010659.96149
  23413718.820 6   -698276.723 6   -505880.89547  23413716.05147
  21474601.688 6   -195155.793 6   -137545.06648  21474599.43448
  25177184.414 4   -125276.301 4    -88988.14146  25177182.19946
  22881371.227 5   -158498.348 5   -107292.59447  22881373.48847
  20095433.211 7   -278187.695 7   -192469.07449  20095433.40649
  23488211.586 5    -92663.383 5    -68098.33647  23488210.64147
 20  5 16  1 39 58.0000000  0  9G04G08G09G11G16G21G26G27G31         -0.000048115
  21406739.352 6   -289246.348 6   -202556.88348  21406738.27748
  20686574.867 7   -453497.195 7   -331308.96549  20686575.45349
  23009759.289 5   -443738.270 5   -313591.97349  23009759.09449
  23412429.156 6   -705052.758 6   -511160.92247  23412426.76247
  21474194.820 6   -197293.969 6   -139211.18048  21474192.51248
  25176917.172 4   -126679.801 4    -90081.78546  25176915.51646
  22881058.719 5   -160139.625 5   -108571.52047  22881061.13347
  20094906.711 7   -280954.852 7   -194625.29749  20094906.75849
  23488034.406 5    -93595.324 5    -68824.53147  23488033.44947
 20  5 16  1 39 59.0000000  0  9G04G08G09G11G16G21G26G27G31         -0.000050253
  21406196.641 6   -292097.031 6   -204778.19548  21406195.98848
  20685642.672 7   -458395.797 7   -335126.05549  20685643.36749
  23008857.898 6   -448472.629 6   -317281.08249  23008858.16449
  23411139.313 6   -711829.125 6   -516441.20747  23411137.14547
  21473788.109 6   -199432.500 6   -140877.57048  21473785.54348
  25176649.875 4   -128083.332 4    -91175.43846  25176648.32446
  22880746.430 5   -161781.324 5   -109850.77047  22880748.86347
  20094380.227 7   -283721.816 7   -196781.37549  20094380.03549
  23487857.430 5    -94527.465 5    -69550.87947  23487856.13347
 20  5 16  1 40  0.0000000  0  9G04G08G09G11G16G21G26G27G31         -0.000052385
  21405654.133 6   -294947.586 6   -206999.41448  21405653.50848
  20684710.602 7   -463294.316 7   -338943.08649  20684711.49249
  23007956.883 5   -453206.922 5   -320970.14849  23007957.30549
  23409849.711 6   -718605.879 6   -521721.79747  23409847.57847
  21473381.242 6   -201571.430 6   -142544.26648  21473378.57848
  25176382.969 4   -129486.953 4    -92269.16846  25176381.20746
  22880433.977 5   -163423.469 5   -111130.36747  22880435.82047
  20093853.484 7   -286488.652 7   -198937.35249  20093853.93449
  23487679.234 5    -95459.734 5    -70277.32047  23487679.11347
 20  5 16  1 40  1.0000000  0  9G04G08G09G11G16G21G26G27G31         -0.000054523
  21405111.938 6   -297797.996 6   -209220.51648  21405111.01248
  20683778.180 6   -468192.746 6   -342760.04349  20683778.91449
  23007056.109 6   -457941.066 6   -324659.09849  23007056.05149
  23408560.656 6   -725382.984 6   -527002.65647  23408557.90247
  21472973.695 6   -203710.754 6   -144211.27348  21472971.19548
  25176116.016 4   -130890.613 4    -93362.91446  25176114.25446
  22880121.445 5   -165066.078 5   -112410.32847  22880123.21547
  20093327.352 7   -289255.328 7   -201093.20749  20093327.07849
  23487501.938 5    -96392.219 5    -71003.93447  23487501.03547
 20  5 16  1 40  2.0000000  0  9G04G08G09G11G16G21G26G27G31         -0.000056658
  21404569.313 6   -300648.230 6   -211441.47748  21404568.45348
  20682846.102 7   -473091.043 7   -346576.90249  20682846.91449
  23006154.547 5   -462675.176 5   -328348.02349  23006154.81649
  23407270.930 6   -732160.477 6   -532283.81347  23407267.92247
  21472567.078 6   -205850.473 6   -145878.59048  21472564.37148
  25175848.297 4   -132294.352 4    -94456.74246  25175847.14546
  22879809.172 5   -166709.145 5   -113690.63347  22879811.03947
  20092800.758 7   -292021.852 7   -203248.93849  20092800.92649
  23487324.664 5    -97324.863 5    -71730.66447  23487323.78947
 20  5 16  1 40  3.0000000  0  9G04G08G09G11G16G21G26G27G31         -0.000058796
  21404027.164 6   -303498.254 6   -213662.26648  21404026.26648
  20681914.258 7   -477989.199 7   -350393.64549  20681914.80149
  23005253.992 5   -467409.047 5   -332036.75449  23005254.42249
  23405980.945 6   -738938.246 6   -537565.19147  23405978.43847
  21472159.875 6   -207990.488 6   -147546.14148  21472156.96148
  25175582.148 4   -133698.039 4    -95550.53546  25175580.00846
  22879495.977 5   -168352.594 5   -114971.23847  22879498.13747
  20092274.078 7   -294788.164 7   -205404.51249  20092274.46949
  23487146.914 5    -98257.668 5    -72457.53547  23487146.38747
 20  5 16  1 40  4.0000000  0  9G04G08G09G11G16G21G26G27G31         -0.000060932
  21403484.688 6   -306348.063 6   -215882.90648  21403484.18048
  20680982.344 6   -482887.176 6   -354210.25049  20680983.07449
  23004353.352 5   -472142.781 5   -335725.37549  23004353.83649
  23404691.227 6   -745716.332 6   -542846.82047  23404688.91447
  21471752.336 6   -210130.816 6   -149213.93448  21471749.90648
  25175314.352 4   -135101.773 4    -96644.36746  25175312.76646
  22879183.438 5   -169996.441 5   -116252.15247  22879185.10547
  20091747.875 7   -297554.262 7   -207559.90649  20091748.12949
  23486969.289 5    -99190.592 5    -73184.49647  23486968.66047
 20  5 16  1 40  5.0000000  0  9G04G08G09G11G16G21G26G27G31         -0.000063070
  21402942.539 6   -309197.742 6   -218103.43448  21402941.65648
  20680050.148 7   -487785.113 7   -358026.82449  20680050.99649
  23003452.469 5   -476876.414 5   -339413.91849  23003453.10249
  23403401.156 6   -752494.801 6   -548128.74647  23403398.83247
  21471345.352 6   -212271.570 6   -150882.05148  21471342.60948
  25175046.977 4   -136505.590 4    -97738.25846  25175045.46146
  22878870.758 5   -171640.762 5   -117533.44147  22878872.27747
  20091221.602 7   -300320.223 7   -209715.20349  20091221.31649
  23486791.719 5   -100123.660 5    -73911.56347  23486791.13347
 20  5 16  1 40  6.0000000  0  9G04G08G09G11G16G21G26G27G31         -0.000065207
  21402400.273 6   -312047.250 6   -220323.83648  21402399.61748
  20679117.773 7   -492682.902 7   -361843.28149  20679118.64849
  23002552.070 5   -481609.902 5   -343102.34449  23002552.28949
  23402110.977 6   -759273.594 6   -553410.92647  23402108.97347
  21470937.586 6   -214412.660 6   -152550.43048  21470934.75448
  25174779.820 4   -137909.418 4    -98832.13746  25174778.40646
  22878557.977 5   -173285.496 5   -118815.05547  22878559.44947
  20090695.250 7   -303086.000 7   -211870.35249  20090695.49649
  23486614.125 5   -101056.867 5    -74638.73047  23486613.15647
 20  5 16  1 40  7.0000000  0  9G04G08G09G11G16G21G26G27G31         -0.000067345
  21401858.391 6   -314896.539 6   -222544.06648  21401857.62148
  20678186.063 7   -497580.531 7   -365659.61349  20678186.65649
  23001651.063 6   -486343.223 6   -346790.65249  23001651.69149
  23400821.359 6   -766052.719 6   -558693.36347  23400818.85547
  21470529.633 6   -216554.090 6   -154219.07848  21470527.71148
  25174511.641 4   -139313.324 4    -99926.08646  25174511.48446
  22878244.336 5   -174930.660 5   -120097.00847  22878246.05547
  20090168.906 7   -305851.598 7   -214025.36749  20090168.97749
  23486436.805 6   -101990.270 6    -75366.05947  23486436.05147
 20  5 16  1 40  8.0000000  0  9G04G08G09G11G16G21G26G27G31         -0.000069481
  21401316.086 6   -317745.668 6   -224764.16448  21401315.54748
  20677253.914 7   -502478.035 7   -369475.85549  20677254.57049
  23000750.500 6   -491076.430 6   -350478.87549  23000750.48849
  23399531.063 6   -772832.153 6   -563976.03947  23399528.87547
  21470122.180 6   -218695.875 6   -155887.99648  21470119.52748
  25174245.367 3   -140717.215 3   -101020.02346  25174244.26646
  22877931.664 5   -176576.242 5   -121379.28147  22877933.24247
  20089642.992 7   -308617.000 7   -216180.22749  20089642.74249
  23486259.563 5   -102923.805 5    -76093.49647  23486258.36747
 20  5 16  1 40  9.0000000  0  9G04G08G09G11G16G21G26G27G31         -0.000071621
  21400773.930 6   -320594.672 6   -226984.16848  21400773.21548
  20676322.102 7   -507375.461 7   -373292.02749  20676323.23049
  22999849.773 6   -495809.547 6   -354167.02049  22999850.31649
  23398241.016 6   -779611.984 6   -569259.02047  23398238.48447
  21469714.695 6   -220838.066 6   -157557.23848  21469711.93848
  25173977.953 3   -142121.223 3   -102114.05146  25173977.01246
  22877617.969 5   -178222.293 5   -122661.92247  22877619.91047
  20089116.492 7   -311382.262 7   -218334.97349  20089116.52349
  23486081.281 5   -103857.559 5    -76821.09447  23486080.36347
 20  5 16  1 40 10.0000000  0  9G04G08G09G11G16G21G26G27G31         -0.000073757
  21400231.859 6   -323443.441 6   -229203.98848  21400231.00448
  20675390.320 7   -512272.730 7   -377108.08249  20675390.94549
  22998948.789 5   -500542.465 5   -357855.00849  22998949.44149
  23396950.109 5   -786392.129 5   -574542.25847  23396948.44147
  21469307.016 6   -222980.578 6   -159226.72748  21469304.50048
  25173710.617 3   -143525.207 3   -103208.05546  25173709.87146
  22877304.836 5   -179868.734 5   -123944.86747  22877306.32447
  20088590.523 7   -314147.336 7   -220489.57849  20088590.34849
  23485903.984 5   -104791.391 5    -77548.75847  23485902.87147
 20  5 16  1 40 11.0000000  0  9G04G08G09G11G16G21G26G27G31         -0.000075899
  21399689.445 6   -326292.031 6   -231423.66848  21399689.00448
  20674458.164 7   -517169.855 7   -380924.02749  20674458.96549
  22998048.313 5   -505275.258 5   -361542.88349  22998049.35949
  23395660.719 5   -793172.602 5   -579825.74647  23395658.21147
  21468899.328 6   -225123.453 6   -160896.50048  21468896.57048
  25173444.086 4   -144929.262 4   -104302.12546  25173442.48846
  22876991.391 5   -181515.570 5   -125228.11347  22876993.05547
  20088064.586 7   -316912.219 7   -222644.03149  20088064.35549
  23485726.461 5   -105725.383 5    -78276.54347  23485725.10947
 20  5 16  1 40 12.0000000  0  9G04G08G09G11G16G21G26G27G31         -0.000078035
  21399147.625 6   -329140.414 6   -233643.18448  21399146.92248
  20673526.023 7   -522066.820 7   -384739.84849  20673526.93049
  22997147.727 5   -510007.891 5   -365230.64849  22997148.02349
  23394370.188 6   -799953.398 6   -585109.48047  23394367.74647
  21468491.336 6   -227266.645 6   -162566.52048  21468488.66448
  25173177.039 3   -146333.313 3   -105396.20346  25173175.25046
  22876678.172 5   -183162.883 5   -126511.73047  22876679.91447
  20087538.375 7   -319676.895 7   -224798.32449  20087538.23449
  23485548.359 5   -106659.531 5    -79004.45747  23485547.15647
 20  5 16  1 40 13.0000000  0  9G04G08G09G11G16G21G26G27G31         -0.000080177
  21398605.680 6   -331988.492 6   -235862.46548  21398604.84848
  20672594.641 7   -526963.543 7   -388555.48049  20672595.30949
  22996247.469 5   -514740.266 5   -368918.21549  22996247.73049
  23393079.484 5   -806734.398 5   -590393.37947  23393077.45347
  21468083.758 6   -229410.125 6   -164236.77048  21468081.06348
  25172909.773 3   -147737.223 3   -106490.16846  25172908.52046
  22876364.398 5   -184810.449 5   -127795.55547  22876366.29747
  20087012.195 7   -322441.277 7   -226952.39149  20087012.19149
  23485370.445 5   -107593.684 5    -79732.36347  23485369.51247
 20  5 16  1 40 14.0000000  0  9G04G08G09G11G16G21G26G27G31         -0.000082314
  21398063.445 6   -334836.484 6   -238081.68448  21398062.65248
  20671663.000 7   -531860.172 7   -392371.03549  20671663.58649
  22995346.953 5   -519472.570 5   -372605.72349  22995347.00049
  23391788.891 5   -813515.793 5   -595677.57847  23391786.96147
  21467675.523 6   -231553.988 6   -165907.30948  21467672.99248
  25172642.500 4   -149141.324 4   -107584.26646  25172641.24246
  22876051.008 5   -186458.523 5   -129079.76647  22876052.57047
  20086486.086 7   -325205.539 7   -229106.36349  20086486.44549
  23485192.828 5   -108528.090 5    -80460.46947  23485191.35247
 20  5 16  1 40 15.0000000  0  9G04G08G09G11G16G21G26G27G31         -0.000084455
  21397521.531 6   -337684.105 6   -240300.60948  21397520.99248
  20670731.039 7   -536756.578 7   -396186.41049  20670731.90649
  22994446.117 5   -524204.582 5   -376293.01249  22994446.98049
  23390498.359 5   -820297.363 5   -600961.91847  23390496.70747
  21467267.727 6   -233698.035 6   -167578.00048  21467264.96548
  25172375.680 4   -150545.258 4   -108678.23046  25172373.86746
  22875737.297 5   -188106.832 5   -130364.16047  22875738.69147
  20085960.242 7   -327969.461 7   -231260.06649  20085960.18049
  23485014.906 5   -109462.457 5    -81188.55547  23485013.64847
 20  5 16  1 40 16.0000000  0  9G04G08G09G11G16G21G26G27G31         -0.000086594
  21396979.773 6   -340531.453 6   -242519.32448  21396978.93848
  20669799.398 7   -541652.727 7   -400001.59449  20669799.94149
  22993546.000 5   -528936.324 5   -379980.08649  22993546.56649
  23389208.188 6   -827079.172 6   -606246.44147  23389206.31347
  21466859.594 6   -235842.387 6   -169248.91848  21466857.05948
  25172109.008 4   -151949.156 4   -109772.18846  25172106.81646
  22875423.508 5   -189755.531 5   -131648.86347  22875425.45747
  20085434.094 7   -330733.113 7   -233413.56349  20085434.32849
  23484837.219 5   -110396.871 5    -81916.66847  23484835.79747
 20  5 16  1 40 17.0000000  0  9G04G08G09G11G16G21G26G27G31         -0.000088736
  21396437.969 6   -343378.672 6   -244737.93448  21396437.40648
  20668867.789 7   -546548.813 7   -403816.72749  20668868.05949
  22992645.508 5   -533667.984 5   -383667.09449  22992646.10249
  23387916.898 5   -833861.367 5   -611531.26247  23387915.83247
  21466451.039 6   -237987.105 6   -170920.12948  21466448.60548
  25171841.328 4   -153353.109 4   -110866.16446  25171839.84846
  22875109.555 5   -191404.641 5   -132933.88347  22875111.51247
  20084908.320 7   -333496.617 7   -235566.93849  20084908.61749
  23484659.063 5   -111331.504 5    -82644.95747  23484657.78547
 20  5 16  1 40 18.0000000  0  9G04G08G09G11G16G21G26G27G31         -0.000090874
  21395896.336 6   -346225.668 6   -246956.37548  21395895.53148
  20667936.031 7   -551444.695 7   -407631.69149  20667936.67649
  22991745.289 5   -538399.465 5   -387353.96549  22991745.59849
  23386627.203 5   -840643.813 5   -616816.28147  23386625.26647
  21466043.039 6   -240132.164 6   -172591.60548  21466040.39148
  25171574.414 4   -154757.027 4   -111960.13346  25171572.82446
  22874795.719 5   -193054.152 5   -134219.22347  22874797.30947
  20084382.531 7   -336259.891 7   -237720.14149  20084382.96549
  23484481.539 5   -112266.215 5    -83373.30147  23484480.19147
 20  5 16  1 40 19.0000000  0  9G04G08G09G11G16G21G26G27G31         -0.000093018
  21395354.578 6   -349072.320 6   -249174.54348  21395353.96548
  20667004.164 7   -556340.277 7   -411446.43849  20667004.91849
  22990845.086 6   -543130.641 6   -391040.59849  22990845.24649
  23385336.172 6   -847426.449 6   -622101.44947  23385333.91047
  21465635.141 6   -242277.398 6   -174263.21548  21465632.59048
  25171306.883 4   -156160.852 4   -113054.03146  25171305.44946
  22874481.789 5   -194703.965 5   -135504.78547  22874483.64847
  20083856.594 7   -339022.848 7   -239873.09849  20083856.92649
  23484303.266 5   -113200.941 5    -84101.65247  23484301.81647
 20  5 16  1 40 20.0000000  0  9G04G08G09G11G16G21G26G27G31         -0.000095156
  21394813.117 6   -351918.773 6   -251392.55948  21394812.16048
  20666072.828 7   -561235.707 7   -415261.05549  20666073.63349
  22989944.898 6   -547861.676 6   -394727.11749  22989944.90249
  23384045.344 5   -854209.387 5   -627386.85947  23384043.57447
  21465226.766 6   -244422.965 6   -175935.08648  21465223.98848
  25171040.094 4   -157564.703 4   -114147.94946  25171038.12146
  22874168.063 5   -196354.105 5   -136790.60547  22874169.76647
  20083330.805 7   -341785.578 7   -242025.87149  20083330.94549
  23484125.922 6   -114135.809 6    -84830.12947  23484123.94147
 20  5 16  1 40 21.0000000  0  9G04G08G09G11G16G21G26G27G31         -0.000097300
  21394271.109 6   -354765.098 6   -253610.47348  21394270.32048
  20665141.016 7   -566131.105 7   -419075.64849  20665141.92649
  22989044.227 6   -552592.656 6   -398413.59449  22989044.75849
  23382754.484 6   -860992.734 6   -632672.58647  23382752.67247
  21464818.422 6   -246568.984 6   -177607.31348  21464815.75848
  25170772.430 4   -158968.633 4   -115241.92646  25170771.29746
  22873853.359 5   -198004.813 5   -138076.86747  22873855.57447
  20082805.305 7   -344548.230 7   -244178.59049  20082805.63349
  23483948.008 6   -115070.875 6    -85558.75047  23483946.15247
 20  5 16  1 40 22.0000000  0  9G04G08G09G11G16G21G26G27G31         -0.000099438
  21393729.500 6   -357611.172 6   -255828.19148  21393729.03148
  20664209.672 7   -571026.285 7   -422890.07849  20664210.32049
  22988143.867 6   -557323.352 6   -402099.85549  22988144.41849
  23381463.375 6   -867776.305 6   -637958.48047  23381462.19947
  21464409.820 6   -248715.266 6   -179279.73848  21464407.27748
  25170504.633 3   -160372.555 3   -116335.88746  25170503.69946
  22873540.047 5   -199655.801 5   -139363.35947  22873541.13747
  20082279.617 7   -347310.594 7   -246331.08249  20082279.71949
  23483769.945 6   -116006.027 6    -86287.43847  23483768.21547
 20  5 16  1 40 23.0000000  0  9G04G08G09G11G16G21G26G27G31         -0.000101582
  21393188.188 6   -360457.039 6   -258045.75448  21393187.59848
  20663278.289 7   -575921.270 7   -426704.35249  20663278.94549
  22987243.563 5   -562053.918 5   -405786.00049  22987244.29749
  23380172.133 6   -874560.211 6   -643244.64547  23380170.81347
  21464001.703 6   -250861.832 6   -180952.38748  21463998.70348
  25170238.148 3   -161776.480 3   -117429.85546  25170236.69146
  22873225.313 5   -201307.191 5   -140650.16447  22873226.98847
  20081753.953 7   -350072.758 7   -248483.41449  20081754.16449
  23483591.898 6   -116941.289 6    -87016.22347  23483590.50847
 20  5 16  1 40 24.0000000  0  9G04G08G09G11G16G21G26G27G31         -0.000103722
  21392646.750 6   -363302.656 6   -260263.11748  21392645.91848
  20662346.727 6   -580816.086 6   -430518.50049  20662347.46949
  22986343.672 5   -566784.297 5   -409472.00849  22986344.02749
  23378881.445 6   -881344.359 6   -648530.99247  23378880.17247
  21463592.984 6   -253008.746 6   -182625.30948  21463590.11748
  25169970.039 3   -163180.313 3   -118523.75046  25169969.96146
  22872910.477 5   -202958.988 5   -141937.28947  22872912.55147
  20081228.641 7   -352834.676 7   -250635.55949  20081228.27749
  23483413.688 5   -117876.609 5    -87745.04747  23483412.22347
 20  5 16  1 40 25.0000000  0  9G04G08G09G11G16G21G26G27G31         -0.000105865
  21392105.102 6   -366148.180 6   -262480.41048  21392104.51248
  20661415.164 7   -585710.859 7   -434332.60249  20661416.02349
  22985443.602 6   -571514.578 6   -413157.94149  22985444.12949
  23377590.422 6   -888128.984 6   -653817.71147  23377589.03947
  21463184.438 6   -255156.098 6   -184298.57048  21463181.67248
  25169702.719 3   -164584.367 3   -119617.81646  25169702.52346
  22872596.352 5   -204611.277 5   -143224.78547  22872598.21547
  20080702.883 7   -355596.504 7   -252787.62949  20080702.91449
  23483236.031 6   -118812.223 6    -88474.10247  23483234.05547
 20  5 16  1 40 26.0000000  0  9G04G08G09G11G16G21G26G27G31         -0.000108006
  21391564.039 6   -368993.512 6   -264697.55148  21391563.19948
  20660483.867 7   -590605.480 7   -438146.59449  20660484.73849
  22984543.352 6   -576244.738 6   -416843.78949  22984543.32849
  23376299.203 5   -894913.895 5   -659104.66047  23376297.80147
  21462775.500 6   -257303.777 6   -185972.09048  21462772.71548
  25169435.641 3   -165988.398 3   -120711.87946  25169435.18046
  22872282.141 5   -206263.988 5   -144512.60947  22872283.96547
  20080177.375 7   -358358.129 7   -254939.55549  20080177.48049
  23483058.031 5   -119747.945 5    -89203.23447  23483056.14847
 20  5 16  1 40 27.0000000  0  9G04G08G09G11G16G21G26G27G31         -0.000110151
  21391022.805 6   -371838.504 6   -266914.43448  21391021.75848
  20659552.727 7   -595499.836 7   -441960.37549  20659553.47749
  22983643.602 6   -580974.613 6   -420529.40649  22983644.09049
  23375008.000 5   -901699.008 5   -664391.75847  23375006.71947
  21462366.977 6   -259451.680 6   -187645.77748  21462364.16048
  25169169.078 3   -167392.313 3   -121805.82846  25169168.35246
  22871967.461 5   -207916.973 5   -145800.64847  22871969.24247
  20079652.023 7   -361119.434 7   -257091.21549  20079652.16849
  23482879.625 6   -120683.668 6    -89932.37547  23482877.94147
 20  5 16  1 40 28.0000000  0  9G04G08G09G11G16G21G26G27G31         -0.000112291
  21390481.266 6   -374683.199 6   -269131.08248  21390480.16048
  20658621.391 7   -600393.953 7   -445773.98049  20658621.71949
  22982743.125 6   -585704.215 6   -424214.80549  22982743.75449
  23373717.172 5   -908484.289 5   -669678.99247  23373715.87947
  21461958.023 6   -261599.801 6   -189319.63748  21461955.21148
  25168902.000 3   -168796.152 3   -122899.72346  25168901.35946
  22871652.945 5   -209570.261 5   -147088.92347  22871654.64147
  20079126.508 7   -363880.426 7   -259242.63749  20079126.24649
  23482701.195 5   -121619.430 5    -90661.54347  23482699.68447
 20  5 16  1 40 29.0000000  0  9G04G08G09G11G16G21G26G27G31         -0.000114437
  21389939.711 6   -377527.586 6   -271347.48848  21389939.03948
  20657690.039 7   -605287.809 7   -449587.36749  20657690.39849
  22981843.445 6   -590433.543 6   -427899.99249  22981843.64149
  23372425.813 5   -915269.816 5   -674966.41047  23372424.54347
  21461549.289 6   -263748.160 6   -190993.68048  21461546.32048
  25168634.820 4   -170199.914 4   -123993.55546  25168634.03546
  22871338.523 5   -211223.820 5   -148377.41047  22871339.91447
  20078601.031 7   -366641.145 7   -261393.84449  20078600.89149
  23482523.086 5   -122555.215 5    -91390.71547  23482521.85947
 20  5 16  1 40 30.0000000  0  9G04G08G09G11G16G21G26G27G31         -0.000116577
  21389398.414 6   -380371.820 6   -273563.77048  21389397.96548
  20656758.516 7   -610181.516 7   -453400.64849  20656759.32449
  22980943.320 5   -595162.746 5   -431585.08649  22980943.72749
  23371134.523 6   -922055.695 6   -680254.09847  23371133.14847
  21461141.039 6   -265896.883 6   -192668.01248  21461138.09448
  25168367.813 3   -171603.672 3   -125087.39846  25168366.37946
  22871023.383 5   -212877.809 5   -149666.23847  22871025.26647
  20078075.641 7   -369401.652 7   -263544.88749  20078075.67649
  23482344.938 6   -123491.176 6    -92120.03147  23482343.92647
 20  5 16  1 40 31.0000000  0  9G04G08G09G11G16G21G26G27G31         -0.000118723
  21388857.570 6   -383215.672 6   -275779.76248  21388857.10948
  20655827.586 7   -615074.961 7   -457213.72349  20655827.92249
  22980043.633 6   -599891.668 6   -435269.96549  22980043.85549
  23369842.891 6   -928841.730 6   -685541.91847  23369842.12947
  21460731.766 6   -268045.844 6   -194342.53148  21460729.07848
  25168100.242 4   -173007.375 4   -126181.19546  25168099.35246
  22870707.586 5   -214532.090 5   -150955.28547  22870710.47347
  20077550.258 7   -372161.855 7   -265695.69949  20077550.67649
  23482167.227 5   -124427.113 5    -92849.33247  23482165.89847
 20  5 16  1 40 32.0000000  0  9G04G08G09G11G16G21G26G27G31         -0.000120865
  21388316.047 6   -386059.297 6   -277995.57448  21388315.44948
  20654896.516 7   -619968.141 7   -461026.59049  20654897.19149
  22979143.391 5   -604620.328 5   -438954.63349  22979144.32049
  23368552.039 6   -935628.043 6   -690829.94947  23368550.03147
  21460322.453 6   -270195.027 6   -196017.21548  21460319.80548
  25167833.555 4   -174410.992 4   -127274.91846  25167832.08246
  22870393.273 5   -216186.719 5   -152244.60947  22870395.52347
  20077025.445 7   -374921.766 7   -267846.28149  20077025.28549
  23481988.992 5   -125363.121 5    -93578.69547  23481987.73847
 20  5 16  1 40 33.0000000  0  9G04G08G09G11G16G21G26G27G31         -0.000123011
  21387775.219 6   -388902.629 6   -280211.15648  21387774.57848
  20653965.406 7   -624861.117 7   -464839.30149  20653966.09849
  22978244.148 6   -609348.781 6   -442639.14149  22978244.36349
  23367260.609 6   -942414.520 6   -696118.10947  23367258.91447
  21459913.398 6   -272344.492 6   -197692.12148  21459910.95748
  25167566.359 3   -175814.547 3   -128368.59046  25167565.33246
  22870078.266 5   -217841.629 5   -153534.14847  22870080.60947
  20076500.359 7   -377681.426 7   -269996.66049  20076500.45349
  23481810.859 5   -126299.145 5    -94308.06347  23481809.29747
 20  5 16  1 40 34.0000000  0  9G04G08G09G11G16G21G26G27G31         -0.000125153
  21387233.852 6   -391745.578 6   -282426.43848  21387233.42248
  20653034.148 7   -629753.789 7   -468651.77049  20653034.78949
  22977343.984 5   -614076.883 5   -446323.37549  22977344.70349
  23365969.078 5   -949201.148 5   -701406.39147  23365967.39547
  21459504.063 6   -274494.133 6   -199367.16848  21459501.34848
  25167300.031 4   -177217.945 4   -129462.15646  25167298.34046
  22869764.148 5   -219496.805 5   -154823.90247  22869765.37547
  20075975.242 7   -380440.699 7   -272146.74249  20075975.27749
  23481632.391 5   -127235.184 5    -95037.45747  23481631.45347
 20  5 16  1 40 35.0000000  0  9G04G08G09G11G16G21G26G27G31         -0.000127298
  21386693.078 6   -394588.293 6   -284641.53548  21386692.63348
  20652102.992 7   -634646.234 7   -472464.07049  20652103.52749
  22976445.156 6   -618804.777 6   -450007.44549  22976445.13349
  23364677.758 5   -955988.094 5   -706694.91847  23364675.85947
  21459095.008 6   -276644.051 6   -201042.43448  21459092.72348
  25167033.148 4   -178621.348 4   -130555.72746  25167031.14146
  22869448.797 5   -221152.352 5   -156113.93447  22869450.62147
  20075450.125 7   -383199.723 7   -274296.63349  20075449.99649
  23481454.672 5   -128171.285 5    -95766.89547  23481453.54747
 20  5 16  1 40 36.0000000  0  9G04G08G09G11G16G21G26G27G31         -0.000129442
  21386152.070 6   -397430.973 6   -286856.61748  21386151.31348
  20651172.313 7   -639538.707 7   -476276.38349  20651172.50849
  22975545.391 6   -623532.664 6   -453691.51249  22975545.32049
  23363386.086 6   -962775.496 6   -711983.80947  23363384.34047
  21458685.930 6   -278794.469 6   -202718.08248  21458682.86748
  25166766.070 4   -180024.859 4   -131649.37546  25166763.71946
  22869133.375 5   -222808.414 5   -157404.37147  22869135.51247
  20074924.969 7   -385958.711 7   -276446.50049  20074925.13349
  23481276.516 5   -129107.680 5    -96496.55147  23481275.48847
 20  5 16  1 40 37.0000000  0  9G04G08G09G11G16G21G26G27G31         -0.000131588
  21385611.672 6   -400273.469 6   -289071.55148  21385610.38348
  20650241.438 7   -644431.035 7   -480088.58649  20650241.99649
  22974645.484 6   -628260.445 6   -457375.50849  22974645.62149
  23362094.406 5   -969563.215 5   -717272.94147  23362092.55147
  21458276.891 6   -280945.227 6   -204393.99648  21458274.50848
  25166498.313 4   -181428.441 4   -132743.07046  25166496.82046
  22868818.719 5   -224464.969 5   -158695.19947  22868820.30947
  20074400.156 7   -388717.531 7   -278596.23049  20074399.98849
  23481098.367 5   -130044.234 5    -97226.32847  23481097.05547
 20  5 16  1 40 38.0000000  0  9G04G08G09G11G16G21G26G27G31         -0.000133732
  21385070.703 6   -403115.652 6   -291286.23848  21385069.84848
  20649310.297 7   -649323.109 7   -483900.59049  20649310.84849
  22973746.031 6   -632987.941 6   -461059.28549  22973746.27049
  23360802.547 6   -976351.137 6   -722562.22347  23360801.09447
  21457867.609 6   -283096.254 6   -206070.12548  21457864.58248
  25166231.563 3   -182832.000 3   -133836.75846  25166229.92646
  22868503.859 5   -226121.789 5   -159986.23847  22868505.02747
  20073875.023 7   -391476.047 7   -280745.72349  20073875.19949
  23480919.477 5   -130980.781 5    -97956.10947  23480919.08647
 20  5 16  1 40 39.0000000  0  9G04G08G09G11G16G21G26G27G31         -0.000135880
  21384529.813 6   -405957.641 6   -293500.77348  21384528.82848
  20648379.555 7   -654215.035 7   -487712.48449  20648380.07049
  22972846.125 5   -637715.309 5   -464742.95349  22972846.05149
  23359510.859 6   -983139.406 6   -727851.78947  23359509.18847
  21457458.047 6   -285247.609 6   -207746.50448  21457455.41448
  25165964.305 4   -184235.453 4   -134930.36346  25165962.61746
  22868188.063 5   -227779.020 5   -161277.58647  22868189.69947
  20073350.234 7   -394234.359 7   -282895.05549  20073350.49649
  23480741.359 5   -131917.488 5    -98686.01647  23480740.87147
 20  5 16  1 40 40.0000000  0  9G04G08G09G11G16G21G26G27G31         -0.000138023
  21383989.016 6   -408799.367 6   -295715.10948  21383987.95348
  20647448.305 7   -659106.754 7   -491524.21149  20647449.20349
  22971946.719 6   -642442.426 6   -468426.40649  22971947.07849
  23358219.094 6   -989927.914 6   -733141.52747  23358217.88747
  21457048.555 6   -287399.227 6   -209423.09048  21457045.85248
  25165697.094 4   -185638.953 4   -136023.98846  25165695.68446
  22867872.742 5   -229436.598 5   -162569.20747  22867874.37947
  20072825.430 7   -396992.402 7   -285044.18449  20072825.66049
  23480563.656 5   -132854.273 5    -99415.98447  23480562.48447
 20  5 16  1 40 41.0000000  0  9G04G08G09G11G16G21G26G27G31         -0.000140171
  21383448.797 6   -411640.785 6   -297929.20348  21383447.53948
  20646517.609 7   -663998.227 7   -495335.75049  20646518.52049
  22971046.852 6   -647169.270 6   -472109.65649  22971047.33249
  23356926.984 6   -996716.602 6   -738431.40647  23356925.79347
  21456639.188 6   -289551.086 6   -211099.86748  21456636.30548
  25165430.063 3   -187042.355 3   -137117.54346  25165428.68846
  22867556.727 5   -231094.473 5   -163861.05547  22867558.78147
  20072300.844 7   -399750.152 7   -287193.07449  20072300.87949
  23480385.258 5   -133791.074 5   -100145.96147  23480384.34447
 20  5 16  1 40 42.0000000  0  9G04G08G09G11G16G21G26G27G31         -0.000142315
  21382908.094 6   -414482.047 6   -300143.17248  21382907.14848
  20645587.008 7   -668889.609 7   -499147.21949  20645587.75849
  22970147.156 6   -651895.988 6   -475792.81349  22970147.60949
  23355635.688 6  -1003505.680 6   -743721.60247  23355634.09447
  21456229.828 6   -291703.297 6   -212776.91848  21456227.17648
  25165162.359 3   -188445.828 3   -138211.14846  25165161.68046
  22867241.125 5   -232752.777 5   -165153.23847  22867243.17647
  20071775.992 7   -402507.734 7   -289341.83649  20071776.04349
  23480206.914 5   -134728.043 5   -100876.06647  23480206.00047
 20  5 16  1 40 43.0000000  0  9G04G08G09G11G16G21G26G27G31         -0.000144463
  21382367.172 6   -417323.012 6   -302356.90648  21382366.48048
  20644656.164 7   -673780.730 7   -502958.48049  20644656.74649
  22969247.742 6   -656622.461 6   -479475.77349  22969248.55149
  23354343.695 6  -1010294.961 6   -749011.95347  23354342.37947
  21455820.148 6   -293855.809 6   -214454.19148  21455816.95348
  25164896.000 3   -189849.164 3   -139304.65646  25164894.66046
  22866925.836 5   -234411.410 5   -166445.68447  22866927.38347
  20071251.109 7   -405265.023 7   -291490.37549  20071251.24649
  23480028.953 5   -135665.059 5   -101606.21147  23480028.06347
 20  5 16  1 40 44.0000000  0  9G04G08G09G11G16G21G26G27G31         -0.000146606
  21381826.258 6   -420163.703 6   -304570.43048  21381825.75048
  20643725.516 7   -678671.645 7   -506769.58249  20643725.87549
  22968348.625 6   -661348.707 6   -483158.56349  22968349.34849
  23353051.234 6  -1017084.473 6   -754302.48447  23353050.08647
  21455410.172 6   -296008.551 6   -216131.65248  21455407.82448
  25164628.016 3   -191252.480 3   -140398.15246  25164627.10246
  22866609.977 5   -236070.387 5   -167738.39547  22866611.83247
  20070726.516 7   -408022.055 7   -293638.70749  20070726.45349
  23479850.516 5   -136602.161 5   -102336.41747  23479849.51247
 20  5 16  1 40 45.0000000  0  9G04G08G09G11G16G21G26G27G31         -0.000148756
  21381286.148 6   -423004.070 6   -306783.71148  21381285.27348
  20642794.906 7   -683562.273 7   -510580.45749  20642795.40249
  22967449.297 5   -666074.652 5   -486841.12149  22967449.80549
  23351759.250 6  -1023874.172 6   -759593.14847  23351757.73447
  21455000.883 6   -298161.492 6   -217809.27348  21454997.73848
  25164361.813 3   -192655.664 3   -141491.55546  25164360.10546
  22866293.750 5   -237729.625 5   -169031.30547  22866295.95747
  20070201.719 7   -410778.746 7   -295786.78549  20070202.09849
  23479672.336 5   -137539.227 5   -103066.59847  23479671.60247
 20  5 16  1 40 46.0000000  0  9G04G08G09G11G16G21G26G27G31         -0.000150900
  21380745.805 6   -425844.164 6   -308996.77348  21380744.89848
  20641864.180 7   -688452.680 7   -514391.16449  20641864.75449
  22966550.094 5   -670800.345 5   -490523.48049  22966550.66849
  23350467.305 6  -1030664.105 6   -764884.00047  23350465.79347
  21454590.828 6   -300314.715 6   -219487.10948  21454588.48848
  25164094.633 3   -194058.840 3   -142584.93046  25164093.26646
  22865978.086 5   -239389.179 5   -170324.45647  22865980.15647
  20069677.641 7   -413535.203 7   -297934.67249  20069677.66049
  23479493.820 5   -138476.379 5   -103796.84047  23479493.16847
 20  5 16  1 40 47.0000000  0  9G04G08G09G11G16G21G26G27G31         -0.000153049
  21380205.109 6   -428684.105 6   -311209.71148  21380204.65248
  20640933.547 7   -693342.980 7   -518201.78549  20640934.11749
  22965650.867 5   -675526.008 5   -494205.81649  22965651.55549
  23349174.820 6  -1037454.414 6   -770175.14547  23349173.34847
  21454181.641 6   -302468.348 6   -221165.27048  21454178.62948
  25163827.602 4   -195462.074 4   -143678.34846  25163826.20346
  22865662.563 5   -241049.227 5   -171618.00447  22865664.27347
  20069153.055 7   -416291.492 7   -300082.43449  20069152.54349
  23479315.328 5   -139413.719 5   -104527.23447  23479314.69947
 20  5 16  1 40 48.0000000  0  9G04G08G09G11G16G21G26G27G31         -0.000155195
  21379664.961 6   -431523.742 6   -313422.42248  21379663.82048
  20640002.742 7   -698232.992 7   -522012.19549  20640003.74249
  22964751.305 6   -680251.344 6   -497887.89549  22964751.75049
  23347882.781 6  -1044244.883 6   -775466.41847  23347881.46947
  21453771.125 6   -304622.156 6   -222843.55948  21453768.63348
  25163560.789 3   -196865.141 3   -144771.64846  25163559.44146
  22865346.367 5   -242709.556 5   -172911.76547  22865348.23847
  20068628.695 7   -419047.418 7   -302229.91049  20068628.62149
  23479136.906 5   -140351.020 5   -105257.60247  23479135.97747
 20  5 16  1 40 49.0000000  0  9G04G08G09G11G16G21G26G27G31         -0.000157345
  21379124.234 6   -434362.980 6   -315634.81648  21379123.61748
  20639072.484 7   -703122.691 7   -525822.34849  20639073.52349
  22963853.102 5   -684976.313 5   -501569.69149  22963852.72749
  23346590.867 6  -1051035.516 6   -780757.82447  23346589.27347
  21453361.391 6   -306776.145 6   -224521.99248  21453358.52748
  25163293.492 3   -198268.090 3   -145864.85546  25163292.20346
  22865030.109 5   -244370.074 5   -174205.67647  22865032.23847
  20068104.328 7   -421803.020 7   -304377.12549  20068104.23449
  23478958.563 5   -141288.320 5   -105987.96947  23478957.71947
 20  5 16  1 40 50.0000000  0  9G04G08G09G11G16G21G26G27G31         -0.000159491
  21378583.836 6   -437201.953 6   -317847.00048  21378583.53148
  20638142.086 7   -708012.184 7   -529632.34449  20638142.78549
  22962953.555 5   -689701.074 5   -505251.32049  22962954.08649
  23345298.867 6  -1057826.363 6   -786049.40247  23345296.67647
  21452951.617 6   -308930.398 6   -226200.62948  21452948.57848
  25163026.922 3   -199671.016 3   -146958.03146  25163025.75446
  22864714.344 5   -246030.945 5   -175499.85947  22864716.43847
  20067579.703 7   -424558.313 7   -306524.10549  20067579.94949
  23478780.406 5   -142225.676 5   -106718.37947  23478779.53947
 20  5 16  1 40 51.0000000  0  9G04G08G09G11G16G21G26G27G31         -0.000161640
  21378043.773 6   -440040.625 6   -320058.95348  21378043.24648
  20637211.906 7   -712901.418 7   -533442.13349  20637212.67649
  22962054.828 5   -694425.574 5   -508932.74649  22962054.81649
  23344006.234 6  -1064617.430 6   -791341.14547  23344004.16447
  21452541.070 6   -311084.875 6   -227879.44548  21452538.70748
  25162760.602 4   -201073.824 4   -148051.12946  25162758.58246
  22864398.313 5   -247692.094 5   -176794.26647  22864400.05547
  20067055.508 7   -427313.344 7   -308670.88749  20067055.49249
  23478602.461 5   -143163.039 5   -107448.79747  23478601.29347
 20  5 16  1 40 52.0000000  0  9G04G08G09G11G16G21G26G27G31         -0.000163786
  21377503.938 6   -442878.934 6   -322270.62148  21377503.57448
  20636281.336 7   -717790.352 7   -537251.69149  20636282.04749
  22961155.445 5   -699149.742 5   -512613.91449  22961155.39849
  23342713.930 6  -1071408.652 6   -796632.99647  23342711.61347
  21452131.781 6   -313239.563 6   -229558.42248  21452128.58648
  25162493.469 4   -202476.469 4   -149144.10546  25162491.33646
  22864082.219 5   -249353.527 5   -178088.89547  22864083.86747
  20066531.398 7   -430068.012 7   -310817.37949  20066531.10949
  23478423.859 5   -144100.418 5   -108179.22747  23478422.95747
 20  5 16  1 40 53.0000000  0  9G04G08G09G11G16G21G26G27G31         -0.000165936
  21376963.625 6   -445716.984 6   -324482.08248  21376963.03548
  20635351.203 7   -722679.043 7   -541061.06349  20635351.86749
  22960256.273 5   -703873.676 5   -516294.90249  22960256.96149
  23341421.805 6  -1078200.125 6   -801925.04747  23341419.49247
  21451721.195 6   -315394.500 6   -231237.59448  21451718.76248
  25162226.445 4   -203879.074 4   -150237.05946  25162224.54346
  22863766.047 5   -251015.277 5   -179383.76247  22863767.96547
  20066007.172 7   -432822.395 7   -312963.65249  20066007.11749
  23478245.977 5   -145037.820 5   -108909.66847  23478244.32447
 20  5 16  1 40 54.0000000  0  9G04G08G09G11G16G21G26G27G31         -0.000168083
  21376423.672 6   -448554.879 6   -326693.43048  21376423.36748
  20634421.055 7   -727567.609 7   -544870.33649  20634421.53149
  22959357.500 6   -708597.523 6   -519975.82449  22959357.97349
  23340128.938 6  -1084991.930 6   -807217.36347  23340127.14847
  21451311.063 6   -317549.801 6   -232917.04748  21451308.47348
  25161959.719 4   -205281.762 4   -151330.05946  25161958.03146
  22863449.375 5   -252677.441 5   -180678.95347  22863451.58247
  20065482.898 7   -435576.637 7   -315109.81649  20065482.99249
  23478067.086 5   -145975.402 5   -109640.24647  23478065.95747
 20  5 16  1 40 55.0000000  0  9G04G08G09G11G16G21G26G27G31         -0.000170233
  21375883.875 6   -451392.527 6   -328904.59448  21375883.01248
  20633490.727 7   -732456.035 7   -548679.50049  20633491.35249
  22958458.672 6   -713321.156 6   -523656.57449  22958459.09849
  23338836.844 6  -1091784.051 6   -812509.93047  23338834.60547
  21450901.102 6   -319705.434 6   -234596.76248  21450898.49248
  25161692.359 4   -206684.453 4   -152423.06646  25161691.22346
  22863133.430 5   -254340.027 5   -181974.47747  22863135.20747
  20064958.797 7   -438330.641 7   -317255.79349  20064959.34049
  23477889.086 6   -146913.109 6   -110370.93047  23477887.47347
 20  5 16  1 40 56.0000000  0  9G04G08G09G11G16G21G26G27G31         -0.000172380
  21375344.211 6   -454229.883 6   -331115.52048  21375342.84448
  20632560.586 7   -737344.191 7   -552488.44949  20632561.14849
  22957559.883 5   -718044.543 5   -527337.13749  22957560.28149
  23337543.680 6  -1098576.371 6   -817802.64847  23337541.88347
  21450490.688 6   -321861.305 6   -236276.65648  21450488.09448
  25161425.672 4   -208087.031 4   -153515.97346  25161424.40646
  22862817.180 5   -256002.914 5   -183270.23047  22862818.91047
  20064435.117 7   -441084.352 7   -319401.53949  20064435.18849
  23477710.000 6   -147850.840 6   -111101.62547  23477708.80547
 20  5 16  1 40 57.0000000  0  9G04G08G09G11G16G21G26G27G31         -0.000174532
  21374803.805 6   -457066.887 6   -333326.16848  21374802.94148
  20631630.484 7   -742232.047 7   -556297.17249  20631631.05549
  22956661.211 5   -722767.602 5   -531017.44549  22956661.62549
  23336251.563 6  -1105368.836 6   -823095.48447  23336249.41047
  21450080.406 6   -324017.348 6   -237956.69148  21450078.25048
  25161159.094 4   -209489.484 4   -154608.81346  25161157.07046
  22862500.797 5   -257666.051 5   -184566.18847  22862501.93447
  20063911.047 7   -443837.719 7   -321547.01649  20063911.50849
  23477531.820 6   -148788.547 6   -111832.30947  23477530.46947
 20  5 16  1 40 58.0000000  0  8G04G08G09G11G16G26G27G31            -0.000176678
  21374264.164 6   -459903.684 6   -335536.66048  21374263.51248
  20630700.438 7   -747119.742 7   -560105.76249  20630700.68049
  22955762.320 6   -727490.461 6   -534697.59849  22955762.50849
  23334958.742 6  -1112161.598 6   -828388.53947  23334956.59847
  21449669.945 6   -326173.695 6   -239636.96948  21449667.33648
  22862183.688 5   -259329.578 5   -185862.44947  22862185.83247
  20063387.141 7   -446590.855 7   -323692.32449  20063386.89549
  23477353.477 6   -149726.375 6   -112563.08647  23477352.13347
 20  5 16  1 40 59.0000000  0  8G04G08G09G11G16G26G27G31            -0.000178831
  21373724.320 6   -462740.246 6   -337746.96548  21373723.96148
  20629770.359 7   -752007.234 7   -563914.19949  20629770.67649
  22954863.609 5   -732213.172 5   -538377.62949  22954864.05149
  23333665.898 6  -1118954.637 6   -833681.82047  23333663.91847
  21449259.461 6   -328330.379 6   -241317.50048  21449257.07048
  22861867.281 5   -260993.484 5   -187158.99647  22861868.94947
  20062863.219 7   -449343.773 7   -325837.45749  20062863.36349
  23477174.688 5   -150664.301 5   -113293.93047  23477174.08647
 20  5 16  1 41  0.0000000  0  8G04G08G09G11G16G26G27G31            -0.000180979
  21373184.727 6   -465576.566 6   -339957.08648  21373184.04748
  20628840.078 7   -756894.551 7   -567722.50049  20628840.91449
  22953965.172 5   -736935.672 5   -542057.50049  22953965.49249
  23332373.766 6  -1125747.938 6   -838975.30547  23332371.51647
  21448849.336 6   -330487.336 6   -242998.24648  21448846.65248
  22861550.828 5   -262657.750 5   -188455.83247  22861551.89147
  20062339.477 7   -452096.453 7   -327982.39849  20062339.54749
  23476996.547 5   -151602.320 5   -114024.86347  23476995.31647
 20  5 16  1 41  1.0000000  0  8G04G08G09G11G16G26G27G31            -0.000183130
  21372644.719 6   -468412.535 6   -342166.93848  21372644.17248
  20627910.344 7   -761781.598 7   -571530.59049  20627911.29749
  22953066.969 6   -741657.883 6   -545737.14549  22953066.62549
  23331081.203 6  -1132541.422 6   -844268.92647  23331078.36747
  21448438.711 6   -332644.504 6   -244679.16048  21448436.02748
  22861233.797 5   -264322.270 5   -189752.85947  22861235.36747
  20061815.531 7   -454848.816 7   -330127.10249  20061815.76649
  23476817.453 5   -152540.336 5   -114755.78947  23476816.80947
 20  5 16  1 41  2.0000000  0  8G04G08G09G11G16G26G27G31            -0.000185278
  21372105.258 6   -471248.297 6   -344376.61748  21372104.76648
  20626980.219 7   -766668.410 7   -575338.49249  20626981.19949
  22952167.984 6   -746379.852 6   -549416.60249  22952168.01649
  23329787.773 6  -1139335.184 6   -849562.76647  23329785.29747
  21448028.063 6   -334801.977 6   -246360.30948  21448025.52348
  22860916.945 5   -265987.152 5   -191050.16447  22860918.46547
  20061292.117 7   -457600.918 7   -332271.59849  20061292.35249
  23476638.898 5   -153478.438 5   -115486.78547  23476638.09047
 20  5 16  1 41  3.0000000  0  8G04G08G09G11G16G26G27G31            -0.000187431
  21371565.852 6   -474083.711 6   -346586.03548  21371564.85948
  20626050.414 7   -771554.949 7   -579146.18849  20626051.07049
  22951269.031 6   -751101.539 6   -553095.84049  22951269.32049
  23328494.773 6  -1146129.090 6   -854856.71947  23328492.79747
  21447617.828 6   -336959.660 6   -248041.62148  21447614.91048
  22860599.953 5   -267652.340 5   -192347.71947  22860601.68847
  20060768.508 7   -460352.688 7   -334415.82849  20060768.44949
  23476460.414 5   -154416.516 5   -116217.76247  23476459.99647
 20  5 16  1 41  4.0000000  0  8G04G08G09G11G16G26G27G31            -0.000189579
  21371026.336 6   -476918.820 6   -348795.21148  21371025.19548
  20625120.508 7   -776441.246 7   -582953.68849  20625121.34449
  22950370.969 6   -755822.984 6   -556774.89149  22950371.22349
  23327201.914 5  -1152923.246 5   -860150.86747  23327199.59847
  21447206.430 6   -339117.559 6   -249723.10248  21447204.44948
  22860283.117 5   -269317.797 5   -193645.47747  22860285.23047
  20060244.969 7   -463104.176 7   -336559.84849  20060245.18849
  23476281.797 5   -155354.676 5   -116948.79347  23476281.53947
 20  5 16  1 41  5.0000000  0  8G04G08G09G11G16G26G27G31            -0.000191732
  21370487.063 6   -479753.566 6   -351004.10948  21370486.14848
  20624190.953 7   -781327.227 7   -586760.94549  20624191.55549
  22949472.664 6   -760544.094 6   -560453.67649  22949472.52049
  23325909.219 5  -1159717.543 5   -865445.12947  23325906.77347
  21446796.250 6   -341275.656 6   -251404.73448  21446794.03948
  22859966.695 5   -270983.512 5   -194943.44147  22859968.16047
  20059721.297 7   -465855.309 7   -338703.59049  20059721.46949
  23476103.477 5   -156292.781 5   -117679.78947  23476102.65647
 20  5 16  1 41  6.0000000  0  8G04G08G09G11G16G26G27G31            -0.000193880
  21369947.508 6   -482587.965 6   -353212.73448  21369946.90648
  20623261.031 7   -786212.895 7   -590567.96149  20623261.89549
  22948574.578 6   -765264.902 6   -564132.23049  22948574.51649
  23324615.922 6  -1166511.961 6   -870739.47347  23324613.58247
  21446385.594 6   -343433.906 6   -253086.48448  21446382.86748
  22859649.133 5   -272649.457 5   -196241.59047  22859650.97347
  20059197.883 7   -468606.070 7   -340847.03949  20059197.76249
  23475924.805 5   -157230.855 5   -118410.75847  23475924.02347
 20  5 16  1 41  7.0000000  0  8G04G08G09G11G16G26G27G31            -0.000196033
  21369408.383 6   -485421.922 6   -355421.00448  21369407.46548
  20622331.492 7   -791098.152 7   -594374.65249  20622332.26649
  22947675.703 6   -769985.281 6   -567810.45349  22947676.18049
  23323323.211 5  -1173306.496 5   -876033.91847  23323320.77747
  21445974.742 6   -345592.266 6   -254768.32448  21445972.32448
  22859331.844 5   -274315.578 5   -197539.86347  22859334.10247
  20058674.648 7   -471356.418 7   -342990.16849  20058674.58649
  23475746.203 5   -158168.844 5   -119141.65647  23475745.59447
 20  5 16  1 41  8.0000000  0  8G04G08G09G11G16G26G27G31            -0.000198183
  21368868.859 6   -488255.602 6   -357629.06648  21368868.48048
  20621401.875 7   -795983.215 7   -598181.19949  20621402.57049
  22946777.383 6   -774705.465 6   -571488.51249  22946778.09449
  23322030.078 5  -1180101.246 5   -881328.52747  23322027.62147
  21445564.234 6   -347750.887 6   -256450.37148  21445561.67648
  22859015.086 5   -275982.039 5   -198838.40647  22859017.01247
  20058151.250 7   -474106.480 7   -345133.07049  20058150.90649
  23475568.281 5   -159106.871 5   -119872.58647  23475567.07047
 20  5 16  1 41  9.0000000  0  8G04G08G09G11G16G26G27G31            -0.000200336
  21368330.008 6   -491089.090 6   -359836.98048  21368329.26648
  20620472.469 7   -800868.109 7   -601987.60549  20620473.30949
  22945879.164 5   -779425.438 5   -575166.41049  22945879.87549
  23320737.102 5  -1186896.254 5   -886623.33647  23320734.69547
  21445153.188 6   -349909.828 6   -258132.66048  21445150.93848
  22858697.875 5   -277648.875 5   -200137.23847  22858699.02047
  20057627.898 7   -476856.313 7   -347275.79749  20057627.71949
  23475388.930 5   -160044.996 5   -120603.59447  23475388.11347
 20  5 16  1 41 10.0000000  0  8G04G08G09G11G16G26G27G31            -0.000202486
  21367790.961 6   -493922.234 6   -362044.62948  21367789.87548
  20619542.625 7   -805752.719 7   -605793.78949  20619543.31349
  22944980.906 5   -784145.156 5   -578844.12149  22944981.94549
  23319444.164 5  -1193691.500 5   -891918.33247  23319441.39847
  21444742.383 6   -352069.008 6   -259815.13748  21444739.71948
  22858380.727 5   -279316.035 5   -201436.33247  22858382.68447
  20057104.430 7   -479605.867 7   -349418.30549  20057104.41449
  23475210.750 5   -160983.168 5   -121334.64147  23475210.35947
 20  5 16  1 41 11.0000000  0  8G04G08G09G11G16G26G27G31            -0.000204639
  21367251.750 6   -496755.129 6   -364252.08248  21367250.77748
  20618613.242 7   -810637.148 7   -609599.84449  20618614.03949
  22944083.250 5   -788864.629 5   -582521.62949  22944084.03549
  23318150.805 5  -1200486.984 5   -897213.51647  23318148.54347
  21444331.313 6   -354228.453 6   -261497.82848  21444329.08648
  22858063.289 5   -280983.504 5   -202735.66047  22858064.89847
  20056580.906 7   -482355.141 7   -351560.59849  20056581.42649
  23475032.211 5   -161921.402 5   -122065.73447  23475031.54747
 20  5 16  1 41 12.0000000  0  8G04G08G09G11G16G26G27G31            -0.000206791
  21366712.773 6   -499587.676 6   -366459.26648  21366711.50848
  20617683.773 7   -815521.238 7   -613405.63349  20617684.47749
  22943185.320 5   -793583.777 5   -586198.88749  22943185.55549
  23316857.609 5  -1207282.613 5   -902508.80947  23316855.21147
  21443920.594 6   -356388.086 6   -263180.66048  21443918.36348
  22857745.945 5   -282651.238 5   -204035.19547  22857747.47347
  20056058.367 7   -485104.063 7   -353702.62149  20056058.21149
  23474853.695 5   -162859.621 5   -122796.81647  23474852.89847
 20  5 16  1 41 13.0000000  0  8G04G08G09G11G16G26G27G31            -0.000208944
  21366173.742 6   -502419.883 6   -368666.17648  21366173.17248
  20616754.453 7   -820405.059 7   -617211.20349  20616755.20349
  22942287.617 5   -798302.660 5   -589875.94149  22942287.68849
  23315564.570 5  -1214078.395 5   -907804.22347  23315562.08647
  21443509.328 6   -358547.902 6   -264863.62948  21443506.92248
  22857429.156 5   -284319.234 5   -205334.93047  22857430.22747
  20055535.281 7   -487852.652 7   -355844.37949  20055535.23449
  23474674.906 5   -163797.832 5   -123527.89547  23474674.51247
 20  5 16  1 41 14.0000000  0  8G04G08G09G11G16G26G27G31            -0.000211094
  21365634.648 6   -505251.801 6   -370872.85948  21365633.92248
  20615825.219 7   -825288.594 7   -621016.55949  20615825.95349
  22941389.750 5   -803021.262 5   -593552.77749  22941389.52749
  23314271.570 5  -1220874.402 5   -913099.80947  23314268.83247
  21443098.180 6   -360707.984 6   -266546.81348  21443095.91848
  22857110.914 5   -285987.543 5   -206634.91047  22857112.91047
  20055012.336 7   -490600.941 7   -357985.90249  20055012.71149
  23474496.516 5   -164736.063 5   -124258.99647  23474496.07847
 20  5 16  1 41 15.0000000  0  8G04G08G09G11G16G26G27G31            -0.000213249
  21365095.672 6   -508083.484 6   -373079.36748  21365095.02048
  20614895.969 7   -830172.004 7   -624821.81349  20614896.49649
  22940492.016 6   -807739.680 6   -597229.46549  22940491.60549
  23312978.188 5  -1227670.715 5   -918395.62947  23312975.66447
  21442687.188 6   -362868.367 6   -268230.22748  21442684.96948
  22856792.953 5   -287656.207 5   -207935.16847  22856795.33247
  20054489.352 7   -493349.027 7   -360127.27349  20054489.57049
  23474318.813 5   -165674.426 5   -124990.19547  23474317.19947
 20  5 16  1 41 16.0000000  0  8G04G08G09G11G16G26G27G31            -0.000215401
  21364557.148 6   -510914.918 6   -375285.68048  21364556.17248
  20613966.742 7   -835055.148 7   -628626.85549  20613967.43849
  22939594.086 5   -812457.902 5   -600906.00449  22939594.32449
  23311684.805 5  -1234467.242 5   -923691.62947  23311682.34447
  21442275.805 6   -365029.031 6   -269913.85948  21442273.71948
  22856475.641 5   -289325.199 5   -209235.68047  22856477.78147
  20053966.320 7   -496096.840 7   -362268.42249  20053966.66449
  23474140.039 5   -166612.867 5   -125721.45347  23474138.89547
 20  5 16  1 41 17.0000000  0  8G04G08G09G11G16G26G27G31            -0.000217556
  21364018.328 6   -513745.930 6   -377491.66448  21364017.68448
  20613037.648 7   -839937.969 7   -632431.65249  20613038.01649
  22938695.594 6   -817175.727 6   -604582.22749  22938696.21549
  23310391.203 5  -1241263.910 5   -928987.73447  23310389.00847
  21441865.094 6   -367189.844 6   -271597.60948  21441862.63748
  22856158.063 5   -290994.457 5   -210536.39847  22856160.14147
  20053443.680 7   -498844.266 7   -364409.26649  20053443.59049
  23473961.281 5   -167551.227 5   -126452.63747  23473959.99247
 20  5 16  1 41 18.0000000  0  8G04G08G09G11G16G26G27G31            -0.000219706
  21363479.477 6   -516576.793 6   -379697.52748  21363478.90648
  20612108.445 7   -844820.648 7   -636236.34449  20612108.93449
  22937798.438 5   -821893.406 5   -608258.34849  22937798.54749
  23309097.563 5  -1248060.898 5   -934284.08647  23309095.52047
  21441453.516 6   -369350.992 6   -273281.62148  21441451.16848
  22855840.531 5   -292664.113 5   -211837.43847  22855842.31647
  20052920.867 7   -501591.516 7   -366549.98449  20052921.09049
  23473782.805 5   -168489.727 5   -127183.93847  23473781.64847
 20  5 16  1 41 19.0000000  0  8G04G08G09G11G16G26G27G31            -0.000221863
  21362940.867 6   -519407.305 6   -381903.11748  21362940.53948
  20611179.336 7   -849703.016 7   -640040.78149  20611180.15249
  22936900.438 5   -826610.805 5   -611934.24249  22936901.17249
  23307804.047 5  -1254858.008 5   -939580.53547  23307802.02047
  21441042.375 6   -371512.336 6   -274965.78148  21441040.27048
  22855522.492 5   -294334.016 5   -213138.66447  22855525.00847
  20052397.914 7   -504338.395 7   -368690.41049  20052398.19949
  23473604.250 5   -169428.215 5   -127915.22747  23473603.19947
 20  5 16  1 41 20.0000000  0  8G04G08G09G11G16G26G27G31            -0.000224014
  21362402.656 6   -522237.402 6   -384108.39548  21362401.84448
  20610250.188 7   -854585.078 7   -643844.98449  20610250.91049
  22936002.992 5   -831327.852 5   -615609.86349  22936003.25449
  23306510.805 5  -1261655.281 5   -944877.10947  23306508.75447
  21440631.242 6   -373673.824 6   -276650.06348  21440628.78548
  22855204.617 5   -296004.137 5   -214440.05547  22855207.07847
  20051875.406 7   -507084.910 7   -370830.55149  20051875.52349
  23473425.602 5   -170366.680 5   -128646.49247  23473424.63347
 20  5 16  1 41 21.0000000  0  8G04G08G09G11G16G26G27G31            -0.000226170
  21361863.844 6   -525067.211 6   -386313.43448  21361863.33248
  20609321.430 7   -859466.895 7   -647648.98849  20609322.02749
  22935104.852 5   -836044.609 5   -619285.25449  22935105.80549
  23305217.141 5  -1268452.750 5   -950173.84447  23305215.18047
  21440219.648 6   -375835.551 6   -278334.52048  21440217.14148
  22854887.242 5   -297674.555 5   -215741.68447  22854889.14547
  20051353.047 7   -509831.145 7   -372970.47349  20051353.01649
  23473246.836 5   -171305.148 5   -129377.75847  23473245.98047
 20  5 16  1 41 22.0000000  0  8G04G08G09G11G16G26G27G31            -0.000228321
  21361325.359 6   -527896.773 6   -388518.29348  21361325.15648
  20608392.453 7   -864348.492 7   -651452.83249  20608393.27749
  22934207.656 5   -840761.148 5   -622960.47349  22934208.29749
  23303923.695 5  -1275250.430 5   -955470.72947  23303921.96147
  21439808.359 6   -377997.578 6   -280019.21548  21439805.71948
  22854569.414 5   -299345.336 5   -217043.58647  22854570.95747
  20050830.406 7   -512577.102 7   -375110.17649  20050830.39549
  23473068.039 5   -172243.707 5   -130109.10247  23473067.03947
 20  5 16  1 41 23.0000000  0  8G04G08G09G11G16G26G27G31            -0.000230478
  21360786.938 6   -530726.004 6   -390722.89548  21360786.26248
  20607463.531 7   -869229.840 7   -655256.48449  20607464.28149
  22933310.461 5   -845477.461 5   -626635.52749  22933310.83249
  23302630.344 5  -1282048.363 5   -960767.82447  23302628.16047
  21439396.844 6   -380159.813 6   -281704.08248  21439394.40648
  22854251.000 5   -301016.402 5   -218345.71147  22854253.03947
  20050307.891 7   -515322.762 7   -377249.65249  20050307.92649
  23472889.461 6   -173182.242 6   -130840.43847  23472888.76247
 20  5 16  1 41 24.0000000  0  8G04G08G09G11G16G26G27G31            -0.000232630
  21360248.375 6   -533554.844 6   -392927.18848  21360247.74648
  20606534.570 7   -874110.797 7   -659059.82849  20606535.26649
  22932412.773 6   -850193.344 6   -630310.23849  22932412.88749
  23301336.781 5  -1288846.387 5   -966064.98047  23301334.60947
  21438985.344 6   -382322.168 6   -283389.03548  21438982.78148
  22853933.313 5   -302687.652 5   -219647.98847  22853935.12947
  20049785.547 7   -518067.996 7   -379388.80149  20049785.63349
  23472710.891 5   -174120.727 5   -131571.73047  23472710.01247
 20  5 16  1 41 25.0000000  0  8G04G08G09G11G16G26G27G31            -0.000234787
  21359710.672 6   -536383.340 6   -395131.21148  21359709.75048
  20605606.172 7   -878991.496 7   -662862.96949  20605606.54349
  22931515.211 6   -854908.957 6   -633984.74249  22931516.21549
  23300043.570 5  -1295644.566 5   -971362.25847  23300041.08647
  21438573.742 6   -384484.742 6   -285074.15248  21438571.47748
  22853615.016 5   -304359.188 5   -220950.48047  22853616.74647
  20049263.141 7   -520812.938 7   -381527.71149  20049263.23849
  23472532.281 5   -175059.242 5   -132303.03947  23472531.43847
 20  5 16  1 41 26.0000000  0  8G04G08G09G11G16G26G27G31            -0.000236938
  21359172.711 6   -539211.598 6   -397335.05148  21359171.66048
  20604677.461 7   -883871.957 7   -666665.92649  20604677.80949
  22930617.977 6   -859624.352 6   -637659.07449  22930618.55549
  23298748.859 5  -1302442.996 5   -976659.73847  23298747.22347
  21438161.859 6   -386647.586 6   -286759.49248  21438160.07848
  22853297.266 5   -306031.063 5   -222253.24647  22853298.86747
  20048740.969 7   -523557.594 7   -383666.40249  20048741.02749
  23472354.289 5   -175997.801 5   -133034.38747  23472352.74647
 20  5 16  1 41 27.0000000  0  8G04G08G09G11G16G26G27G31            -0.000239096
  21358634.758 6   -542039.508 6   -399538.62148  21358633.53148
  20603748.695 7   -888752.164 7   -670468.68449  20603749.33649
  22929721.242 6   -864339.457 6   -641333.18449  22929721.40249
  23297455.688 6  -1309241.582 6   -981957.33247  23297453.87547
  21437750.313 6   -388810.656 6   -288444.99248  21437747.85548
  22852978.594 5   -307703.215 5   -223556.21947  22852980.67647
  20048218.742 7   -526301.945 7   -385804.86349  20048218.60549
  23472175.484 5   -176936.367 5   -133765.73447  23472174.07447
 20  5 16  1 41 28.0000000  0  8G04G08G09G11G16G26G27G31            -0.000241249
  21358096.352 6   -544867.152 6   -401741.97748  21358095.54748
  20602819.461 7   -893632.152 7   -674271.27349  20602820.43049
  22928823.906 6   -869054.332 6   -645007.11349  22928824.23049
  23296161.992 6  -1316040.434 6   -987255.13747  23296160.35547
  21437338.813 6   -390974.000 6   -290130.71948  21437336.29748
  22852660.523 5   -309375.703 5   -224859.45747  22852662.43447
  20047696.617 7   -529046.012 7   -387943.09849  20047696.78549
  23471997.039 6   -177875.012 6   -134497.14147  23471995.55547
 20  5 16  1 41 29.0000000  0  8G04G08G09G11G16G26G27G31            -0.000243406
  21357558.125 6   -547694.555 6   -403945.14548  21357557.68448
  20601891.266 7   -898511.922 7   -678073.69549  20601892.25849
  22927926.117 6   -873768.949 6   -648680.84849  22927926.91449
  23294868.320 6  -1322839.500 6   -992553.11747  23294866.23447
  21436927.266 6   -393137.598 6   -291816.64548  21436924.92648
  22852341.992 5   -311048.512 5   -226162.94547  22852344.34047
  20047174.266 7   -531789.809 7   -390081.11749  20047174.37149
  23471817.781 5   -178813.719 5   -135228.60547  23471816.90247
 20  5 16  1 41 30.0000000  0  8G04G08G09G11G16G26G27G31            -0.000245560
  21357020.008 6   -550521.484 6   -406147.94948  21357019.71548
  20600962.805 7   -903391.293 7   -681875.80149  20600963.56649
  22927029.359 6   -878483.180 6   -652354.27349  22927029.80549
  23293574.336 6  -1329638.656 6   -997851.16047  23293572.54747
  21436515.789 6   -395301.313 6   -293502.65648  21436512.93048
  22852023.656 5   -312721.512 5   -227466.59447  22852025.80947
  20046652.203 7   -534533.195 7   -392218.82449  20046652.19949
  23471639.266 5   -179752.301 5   -135959.96147  23471638.26247
 20  5 16  1 41 31.0000000  0  8G04G08G09G11G16G26G27G31            -0.000247717
  21356482.328 6   -553348.027 6   -408350.45348  21356481.72748
  20600034.219 7   -908270.285 7   -685677.60949  20600035.02749
  22926132.313 5   -883197.043 5   -656027.41449  22926132.82849
  23292280.211 6  -1336437.914 6  -1003149.28147  23292278.30147
  21436103.570 6   -397465.137 6   -295188.75848  21436101.14548
  22851705.047 5   -314394.672 5   -228770.35547  22851707.62547
  20046130.383 7   -537276.156 7   -394356.19549  20046130.90249
  23471460.984 5   -180690.836 5   -136691.29347  23471459.77347
 20  5 16  1 41 32.0000000  0  8G04G08G09G11G16G26G27G31            -0.000249870
  21355944.703 6   -556174.219 6   -410552.67648  21355943.77748
  20599105.938 7   -913148.977 7   -689479.18849  20599106.68049
  22925235.602 5   -887910.590 5   -659700.30149  22925235.96149
  23290986.438 6  -1343237.313 6  -1008447.51647  23290984.56347
  21435691.875 6   -399629.168 6   -296875.01248  21435689.46548
  22851386.734 5   -316068.141 5   -230074.35547  22851388.91047
  20045608.430 7   -540018.797 7   -396493.32049  20045608.62549
  23471282.445 5   -181629.348 5   -137422.60547  23471280.98447
 20  5 16  1 41 33.0000000  0  8G04G08G09G11G16G26G27G31            -0.000252029
  21355407.109 6   -559000.066 6   -412754.63748  21355406.18848
  20598177.539 7   -918027.328 7   -693280.50049  20598178.15649
  22924338.664 5   -892623.832 5   -663372.96149  22924339.13349
  23289692.391 6  -1350036.863 6  -1013745.86347  23289690.80147
  21435280.102 6   -401793.367 6   -298561.39848  21435277.57048
  22851068.563 5   -317741.836 5   -231378.53947  22851070.48447
  20045086.688 7   -542761.070 7   -398630.15649  20045086.80149
  23471103.469 5   -182567.824 5   -138153.88747  23471102.52747
 20  5 16  1 41 34.0000000  0  8G04G08G09G11G16G26G27G31            -0.000254183
  21354869.305 6   -561825.582 6   -414956.34048  21354868.39848
  20597249.297 7   -922905.457 7   -697081.63749  20597250.15649
  22923441.742 5   -897336.766 5   -667045.37149  22923441.93849
  23288398.547 5  -1356836.609 5  -1019044.36347  23288397.03147
  21434868.477 6   -403957.793 6   -300247.96548  21434866.00448
  22850749.813 5   -319415.785 5   -232682.91047  22850751.28547
  20044565.031 7   -545503.023 7   -400766.74649  20044564.79349
  23470924.750 5   -183506.355 5   -138885.20347  23470923.80947
 20  5 16  1 41 35.0000000  0  8G04G08G09G11G16G26G27G31            -0.000256342
  21354331.484 6   -564650.684 6   -417157.71948  21354330.64848
  20596321.219 7   -927783.199 7   -700882.47749  20596321.90649
  22922544.758 5   -902049.320 5   -670717.49249  22922545.50049
  23287104.445 5  -1363636.410 5  -1024342.91047  23287103.12947
  21434456.391 6   -406122.313 6   -301934.60548  21434453.84048
  22850431.297 5   -321089.930 5   -233987.44147  22850433.68447
  20044043.289 7   -548244.535 7   -402902.98449  20044043.35949
  23470746.211 5   -184444.707 5   -139616.39547  23470745.17247
 20  5 16  1 41 36.0000000  0  8G04G08G09G11G16G26G27G31            -0.000258495
  21353794.023 6   -567475.484 6   -419358.86348  21353793.32848
  20595393.094 7   -932660.676 7   -704683.10949  20595393.63349
  22921647.773 6   -906761.602 6   -674389.40649  22921648.33649
  23285810.781 6  -1370436.438 6  -1029641.62947  23285809.15647
  21434044.859 6   -408287.082 6   -303621.44148  21434041.81348
  22850112.531 5   -322764.395 5   -235292.21947  22850114.70347
  20043521.523 7   -550985.773 7   -405039.01249  20043521.47749
  23470567.766 5   -185383.172 5   -140347.66447  23470566.48847
 20  5 16  1 41 37.0000000  0  8G04G08G09G11G16G26G27G31            -0.000260654
  21353256.188 6   -570299.965 6   -421559.75048  21353255.91048
  20594464.719 7   -937537.918 7   -708483.56349  20594465.67649
  22920751.125 5   -911473.656 5   -678061.14149  22920751.93049
  23284516.508 6  -1377236.668 6  -1034940.50047  23284514.74647
  21433632.352 6   -410452.082 6   -305308.45348  21433630.07848
  22849794.164 5   -324439.133 5   -236597.21147  22849796.12547
  20042999.914 7   -553726.711 7   -407174.81349  20043000.01649
  23470389.227 6   -186321.621 6   -141078.91847  23470387.99647
 20  5 16  1 41 38.0000000  0  8G04G08G09G11G16G26G27G31            -0.000262810
  21352718.898 6   -573124.184 6   -423760.44548  21352718.16448
  20593536.688 7   -942414.938 7   -712283.83649  20593537.33249
  22919855.313 5   -916185.430 5   -681732.65649  22919855.42649
  23283222.195 6  -1384037.117 6  -1040239.55147  23283220.99647
  21433220.172 6   -412617.324 6   -306995.66048  21433217.95748
  22849475.133 5   -326114.184 5   -237902.44547  22849477.21547
  20042478.211 7   -556467.371 7   -409310.38749  20042478.85249
  23470210.008 5   -187260.141 5   -141810.23047  23470209.03547
 20  5 16  1 41 39.0000000  0  8G04G08G09G11G16G26G27G31            -0.000264967
  21352181.883 6   -575947.977 6   -425960.79748  21352181.00848
  20592608.719 7   -947291.566 7   -716083.80549  20592609.54749
  22918958.867 6   -920896.816 6   -685403.86749  22918958.36349
  23281928.555 6  -1390837.625 6  -1045538.65247  23281926.91047
  21432808.156 6   -414782.719 6   -308682.97348  21432805.89848
  22849156.211 5   -327789.444 5   -239207.84647  22849158.73447
  20041957.031 7   -559207.613 7   -411445.64549  20041957.41449
  23470031.883 5   -188198.547 5   -142541.45747  23470030.69947
 20  5 16  1 41 40.0000000  0  8G04G08G09G11G16G26G27G31            -0.000267122
  21351644.625 6   -578771.469 6   -428160.92648  21351643.80548
  20591681.008 7   -952167.965 7   -719883.59849  20591681.31349
  22918061.961 6   -925607.949 6   -689074.87949  22918061.89149
  23280634.258 6  -1397638.352 6  -1050837.91847  23280632.82047
  21432396.586 6   -416948.328 6   -310370.46548  21432393.37948
  22848837.383 5   -329465.008 5   -240513.48447  22848839.99247
  20041435.563 7   -561947.559 7   -413580.66049  20041435.30149
  23469853.172 5   -189136.996 5   -143272.73047  23469852.29747
 20  5 16  1 41 41.0000000  0  8G04G08G09G11G16G26G27G31            -0.000269281
  21351107.320 6   -581594.602 6   -430360.77348  21351106.45348
  20590752.938 7   -957044.043 7   -723683.14149  20590753.47349
  22917165.773 6   -930318.754 6   -692745.63349  22917165.75049
  23279340.672 6  -1404439.238 6  -1056137.31647  23279338.76247
  21431984.641 6   -419114.109 6   -312058.08248  21431981.42648
  22848518.750 5   -331140.785 5   -241819.28547  22848520.61347
  20040914.289 7   -564687.129 7   -415715.39549  20040914.21949
  23469674.133 5   -190075.406 5   -144003.95747  23469673.33247
 20  5 16  1 41 42.0000000  0  8G04G08G09G11G16G26G27G31            -0.000271437
  21350570.273 6   -584417.344 6   -432560.31348  21350569.67248
  20589825.438 7   -961919.781 7   -727482.41449  20589826.18449
  22916268.711 5   -935029.223 5   -696416.12549  22916269.27349
  23278046.031 6  -1411240.234 6  -1061436.79347  23278044.36347
  21431572.109 6   -421280.055 6   -313745.83248  21431569.29748
  22848199.609 5   -332816.832 5   -243125.29347  22848201.60547
  20040392.961 7   -567426.336 7   -417849.84049  20040392.72349
  23469495.969 5   -191013.777 5   -144735.16047  23469494.88747
 20  5 16  1 41 43.0000000  0  8G04G08G09G11G16G26G27G31            -0.000273598
  21350033.055 6   -587239.781 6   -434759.62148  21350032.41848
  20588897.516 7   -966795.227 7   -731281.46149  20588898.00849
  22915373.141 6   -939739.387 6   -700086.38749  22915373.00049
  23276751.797 6  -1418041.430 6  -1066736.42247  23276749.96147
  21431159.813 6   -423446.215 6   -315433.74648  21431157.27048
  22847881.008 5   -334493.090 5   -244431.46947  22847882.78147
  20039871.758 7   -570165.230 7   -419984.04349  20039871.78549
  23469317.234 5   -191952.141 5   -145466.35247  23469316.27747
 20  5 16  1 41 44.0000000  0  8G04G08G09G11G16G26G27G31            -0.000275753
  21349495.945 6   -590061.902 6   -436958.66848  21349495.15248
  20587969.727 7   -971670.441 7   -735080.32849  20587970.18849
  22914476.281 5   -944449.313 5   -703756.46549  22914476.67649
  23275457.375 6  -1424842.840 6  -1072036.21947  23275456.19547
  21430747.578 6   -425612.621 6   -317121.85548  21430745.05548
  22847561.703 5   -336169.699 5   -245737.91847  22847563.87147
  20039350.578 7   -572903.836 7   -422118.01649  20039350.64549
  23469138.844 5   -192890.582 5   -146197.60947  23469137.68447
 20  5 16  1 41 45.0000000  0  8G04G08G09G11G16G26G27G31            -0.000277912
  21348959.000 6   -592883.648 6   -439157.43448  21348958.02748
  20587042.164 7   -976545.305 7   -738878.91849  20587042.64549
  22913580.398 5   -949158.875 5   -707426.25449  22913580.85949
  23274163.547 6  -1431644.320 6  -1077336.07447  23274161.68847
  21430334.977 6   -427779.191 6   -318810.09448  21430332.85948
  22847242.711 5   -337846.535 5   -247044.54747  22847244.75447
  20038829.289 7   -575642.043 7   -424251.68449  20038829.95749
  23468960.484 5   -193828.953 5   -146928.80947  23468959.18847
 20  5 16  1 41 46.0000000  0  8G04G08G09G11G16G26G27G31            -0.000280067
  21348422.078 6   -595705.086 6   -441355.96148  21348421.55148
  20586114.820 7   -981419.871 7   -742677.28549  20586115.24249
  22912683.508 5   -953868.145 5   -711095.81349  22912683.93449
  23272869.023 6  -1438446.004 6  -1082636.08647  23272867.41047
  21429922.781 6   -429945.949 6   -320498.46948  21429920.21148
  22846924.109 5   -339523.641 5   -248351.38347  22846925.14147
  20038308.438 7   -578379.930 7   -426385.10549  20038308.74649
  23468781.945 5   -194767.289 5   -147659.98047  23468780.89847
 20  5 16  1 41 47.0000000  0  8G04G08G09G11G16G26G27G31            -0.000282228
  21347884.820 6   -598526.223 6   -443554.25048  21347884.34048
  20585186.922 7   -986294.199 7   -746475.46549  20585187.69949
  22911788.016 5   -958577.176 5   -714765.18449  22911788.44549
  23271574.188 5  -1445247.918 5  -1087936.28547  23271573.10947
  21429510.461 6   -432112.949 6   -322187.03948  21429508.01648
  22846604.281 5   -341201.023 5   -249658.43847  22846605.79747
  20037787.875 7   -581117.531 7   -428518.30149  20037787.85949
  23468603.109 5   -195705.703 5   -148391.21947  23468602.40647
 20  5 16  1 41 48.0000000  0  8G04G08G09G11G16G26G27G31            -0.000284386
  21347348.453 6   -601346.949 6   -445752.21948  21347347.52748
  20584259.406 7   -991168.184 7   -750273.37149  20584260.19949
  22910892.188 5   -963285.824 5   -718434.26649  22910892.19549
  23270280.031 5  -1452049.941 5  -1093236.55147  23270278.77047
  21429098.141 6   -434280.102 6   -323875.73848  21429095.27348
  22846284.617 5   -342878.660 5   -250965.68447  22846287.06647
  20037266.664 7   -583854.746 7   -430651.19949  20037266.85549
  23468425.313 5   -196644.039 5   -149122.39147  23468423.74647
 20  5 16  1 41 49.0000000  0  8G04G08G09G11G16G26G27G31            -0.000286547
  21346812.016 6   -604167.316 6   -447949.91048  21346811.25048
  20583331.766 7   -996041.813 7   -754071.00049  20583332.63349
  22909996.188 5   -967994.133 5   -722103.07449  22909996.28149
  23268985.508 5  -1458852.051 5  -1098536.90247  23268984.23847
  21428685.781 6   -436447.410 6   -325564.54748  21428683.32048
  22845965.891 5   -344556.536 5   -252273.11947  22845967.50847
  20036745.852 7   -586591.586 7   -432783.80549  20036746.05149
  23468246.750 5   -197582.348 5   -149853.53947  23468245.31347
 20  5 16  1 41 50.0000000  0  8G04G08G09G11G16G26G27G31            -0.000288702
  21346275.531 6   -606987.395 6   -450147.36348  21346274.15648
  20582404.930 7  -1000915.270 7   -757868.50449  20582404.99649
  22909100.297 5   -972702.211 5   -725771.70349  22909100.59849
  23267691.078 5  -1465654.449 5  -1103837.46547  23267689.71947
  21428272.813 6   -438615.008 6   -327253.58648  21428270.50448
  22845646.602 5   -346234.660 5   -253580.74247  22845648.31647
  20036224.930 7   -589328.148 7   -434916.19149  20036225.14849
  23468067.813 5   -198520.691 5   -150584.72347  23468066.59847
 20  5 16  1 41 51.0000000  0  8G04G08G09G11G16G26G27G31            -0.000290863
  21345738.633 6   -609807.016 6   -452344.47748  21345737.62948
  20581477.430 7  -1005788.270 7   -761665.64149  20581478.17249
  22908204.289 6   -977409.863 6   -729440.00849  22908204.55149
  23266396.758 5  -1472456.836 5  -1109138.01647  23266395.03547
  21427860.531 6   -440782.629 6   -328942.64548  21427857.95748
  22845327.297 5   -347912.973 5   -254888.53147  22845328.93847
  20035704.703 7   -592064.246 7   -437048.21149  20035704.80149
  23467889.430 5   -199458.891 5   -151315.78947  23467887.93847
 20  5 16  1 41 52.0000000  0  8G04G08G09G11G16G26G27G31            -0.000293020
  21345202.148 6   -612626.324 6   -454541.34048  21345201.44148
  20580549.930 7  -1010660.996 7   -765462.57049  20580550.66049
  22907308.672 5   -982117.227 5   -733108.08249  22907308.86749
  23265102.320 5  -1479259.418 5  -1114438.72747  23265100.57047
  21427447.836 6   -442950.488 6   -330631.88348  21427445.74648
  22845007.750 5   -349591.551 5   -256196.50847  22845009.10947
  20035183.750 7   -594800.023 7   -439179.98849  20035184.03549
  23467711.297 6   -200397.129 6   -152046.89147  23467709.49647
 20  5 16  1 41 53.0000000  0  8G04G08G09G11G16G26G27G31            -0.000295181
  21344665.617 6   -615445.203 6   -456737.87148  21344665.36348
  20579622.711 7  -1015533.359 7   -769259.21549  20579623.54749
  22906412.953 6   -986824.180 6   -736775.83649  22906413.28149
  23263808.328 5  -1486062.090 5  -1119739.50847  23263806.35247
  21427035.273 6   -445118.477 6   -332321.22348  21427032.86748
  22844688.156 5   -351270.324 5   -257504.65247  22844689.78547
  20034663.164 7   -597535.391 7   -441311.43849  20034663.53949
  23467532.172 5   -201335.266 5   -152777.91047  23467531.01647
 20  5 16  1 41 54.0000000  0  8G04G08G09G11G16G26G27G31            -0.000297338
  21344129.383 6   -618263.625 6   -458934.04348  21344128.84048
  20578695.844 7  -1020405.277 7   -773055.52049  20578696.30149
  22905517.289 6   -991530.766 6   -740443.30949  22905517.60249
  23262512.906 5  -1492864.805 5  -1125040.32447  23262511.43847
  21426622.789 6   -447286.523 6   -334010.61348  21426620.55948
  22844368.352 5   -352949.246 5   -258812.90247  22844370.30147
  20034143.102 7   -600270.328 7   -443442.55549  20034143.43049
  23467353.938 5   -202273.277 5   -153508.82447  23467352.53947
 20  5 16  1 41 55.0000000  0  8G04G08G09G11G16G26G27G31            -0.000299500
  21343592.992 6   -621081.633 6   -461129.89548  21343592.37948
  20577768.938 7  -1025276.859 7   -776851.55549  20577769.35249
  22904622.109 6   -996236.914 6   -744110.43449  22904621.86349
  23261219.109 5  -1499667.637 5  -1130341.23447  23261216.78947
  21426210.648 6   -449454.707 6   -335700.10948  21426208.15648
  22844048.875 5   -354628.340 5   -260121.28547  22844050.97747
  20033622.742 7   -603004.832 7   -445573.34049  20033622.56349
  23467175.313 5   -203211.199 5   -154239.67247  23467174.29747
 20  5 16  1 41 56.0000000  0  8G04G08G09G11G16G26G27G31            -0.000301657
  21343056.734 6   -623899.340 6   -463325.51248  21343056.21548
  20576842.023 7  -1030148.137 7   -780647.35549  20576842.59449
  22903726.477 6  -1000942.797 6   -747777.35549  22903726.35949
  23259923.648 5  -1506470.578 5  -1135642.23047  23259922.43047
  21425797.547 6   -451623.098 6   -337389.76248  21425795.41848
  22843729.344 5   -356307.719 5   -261429.89547  22843731.39547
  20033102.500 7   -605739.008 7   -447703.86349  20033102.52749
  23466996.961 5   -204149.125 5   -154970.52347  23466995.92647
 20  5 16  1 41 57.0000000  0  8G04G08G09G11G16G26G27G31            -0.000303820
  21342520.523 6   -626716.652 6   -465520.81648  21342519.95348
  20575914.719 7  -1035019.121 7   -784442.93049  20575915.27749
  22902830.898 6  -1005648.355 6   -751444.02349  22902830.72349
  23258629.305 5  -1513273.707 5  -1140943.36347  23258627.73847
  21425385.070 6   -453791.664 6   -339079.55148  21425382.65248
  22843410.211 5   -357987.348 5   -262738.69147  22843411.64547
  20032582.008 7   -608472.840 7   -449834.12149  20032582.27349
  23466818.523 5   -205087.066 5   -155701.37947  23466817.41047
 20  5 16  1 41 58.0000000  0  8G04G08G09G11G16G26G27G31            -0.000305977
  21341984.602 6   -629533.617 6   -467715.85948  21341984.03148
  20574987.828 7  -1039889.746 7   -788238.21949  20574988.73049
  22901935.367 6  -1010353.574 6   -755110.42649  22901935.40249
  23257335.031 5  -1520076.934 5  -1146244.58247  23257333.23447
  21424972.461 6   -455960.379 6   -340769.46548  21424969.77048
  22843090.086 5   -359667.172 5   -264047.64547  22843092.10247
  20032061.969 7   -611206.270 7   -451964.07049  20032062.11349
  23466639.914 5   -206024.906 5   -156432.16047  23466639.17647
 20  5 16  1 41 59.0000000  0  8G04G08G09G11G16G26G27G31            -0.000308140
  21341448.648 6   -632350.074 6   -469910.49648  21341447.93048
  20574061.180 7  -1044759.977 7   -792033.20349  20574061.85249
  22901039.766 6  -1015058.348 6   -758776.48049  22901040.29349
  23256040.258 5  -1526880.184 5  -1151545.80947  23256038.65247
  21424560.141 6   -458129.164 6   -342459.42648  21424557.18848
  22842770.047 5   -361347.141 5   -265356.71147  22842772.53947
  20031541.766 7   -613939.250 7   -454093.66449  20031542.03149
  23466461.711 5   -206962.625 5   -157162.85947  23466460.38747
 20  5 16  1 42  0.0000000  0  8G04G08G09G11G16G26G27G31            -0.000310297
  21340912.977 6   -635166.211 6   -472104.89148  21340912.42248
  20573134.586 7  -1049629.895 7   -795827.94949  20573135.28949
  22900145.133 6  -1019762.781 6   -762442.27349  22900145.18849
  23254745.680 5  -1533683.609 5  -1156847.17647  23254743.77347
  21424147.148 6   -460298.152 6   -344149.54348  21424144.46148
  22842450.500 5   -363027.375 5   -266665.98847  22842452.71547
  20031021.688 7   -616671.891 7   -456222.99649  20031022.16449
  23466282.945 5   -207900.336 5   -157893.54747  23466281.83247
 20  5 16  1 42  1.0000000  0  8G04G08G09G11G16G26G27G31            -0.000312460
  21340376.867 6   -637981.949 6   -474298.97348  21340376.46548
  20572208.039 7  -1054499.453 7   -799622.41449  20572208.68849
  22899249.430 6  -1024466.883 6   -766107.81649  22899249.78949
  23253450.953 5  -1540487.121 5  -1162148.61347  23253449.25047
  21423734.609 6   -462467.262 6   -345839.75848  21423731.69948
  22842131.523 5   -364707.824 5   -267975.43847  22842132.93447
  20030501.922 7   -619404.137 7   -458352.02349  20030502.14849
  23466104.477 5   -208837.961 5   -158624.16447  23466103.86747
 20  5 16  1 42  2.0000000  0  8G04G08G09G11G16G26G27G31            -0.000314617
  21339841.109 6   -640797.324 6   -476492.77048  21339840.86348
  20571281.391 7  -1059368.715 7   -803416.63749  20571281.99249
  22898354.930 6  -1029170.641 6   -769773.07849  22898354.73449
  23252156.328 5  -1547290.785 5  -1167450.17247  23252153.97347
  21423321.547 6   -464636.566 6   -347530.12548  21423318.99248
  22841811.492 5   -366388.473 5   -269285.03547  22841813.22347
  20029981.773 7   -622136.016 7   -460480.75449  20029982.09849
  23465926.289 5   -209775.563 5   -159354.76647  23465925.22347
 20  5 16  1 42  3.0000000  0  8G04G08G09G11G16G26G27G31            -0.000316780
  21339305.813 6   -643612.402 6   -478686.33648  21339304.80948
  20570354.695 7  -1064237.699 7   -807210.65249  20570355.39149
  22897459.766 6  -1033874.133 6   -773438.14149  22897459.71549
  23250861.547 5  -1554094.652 5  -1172751.88347  23250859.52347
  21422908.289 6   -466806.066 6   -349220.64848  21422906.01648
  22841492.047 5   -368069.469 5   -270594.90247  22841493.39847
  20029462.109 7   -624867.605 7   -462609.27049  20029462.35549
  23465747.969 6   -210713.195 6   -160085.39547  23465746.54347
 20  5 16  1 42  4.0000000  0  8G04G08G09G11G16G26G27G31            -0.000318939
  21338769.938 6   -646427.078 6   -480879.59448  21338769.25048
  20569428.289 7  -1069106.352 7   -811004.41049  20569428.92249
  22896564.758 6  -1038577.266 6   -777102.92649  22896565.11749
  23249566.844 5  -1560898.609 5  -1178053.66447  23249564.58247
  21422495.320 6   -468975.750 6   -350911.31348  21422493.21548
  22841171.656 5   -369750.586 5   -271904.85947  22841173.50447
  20028942.492 7   -627598.797 7   -464737.46949  20028942.78549
  23465569.086 5   -211650.754 5   -160815.96147  23465568.49647
 20  5 16  1 42  5.0000000  0  8G04G08G09G11G16G26G27G31            -0.000321102
  21338234.742 6   -649241.383 6   -483072.55548  21338233.54748
  20568501.844 7  -1073974.660 7   -814797.89549  20568502.53549
  22895669.352 5  -1043280.070 5   -780767.44949  22895670.21949
  23248272.070 6  -1567702.703 6  -1183355.54747  23248270.43447
  21422082.773 6   -471145.578 6   -352602.08248  21422080.36748
  22840851.531 5   -371432.008 5   -273215.06347  22840853.33247
  20028422.844 7   -630329.609 7   -466865.37149  20028422.78549
  23465391.172 5   -212588.313 5   -161546.52747  23465390.10547
 20  5 16  1 42  6.0000000  0  8G04G08G09G11G16G26G27G31            -0.000323261
  21337698.789 6   -652055.281 6   -485265.21148  21337697.69948
  20567575.484 7  -1078842.586 7   -818591.08649  20567575.98049
  22894774.531 6  -1047982.469 6   -784431.65649  22894775.03149
  23246977.172 6  -1574506.875 6  -1188657.50447  23246975.04347
  21421670.070 6   -473315.520 6   -354292.95348  21421667.47748
  22840531.344 5   -373113.586 5   -274525.37547  22840533.41847
  20027903.344 7   -633060.047 7   -468992.98449  20027903.23449
  23465212.469 5   -213525.781 5   -162277.03147  23465211.50047
 20  5 16  1 42  7.0000000  0  8G04G08G09G11G16G26G27G31            -0.000325424
  21337163.813 6   -654868.953 6   -487457.68048  21337162.87948
  20566649.180 7  -1083710.359 7   -822384.15249  20566649.94149
  22893879.727 5  -1052684.703 5   -788095.73849  22893880.34849
  23245682.703 6  -1581311.355 6  -1193959.69147  23245680.46547
  21421256.773 6   -475485.781 6   -355984.05948  21421254.28548
  22840211.453 5   -374795.574 5   -275836.01647  22840213.34447
  20027383.914 7   -635790.230 7   -471120.40249  20027383.74649
  23465033.531 5   -214463.309 5   -163007.57447  23465032.93447
 20  5 16  1 42  8.0000000  0  8G04G08G09G11G16G26G27G31            -0.000327583
  21336628.414 6   -657682.195 6   -489649.82048  21336627.55148
  20565722.875 7  -1088577.758 7   -826176.93449  20565723.45349
  22892985.148 6  -1057386.551 6   -791759.51649  22892985.12549
  23244387.891 6  -1588115.895 6  -1199261.93847  23244385.34447
  21420843.977 6   -477656.164 6   -357675.27348  21420841.40248
  22839891.438 5   -376477.738 5   -277146.79347  22839893.16047
  20026864.320 7   -638520.012 7   -473247.50449  20026864.25049
  23464855.586 5   -215400.781 5   -163738.07447  23464855.05147
 20  5 16  1 42  9.0000000  0  8G04G08G09G11G16G26G27G31            -0.000329746
  21336093.078 6   -660495.188 6   -491841.76248  21336092.34448
  20564796.914 7  -1093444.918 7   -829969.52749  20564797.43449
  22892090.266 6  -1062088.145 6   -795423.09449  22892091.05149
  23243092.859 6  -1594920.656 6  -1204564.34847  23243090.33647
  21420431.047 6   -479826.805 6   -359366.67648  21420428.28148
  22839571.859 5   -378160.191 5   -278457.79347  22839572.95347
  20026344.844 7   -641249.520 7   -475374.39549  20026344.84849
  23464677.023 5   -216338.316 5   -164468.61347  23464676.30547
 20  5 16  1 42 10.0000000  0  8G04G08G09G11G16G26G27G31            -0.000331905
  21335557.828 6   -663307.695 6   -494033.32448  21335557.02048
  20563870.742 7  -1098311.668 7   -833761.79749  20563871.30549
  22891195.625 6  -1066789.316 6   -799086.34049  22891196.47749
  23241797.664 6  -1601725.438 6  -1209866.77347  23241795.19947
  21420017.922 6   -481997.500 6   -361058.13348  21420015.18048
  22839251.352 5   -379842.801 5   -279768.91847  22839252.66847
  20025825.352 7   -643978.563 7   -477500.91849  20025825.59849
  23464498.930 5   -217275.695 5   -165199.04347  23464498.11747
 20  5 16  1 42 11.0000000  0  8G04G08G09G11G16G26G27G31            -0.000334070
  21335022.953 6   -666119.703 6   -496224.50448  21335022.00048
  20562944.680 7  -1103177.988 7   -837553.73449  20562945.55949
  22890301.141 6  -1071490.066 6   -802749.26249  22890301.75449
  23240502.516 6  -1608530.250 6  -1215169.23447  23240500.37947
  21419604.781 6   -484168.289 6   -362749.65248  21419602.22348
  22838930.602 5   -381525.535 5   -281080.14847  22838932.57847
  20025306.305 7   -646707.152 7   -479627.09849  20025306.56349
  23464320.359 5   -218212.930 5   -165929.35247  23464319.62147
 20  5 16  1 42 12.0000000  0  8G04G08G09G11G16G26G27G31            -0.000336229
  21334487.469 6   -668931.480 6   -498415.50048  21334486.71948
  20562018.820 7  -1108044.051 7   -841345.47349  20562019.29749
  22889406.898 5  -1076190.531 5   -806411.96149  22889407.42249
  23239208.133 6  -1615335.309 6  -1220471.87947  23239205.55147
  21419191.234 6   -486339.316 6   -364441.35948  21419189.04348
  22838610.875 5   -383208.641 5   -282391.66447  22838612.28147
  20024787.125 7   -649435.449 7   -481753.04749  20024787.34849
  23464141.586 5   -219150.223 5   -166659.71947  23464140.98047
 20  5 16  1 42 13.0000000  0  8G04G08G09G11G16G26G27G31            -0.000338394
  21333952.297 6   -671742.820 6   -500606.15648  21333951.80548
  20561092.867 7  -1112909.746 7   -845136.91849  20561093.23049
  22888512.508 5  -1080890.617 5   -810074.36349  22888512.94949
  23237912.813 6  -1622140.418 6  -1225774.55547  23237910.97347
  21418778.195 6   -488510.445 6   -366133.14848  21418775.71948
  22838289.922 5   -384891.840 5   -283703.25047  22838292.16047
  20024268.000 7   -652163.316 7   -483878.65249  20024268.13349
  23463964.094 5   -220087.422 5   -167390.00047  23463962.79747
 20  5 16  1 42 14.0000000  0  8G04G08G09G11G16G26G27G31            -0.000340553
  21333417.266 6   -674553.746 6   -502796.48848  21333417.12148
  20560166.836 7  -1117775.078 7   -848928.08649  20560167.66849
  22887617.844 5  -1085590.352 5   -813736.49649  22887618.53949
  23236617.445 6  -1628945.656 6  -1231077.32847  23236615.60247
  21418365.016 6   -490681.734 6   -367825.07048  21418362.64548
  22837969.516 5   -386575.301 5   -285015.03547  22837971.73847
  20023749.000 7   -654890.797 7   -486003.96149  20023749.07849
  23463785.539 5   -221024.566 5   -168120.25047  23463784.47347
 20  5 16  1 42 15.0000000  0  8G04G08G09G11G16G26G27G31            -0.000342718
  21332882.867 6   -677364.309 6   -504986.53948  21332881.87148
  20559241.336 7  -1122640.086 7   -852719.00449  20559241.69949
  22886723.398 5  -1090289.723 5   -817398.34449  22886724.12949
  23235322.969 6  -1635750.984 6  -1236380.18447  23235320.82047
  21417951.844 6   -492853.164 6   -369517.09448  21417949.44948
  22837649.219 5   -388258.906 5   -286326.93847  22837651.10247
  20023230.094 7   -657617.906 7   -488128.98049  20023230.24649
  23463607.047 5   -221961.645 5   -168850.43447  23463606.23047
 20  5 16  1 42 16.0000000  0  8G04G08G09G11G16G26G27G31            -0.000344879
  21332347.867 6   -680174.375 6   -507176.19948  21332347.26648
  20558315.344 7  -1127504.656 7   -856509.57849  20558316.39549
  22885829.750 5  -1094988.652 5   -821059.84049  22885830.14549
  23234028.258 6  -1642556.332 6  -1241683.05147  23234025.90247
  21417539.047 6   -495024.664 6   -371209.17648  21417536.21948
  22837328.813 5   -389942.723 5   -287639.00447  22837330.80147
  20022711.273 7   -660344.527 7   -490253.62549  20022711.45749
  23463428.664 5   -222898.563 5   -169580.49647  23463428.05947
 20  5 16  1 42 17.0000000  0  8G04G08G09G11G16G26G27G31            -0.000347042
  21331813.250 6   -682984.211 6   -509365.68048  21331813.00048
  20557389.820 7  -1132369.008 7   -860299.98049  20557390.37149
  22884935.195 5  -1099687.375 5   -824721.18849  22884935.80549
  23232733.094 6  -1649361.965 6  -1246986.14147  23232730.62147
  21417125.234 6   -497196.445 6   -372901.47348  21417122.60548
  22837008.555 5   -391626.847 5   -288951.31047  22837010.31647
  20022192.359 7   -663070.914 7   -492378.07849  20022192.44149
  23463250.727 5   -223835.578 5   -170310.63747  23463249.89847
 20  5 16  1 42 18.0000000  0  8G04G08G09G11G16G26G27G31            -0.000349203
  21331278.867 6   -685793.641 6   -511554.84848  21331278.67248
  20556464.094 7  -1137233.016 7   -864090.12149  20556464.74249
  22884041.773 5  -1104385.699 5   -828382.21149  22884042.02349
  23231437.484 6  -1656167.664 6  -1252289.28947  23231435.62147
  21416712.523 6   -499368.363 6   -374593.87148  21416710.03148
  22836687.695 5   -393311.149 5   -290263.75147  22836689.74247
  20021673.750 7   -665796.902 7   -494502.22349  20021673.76649
  23463071.789 5   -224772.520 5   -171040.72347  23463071.54347
 20  5 16  1 42 19.0000000  0  8G04G08G09G11G16G26G27G31            -0.000351368
  21330744.414 6   -688602.664 6   -513743.69548  21330743.83648
  20555538.695 7  -1142096.668 7   -867879.97349  20555539.49249
  22883147.570 5  -1109083.695 5   -832042.98049  22883147.94949
  23230142.898 6  -1662973.473 6  -1257592.52047  23230140.32447
  21416299.008 6   -501540.395 6   -376286.36348  21416296.20348
  22836367.094 5   -394995.703 5   -291576.38747  22836369.74647
  20021154.914 7   -668522.480 7   -496626.05149  20021155.21549
  23462893.883 5   -225709.391 5   -171770.75447  23462892.86747
 20  5 16  1 42 20.0000000  0  8G04G08G09G11G16G26G27G31            -0.000353529
  21330209.773 6   -691411.230 6   -515932.18848  21330208.98848
  20554613.469 7  -1146959.906 7   -871669.50849  20554613.96549
  22882253.805 6  -1113781.199 6   -835703.37949  22882254.15649
  23228847.938 6  -1669779.324 6  -1262895.78147  23228845.31347
  21415885.813 6   -503712.547 6   -377978.94148  21415882.99648
  22836046.930 5   -396680.346 5   -292889.09347  22836048.68447
  20020636.391 7   -671247.629 7   -498749.54349  20020636.06349
  23462715.695 5   -226646.133 5   -172500.68447  23462714.85247
 20  5 16  1 42 21.0000000  0  8G04G08G09G11G16G26G27G31            -0.000355694
  21329675.219 6   -694219.477 6   -518120.42648  21329674.97748
  20553687.820 7  -1151822.895 7   -875458.85549  20553688.43849
  22881360.141 6  -1118478.512 6   -839363.62149  22881360.23049
  23227552.906 6  -1676585.352 6  -1268199.16847  23227550.38347
  21415471.820 6   -505884.887 6   -379671.67648  21415469.14548
  22835726.055 5   -398365.324 5   -294202.07447  22835728.11747
  20020118.234 7   -673972.449 7   -500872.77749  20020118.41449
  23462537.039 5   -227582.914 5   -173230.64847  23462536.53147
 20  5 16  1 42 22.0000000  0  8G04G08G09G11G16G26G27G31            -0.000357857
  21329140.828 6   -697027.336 6   -520308.37548  21329140.33248
  20552762.727 7  -1156685.520 7   -879247.90649  20552763.16849
  22880466.164 5  -1123175.375 5   -843023.52049  22880466.41449
  23226257.430 6  -1683391.484 6  -1273502.65647  23226255.35547
  21415058.898 6   -508057.371 6   -381364.52348  21415056.34448
  22835405.711 5   -400050.500 5   -295515.19547  22835407.81647
  20019599.477 7   -676696.875 7   -502995.70349  20019599.46549
  23462358.813 5   -228519.586 5   -173960.52747  23462358.46947
 20  5 16  1 42 23.0000000  0  8G04G08G09G11G16G26G27G31            -0.000360022
  21328606.703 6   -699834.641 6   -522495.88348  21328606.11748
  20551837.477 7  -1161547.652 7   -883036.58249  20551838.22749
  22879572.789 5  -1127871.766 5   -846683.05149  22879572.82449
  23224962.039 6  -1690197.566 6  -1278806.10247  23224959.74247
  21414645.281 6   -510229.840 6   -383057.35948  21414642.49648
  22835085.070 5   -401735.699 5   -296828.33647  22835086.76247
  20019081.117 7   -679420.762 7   -505118.21949  20019081.25849
  23462180.594 5   -229456.066 5   -174690.24647  23462179.91447
 20  5 16  1 42 24.0000000  0  8G04G08G09G11G16G26G27G31            -0.000362183
  21328072.859 6   -702641.605 6   -524683.12948  21328072.04748
  20550912.141 7  -1166409.453 7   -886825.00049  20550912.86749
  22878678.703 5  -1132567.844 5   -850342.33649  22878679.08649
  23223666.492 6  -1697003.793 6  -1284109.65247  23223664.87147
  21414231.883 6   -512402.516 6   -384750.35548  21414229.37948
  22834764.281 5   -403421.164 5   -298141.68847  22834766.23447
  20018562.703 7   -682144.309 7   -507240.46549  20018562.92249
  23462002.688 5   -230392.520 5   -175419.95347  23462001.92247
 20  5 16  1 42 25.0000000  0  8G04G08G09G11G16G26G27G31            -0.000364347
  21327538.742 6   -705448.117 6   -526870.02348  21327538.12948
  20549987.188 7  -1171270.840 7   -890613.09449  20549987.78149
  22877784.961 5  -1137263.496 5   -854001.28949  22877785.48449
  23222371.797 6  -1703810.090 6  -1289413.25847  23222369.80947
  21413818.539 6   -514575.238 6   -386443.39548  21413816.16448
  22834443.602 5   -405106.793 5   -299455.16847  22834445.05147
  20018044.523 7   -684867.398 7   -509362.35549  20018045.06349
  23461824.563 5   -231328.863 5   -176149.58247  23461823.86347
 20  5 16  1 42 26.0000000  0  8G04G08G09G11G16G26G27G31            -0.000366510
  21327004.508 6   -708254.250 6   -529056.62148  21327003.94948
  20549062.016 7  -1176131.922 7   -894400.95749  20549062.65649
  22876891.914 6  -1141958.816 6   -857659.98049  22876892.14149
  23221076.508 6  -1710616.461 6  -1294716.92247  23221074.43447
  21413404.969 6   -516748.188 6   -388136.60248  21413402.33648
  22834122.875 5   -406792.598 5   -300768.78147  22834124.13747
  20017526.492 7   -687590.133 7   -511483.96549  20017526.55949
  23461646.227 5   -232265.156 5   -176879.16447  23461645.59847
 20  5 16  1 42 27.0000000  0  8G04G08G09G11G16G26G27G31            -0.000368675
  21326470.633 6   -711059.941 6   -531242.87948  21326470.20348
  20548136.945 7  -1180992.586 7   -898188.48849  20548137.40649
  22875998.563 6  -1146653.680 6   -861318.31649  22875998.81349
  23219781.391 6  -1717422.898 6  -1300020.63747  23219779.28947
  21412991.672 6   -518921.176 6   -389829.83648  21412988.93848
  22833801.758 5   -408478.609 5   -302082.55947  22833803.55547
  20017008.656 7   -690312.398 7   -513605.20749  20017008.78949
  23461468.391 5   -233201.344 5   -177608.65647  23461467.69947
 20  5 16  1 42 28.0000000  0  8G04G08G09G11G16G26G27G31            -0.000370838
  21325936.445 6   -713865.223 6   -533428.80548  21325936.14548
  20547212.250 7  -1185852.898 7   -901975.74249  20547212.53949
  22875105.242 6  -1151348.199 6   -864976.38749  22875105.34449
  23218486.117 6  -1724229.453 6  -1305324.44547  23218484.19147
  21412577.773 6   -521094.324 6   -391523.19948  21412575.20348
  22833480.852 5   -410164.801 5   -303396.47747  22833482.36347
  20016490.484 7   -693034.281 7   -515726.15649  20016490.62549
  23461289.953 5   -234137.438 5   -178338.08647  23461289.45347
 20  5 16  1 42 29.0000000  0  8G04G08G09G11G16G26G27G31            -0.000373003
  21325403.078 6   -716670.219 6   -535614.52048  21325402.53548
  20546287.297 7  -1190712.949 7   -905762.79749  20546287.89149
  22874211.945 5  -1156042.453 5   -868634.24649  22874212.00049
  23217191.250 6  -1731036.188 6  -1310628.39847  23217189.02347
  21412164.430 6   -523267.680 6   -393216.72348  21412161.62548
  22833160.117 5   -411851.266 5   -304710.60247  22833161.93847
  20015972.820 7   -695755.867 7   -517846.87549  20015972.86349
  23461112.109 5   -235073.566 5   -179067.53547  23461111.04347
 20  5 16  1 42 30.0000000  0  8G04G08G09G11G16G26G27G31            -0.000375166
  21324869.336 6   -719474.969 6   -537800.04348  21324868.73848
  20545362.273 7  -1195572.801 7   -909549.69149  20545363.04749
  22873318.375 5  -1160736.496 5   -872291.93849  22873318.67249
  23215895.758 6  -1737843.180 6  -1315932.54347  23215893.90247
  21411750.500 6   -525441.359 6   -394910.50448  21411747.98048
  22832839.023 5   -413538.145 5   -306025.05547  22832841.09447
  20015454.867 7   -698477.215 7   -519967.40249  20015455.05949
  23460934.102 5   -236009.813 5   -179797.08647  23460932.66047
 20  5 16  1 42 31.0000000  0  8G04G08G09G11G16G26G27G31            -0.000377333
  21324335.570 6   -722279.141 6   -539985.11348  21324334.62948
  20544437.688 7  -1200432.160 7   -913336.20349  20544438.32049
  22872424.938 6  -1165429.996 6   -875949.20749  22872425.37949
  23214600.586 6  -1744650.105 6  -1321236.64147  23214598.81347
  21411336.938 6   -527615.000 6   -396604.24648  21411334.46548
  22832518.039 5   -415225.016 5   -307339.49647  22832519.67247
  20014937.063 7   -701198.004 7   -522087.50449  20014937.45349
  23460756.242 5   -236945.801 5   -180526.42647  23460754.62147
 20  5 16  1 42 32.0000000  0  8G04G08G09G11G16G26G27G31            -0.000379494
  21323801.852 6   -725083.004 6   -542169.94148  21323801.62148
  20543513.125 7  -1205291.223 7   -917122.48449  20543513.86349
  22871531.961 5  -1170123.242 5   -879606.28549  22871532.42649
  23213304.758 6  -1751457.199 6  -1326540.86747  23213302.93447
  21410923.516 6   -529788.859 6   -398298.15648  21410921.08248
  22832197.219 5   -416912.168 5   -308654.16047  22832198.51247
  20014419.289 7   -703918.465 7   -524207.33649  20014419.43449
  23460577.914 5   -237881.805 5   -181255.78147  23460576.39547
 20  5 16  1 42 33.0000000  0  8G04G08G09G11G16G26G27G31            -0.000381660
  21323268.922 6   -727886.477 6   -544354.46148  21323267.94948
  20542588.719 7  -1210149.926 7   -920908.48449  20542589.03149
  22870638.719 6  -1174816.098 6   -883263.04749  22870639.59849
  23212009.602 6  -1758264.438 6  -1331845.20347  23212007.58647
  21410509.867 6   -531962.875 6   -399992.19148  21410507.38748
  22831875.914 5   -418599.559 5   -309969.00447  22831877.66847
  20013901.461 7   -706638.563 7   -526326.89149  20013901.62949
  23460399.617 5   -238817.750 5   -181985.09447  23460398.23047
 20  5 16  1 42 34.0000000  0  8G04G08G09G11G16G26G27G31            -0.000383823
  21322735.359 6   -730689.578 6   -546538.69548  21322734.67648
  20541664.336 7  -1215008.305 7   -924694.23049  20541664.68849
  22869746.063 5  -1179508.625 5   -886919.56349  22869746.86349
  23210714.078 6  -1765071.742 6  -1337149.59447  23210712.19947
  21410096.102 6   -534137.004 6   -401686.32048  21410093.48048
  22831554.680 5   -420287.125 5   -311283.99647  22831556.61747
  20013384.094 7   -709358.262 7   -528446.13749  20013384.52049
  23460221.469 5   -239753.656 5   -182714.37547  23460220.44947
 20  5 16  1 42 35.0000000  0  8G04G08G09G11G16G26G27G31            -0.000385990
  21322201.922 6   -733492.344 6   -548722.66448  21322201.46948
  20540739.672 7  -1219866.418 7   -928479.78149  20540740.30549
  22868853.547 6  -1184200.836 6   -890575.83249  22868854.01249
  23209418.836 6  -1771879.250 6  -1342454.15247  23209416.93447
  21409681.898 6   -536311.387 6   -403380.64548  21409679.91448
  22831233.547 5   -421974.992 5   -312599.22747  22831235.39547
  20012866.727 7   -712077.645 7   -530565.14149  20012866.91849
  23460043.422 5   -240689.555 5   -183443.65247  23460042.28947
 20  5 16  1 42 36.0000000  0  8G04G08G09G11G16G26G27G31            -0.000388153
  21321668.375 6   -736294.598 6   -550906.24648  21321667.89848
  20539815.336 7  -1224724.043 7   -932264.93849  20539815.56349
  22867960.563 5  -1188892.570 5   -894231.73049  22867960.59449
  23208123.148 6  -1778686.727 6  -1347758.68447  23208121.66047
  21409268.797 6   -538485.758 6   -405074.96548  21409265.77048
  22830912.063 5   -423662.965 5   -313914.52347  22830913.98847
  20012349.500 7   -714796.527 7   -532683.75049  20012349.62549
  23459865.000 5   -241625.262 5   -184172.77047  23459864.07847
 20  5 16  1 42 37.0000000  0  8G04G08G09G11G16G26G27G31            -0.000390322
  21321135.172 6   -739096.473 6   -553089.53148  21321134.73048
  20538890.977 7  -1229581.340 7   -936049.85249  20538891.31349
  22867068.141 6  -1193583.953 6   -897887.35549  22867067.79349
  23206827.688 6  -1785494.309 6  -1353063.29347  23206825.87547
  21408854.547 6   -540660.328 6   -406769.44548  21408852.07048
  22830591.188 5   -425351.152 5   -315229.99247  22830593.03947
  20011832.234 7   -717515.020 7   -534802.05949  20011832.19549
  23459687.297 5   -242560.922 5   -184901.85547  23459686.45747
 20  5 16  1 42 38.0000000  0  8G04G08G09G11G16G26G27G31            -0.000392485
  21320602.406 6   -741898.207 6   -555272.69148  21320601.61348
  20537966.750 7  -1234438.539 7   -939834.68049  20537967.21549
  22866175.422 6  -1198275.215 6   -901542.88349  22866175.75049
  23205532.289 6  -1792302.266 6  -1358368.19147  23205530.69547
  21408440.961 6   -542835.258 6   -408464.19148  21408438.61348
  22830269.906 5   -427039.742 5   -316545.78147  22830271.59047
  20011314.844 7   -720233.387 7   -536920.26649  20011315.16049
  23459508.992 5   -243496.770 5   -185631.08647  23459508.30947
 20  5 16  1 42 39.0000000  0  8G04G08G09G11G16G26G27G31            -0.000394651
  21320068.938 6   -744699.500 6   -557455.52048  21320068.37148
  20537042.469 7  -1239295.340 7   -943619.20349  20537043.23049
  22865282.414 5  -1202966.133 5   -905198.14149  22865282.90249
  23204236.992 6  -1799110.277 6  -1363673.13347  23204235.44947
  21408026.953 6   -545010.301 6   -410159.02048  21408024.44148
  22829948.102 5   -428728.539 5   -317861.72747  22829950.05147
  20010797.625 7   -722951.313 7   -539038.12949  20010797.77349
  23459330.750 5   -244432.527 5   -186360.24647  23459330.23847
 20  5 16  1 42 40.0000000  0  8G04G08G09G11G16G26G27G31            -0.000396816
  21319536.469 6   -747500.340 6   -559637.99248  21319535.77048
  20536118.320 7  -1244151.723 7   -947403.39149  20536118.91049
  22864389.734 6  -1207656.563 6   -908853.02349  22864390.09449
  23202941.539 6  -1805918.313 6  -1368978.09447  23202939.25447
  21407612.953 6   -547185.402 6   -411853.90248  21407610.36748
  22829626.969 5   -430417.457 5   -319177.76647  22829628.47347
  20010280.453 7   -725668.797 7   -541155.64849  20010280.80149
  23459152.867 5   -245368.125 5   -187089.28947  23459151.83247
 20  5 16  1 42 41.0000000  0  8G04G08G09G11G16G26G27G31            -0.000398983
  21319003.492 6   -750300.719 6   -561820.11348  21319002.60948
  20535194.359 7  -1249007.684 7   -951187.26249  20535195.01249
  22863497.422 6  -1212346.582 6   -912507.58249  22863497.56349
  23201645.805 6  -1812726.371 6  -1374283.06647  23201644.03547
  21407199.219 6   -549360.586 6   -413548.85248  21407196.47348
  22829305.305 5   -432106.555 5   -320493.94547  22829307.41447
  20009763.352 7   -728385.809 7   -543272.79749  20009763.67249
  23458974.836 5   -246303.613 5   -187818.24647  23458974.23447
 20  5 16  1 42 42.0000000  0  8G04G08G09G11G16G26G27G31            -0.000401148
  21318470.633 6   -753100.813 6   -564002.00448  21318470.13748
  20534270.352 7  -1253863.395 7   -954970.92649  20534270.98049
  22862604.773 6  -1217036.324 6   -916161.93049  22862604.96949
  23200350.344 6  -1819534.648 6  -1379588.21547  23200348.78547
  21406785.078 6   -551536.031 6   -415244.00048  21406782.69148
  22828984.383 5   -433795.918 5   -321810.33247  22828985.89847
  20009246.688 7   -731102.531 7   -545389.72349  20009246.75449
  23458796.891 5   -247239.125 5   -188547.21947  23458795.94947
 20  5 16  1 42 43.0000000  0  8G04G08G09G11G16G26G27G31            -0.000403316
  21317938.117 6   -755900.527 6   -566183.60248  21317936.98848
  20533345.992 7  -1258718.797 7   -958754.35549  20533346.86349
  22861712.375 6  -1221725.738 6   -919816.01649  22861712.55949
  23199054.703 6  -1826343.078 6  -1384893.47747  23199053.07447
  21406371.328 6   -553711.637 6   -416939.28548  21406368.48848
  22828663.133 5   -435485.535 5   -323126.92647  22828664.26247
  20008729.570 7   -733818.914 7   -547506.39149  20008729.62549
  23458618.844 5   -248174.629 5   -189276.18847  23458618.29747
 20  5 16  1 42 44.0000000  0  8G04G08G09G11G16G26G27G31            -0.000405479
  21317405.234 6   -758699.789 6   -568364.84448  21317404.79748
  20532422.414 7  -1263573.762 7   -962537.44949  20532422.77749
  22860820.547 6  -1226414.703 6   -923469.75849  22860820.54349
  23197759.047 6  -1833151.512 6  -1390198.75447  23197757.78947
  21405957.273 6   -555887.305 6   -418634.60548  21405954.42248
  22828340.797 5   -437175.262 5   -324443.60247  22828342.45747
  20008212.477 7   -736534.832 7   -549622.69149  20008212.88749
  23458441.156 5   -249109.988 5   -190005.03547  23458440.03147
 20  5 16  1 42 45.0000000  0  8G04G08G09G11G16G26G27G31            -0.000407648
  21316872.422 6   -761498.773 6   -570545.86348  21316871.78548
  20531498.531 7  -1268428.484 7   -966320.34849  20531499.19149
  22859928.203 6  -1231103.461 6   -927123.33249  22859928.13349
  23196463.469 6  -1839960.184 6  -1395504.21147  23196461.94547
  21405543.078 6   -558063.234 6   -420330.13748  21405540.60248
  22828019.914 5   -438865.309 5   -325760.51647  22828020.80947
  20007695.727 7   -739250.457 7   -551738.75449  20007696.07449
  23458262.781 5   -250045.395 5   -190733.93047  23458261.94947
 20  5 16  1 42 46.0000000  0  8G04G08G09G11G16G26G27G31            -0.000409813
  21316339.719 6   -764297.457 6   -572726.65648  21316339.20748
  20530574.766 7  -1273282.949 7   -970103.04749  20530575.46149
  22859036.023 6  -1235791.934 6   -930776.68449  22859036.14849
  23195166.813 6  -1846769.027 6  -1400809.80547  23195166.07447
  21405129.016 6   -560239.410 6   -422025.85948  21405126.64548
  22827697.531 5   -440555.695 5   -327077.71147  22827699.51247
  20007179.313 7   -741965.777 7   -553854.59449  20007179.60249
  23458084.516 5   -250980.832 5   -191462.84447  23458083.97747
 20  5 16  1 42 47.0000000  0  8G04G08G09G11G16G26G27G31            -0.000411982
  21315807.563 6   -767095.668 6   -574907.07848  21315806.69148
  20529651.438 7  -1278137.012 7   -973885.44149  20529651.72749
  22858143.961 6  -1240479.992 6   -934429.71949  22858143.97349
  23193871.992 6  -1853577.930 6  -1406115.44547  23193870.44147
  21404714.695 6   -562415.672 6   -423721.64848  21404712.10548
  22827375.789 5   -442246.199 5   -328394.98047  22827377.48847
  20006662.938 7   -744680.668 7   -555970.09049  20006662.78549
  23457906.898 5   -251916.125 5   -192191.65247  23457905.81347
 20  5 16  1 42 48.0000000  0  8G04G08G09G11G16G26G27G31            -0.000414146
  21315275.195 6   -769893.469 6   -577087.18848  21315274.30548
  20528727.750 7  -1282990.688 7   -977667.52049  20528728.35949
  22857251.617 6  -1245167.609 6   -938082.41049  22857251.98449
  23192576.273 6  -1860386.898 6  -1411421.12947  23192574.70747
  21404300.539 6   -564592.035 6   -425417.51648  21404297.86748
  22827054.117 5   -443936.891 5   -329712.41047  22827056.18447
  20006146.219 7   -747395.145 7   -558085.27349  20006145.99649
  23457729.156 5   -252851.359 5   -192920.40647  23457727.91447
 20  5 16  1 42 49.0000000  0  8G04G08G09G11G16G26G27G31            -0.000416315
  21314742.945 6   -772690.793 6   -579266.92248  21314741.94148
  20527803.820 7  -1287843.914 7   -981449.25849  20527804.52349
  22856359.688 6  -1249854.813 6   -941734.77749  22856360.15649
  23191280.359 6  -1867195.891 6  -1416726.83247  23191278.97347
  21403886.266 6   -566768.426 6   -427113.40248  21403883.95748
  22826732.055 5   -445627.676 5   -331029.90247  22826734.41447
  20005629.430 7   -750109.137 7   -560200.06649  20005629.65249
  23457551.023 5   -253786.430 5   -193649.03547  23457550.39547
 20  5 16  1 42 50.0000000  0  8G04G08G09G11G16G26G27G31            -0.000418480
  21314210.203 6   -775487.781 6   -581446.39148  21314209.59848
  20526880.430 7  -1292696.859 7   -985230.77049  20526881.15249
  22855467.844 6  -1254541.719 6   -945386.91449  22855467.97749
  23189984.602 6  -1874005.016 6  -1422032.64547  23189983.38347
  21403472.250 6   -568945.082 6   -428809.50448  21403469.87548
  22826410.680 5   -447318.742 5   -332347.61747  22826412.32047
  20005113.219 7   -752822.805 7   -562314.60949  20005113.49649
  23457373.203 5   -254721.484 5   -194377.65647  23457372.27047
 20  5 16  1 42 51.0000000  0  8G04G08G09G11G16G26G27G31            -0.000420649
  21313678.156 6   -778284.484 6   -583625.64548  21313677.80948
  20525957.023 7  -1297549.574 7   -989012.11349  20525957.74249
  22854575.992 6  -1259228.344 6   -949038.83249  22854576.34849
  23188689.008 6  -1880814.367 6  -1427338.63347  23188687.31347
  21403058.047 6   -571121.938 6   -430505.75048  21403055.60948
  22826088.938 5   -449010.152 5   -333665.60247  22826090.64147
  20004596.727 7   -755536.180 7   -564428.93049  20004596.39549
  23457194.930 5   -255656.598 5   -195106.31347  23457193.93447
 20  5 16  1 42 52.0000000  0  8G04G08G09G11G16G26G27G31            -0.000422815
  21313146.383 6   -781080.930 6   -585804.68848  21313145.42248
  20525033.555 7  -1302402.055 7   -992793.27049  20525034.22349
  22853684.367 6  -1263914.762 6   -952690.58249  22853684.56649
  23187392.727 6  -1887623.934 6  -1432644.78147  23187391.23847
  21402643.781 6   -573299.086 6   -432202.23448  21402641.40248
  22825766.727 5   -450701.836 5   -334983.79747  22825768.76647
  20004080.398 7   -758249.281 7   -566543.03549  20004080.87549
  23457017.070 5   -256591.734 5   -195834.98847  23457016.13347
 20  5 16  1 42 53.0000000  0  8G04G08G09G11G16G26G27G31            -0.000424984
  21312614.313 6   -783876.918 6   -587983.38348  21312613.58648
  20524110.438 7  -1307254.137 7   -996574.10549  20524110.89849
  22852791.969 6  -1268600.754 6   -956342.01249  22852792.89849
  23186097.016 6  -1894433.582 6  -1437951.00447  23186095.39147
  21402229.313 6   -575476.305 6   -433898.76248  21402227.09448
  22825445.156 5   -452393.711 5   -336302.13347  22825446.90247
  20003564.320 7   -760961.965 7   -568656.81649  20003564.39849
  23456839.109 5   -257526.813 5   -196563.62547  23456838.14847
 20  5 16  1 42 54.0000000  0  8G04G08G09G11G16G26G27G31            -0.000427151
  21312082.258 6   -786672.461 6   -590161.73048  21312081.74648
  20523187.266 7  -1312105.816 7  -1000354.63749  20523187.77749
  22851900.758 6  -1273286.301 6   -959993.08249  22851900.89849
  23184801.461 6  -1901243.234 6  -1443257.21947  23184799.72347
  21401815.484 6   -577653.633 6   -435595.37948  21401812.34848
  22825122.914 5   -454085.758 5   -337620.60947  22825124.90647
  20003048.453 7   -763674.215 7   -570770.25849  20003048.39849
  23456661.227 5   -258461.742 5   -197292.13747  23456660.18847
 20  5 16  1 42 55.0000000  0  8G04G08G09G11G16G26G27G31            -0.000429319
  21311550.070 6   -789467.633 6   -592339.78548  21311549.44948
  20522263.961 7  -1316957.148 7  -1004134.89849  20522264.49649
  22851008.992 6  -1277971.559 6   -963643.93849  22851009.87149
  23183505.758 6  -1908053.012 6  -1448563.53947  23183503.80147
  21401400.578 6   -579831.125 6   -437292.13348  21401398.02348
  22824800.672 5   -455777.980 5   -338939.23047  22824802.63747
  20002532.328 7   -766386.078 7   -572883.39849  20002532.21949
  23456483.602 5   -259396.656 5   -198020.64847  23456482.03147
 20  5 16  1 42 56.0000000  0  8G04G08G09G11G16G26G27G31            -0.000431486
  21311018.359 6   -792262.465 6   -594517.57848  21311017.72748
  20521340.617 7  -1321808.152 7  -1007914.89849  20521341.11749
  22850117.234 6  -1282656.430 6   -967294.48049  22850117.96149
  23182209.008 6  -1914862.957 6  -1453869.98047  23182207.82047
  21400986.508 6   -582008.789 6   -438989.00848  21400983.77048
  22824478.289 5   -457470.461 5   -340258.05547  22824481.04747
  20002016.297 7   -769097.582 7   -574996.25849  20002016.19149
  23456305.805 5   -260331.523 5   -198749.10947  23456304.11747
 20  5 16  1 42 57.0000000  0  8G04G08G09G11G16G26G27G31            -0.000433657
  21310486.375 6   -795056.840 6   -596695.01248  21310485.82048
  20520417.641 7  -1326658.754 7  -1011694.58649  20520418.33649
  22849226.313 6  -1287340.930 6   -970944.72749  22849226.71149
  23180913.641 6  -1921672.922 6  -1459176.44147  23180912.02747
  21400571.992 6   -584186.516 6   -440685.93448  21400569.43048
  22824156.500 5   -459163.109 5   -341577.00447  22824158.55147
  20001500.117 7   -771808.664 7   -577108.78949  20001500.21549
  23456128.055 5   -261266.289 5   -199477.50047  23456126.60247
 20  5 16  1 42 58.0000000  0  8G04G08G09G11G16G26G27G31            -0.000435822
  21309954.914 6   -797850.660 6   -598872.02048  21309954.35548
  20519495.047 7  -1331508.867 7  -1015473.89549  20519495.42649
  22848335.031 6  -1292024.918 6   -974594.59849  22848335.69949
  23179618.172 6  -1928482.855 6  -1464482.88747  23179616.40647
  21400157.297 6   -586364.293 6   -442382.90248  21400154.99648
  22823834.555 5   -460855.766 5   -342895.96147  22823836.15247
  20000984.586 7   -774519.207 7   -579220.90249  20000984.76249
  23455950.328 5   -262200.820 5   -200205.71547  23455948.48847
 20  5 16  1 42 59.0000000  0  8G04G08G09G11G16G26G27G31            -0.000437992
  21309423.633 6   -800644.145 6   -601048.76248  21309422.83248
  20518571.930 7  -1336358.656 7  -1019252.95749  20518572.62149
  22847443.828 6  -1296708.535 6   -978244.16849  22847443.85549
  23178321.789 6  -1935292.926 6  -1469789.43847  23178320.31647
  21399742.523 6   -588542.219 6   -444079.98848  21399740.56648
  22823513.070 5   -462548.727 5   -344215.14847  22823514.20747
  20000468.656 7   -777229.387 7   -581332.73049  20000468.98849
  23455772.789 5   -263135.352 5   -200933.92647  23455771.06647
 20  5 16  1 43  0.0000000  0  8G04G08G09G11G16G26G27G31            -0.000440159
  21308891.859 6   -803437.234 6   -603225.19948  21308891.07048
  20517648.875 7  -1341208.113 7  -1023031.75849  20517649.64549
  22846552.641 6  -1301391.820 6   -981893.48449  22846552.78949
  23177025.375 6  -1942103.086 6  -1475096.06347  23177024.64847
  21399328.578 6   -590720.293 6   -445777.19548  21399326.19948
  22823190.477 5   -464241.879 5   -345534.49247  22823192.16847
  19999952.742 7   -779939.180 7   -583444.25849  19999953.09449
  23455594.547 5   -264069.805 5   -201662.07047  23455592.99647
 20  5 16  1 43  1.0000000  0  8G04G08G09G11G16G26G27G31            -0.000442329
  21308360.234 6   -806229.910 6   -605401.30548  21308359.64148
  20516725.930 7  -1346057.191 7  -1026810.26249  20516726.85549
  22845661.672 6  -1306074.719 6   -985542.50049  22845661.51649
  23175730.047 6  -1948913.352 6  -1480402.76247  23175728.24647
  21398913.867 6   -592898.477 6   -447474.48448  21398911.31348
  22822868.109 5   -465935.207 5   -346853.97347  22822870.13747
  19999437.477 7   -782648.563 7   -585555.46149  19999437.93449
  23455416.859 5   -265004.180 5   -202390.14847  23455415.30147
 20  5 16  1 43  2.0000000  0  8G04G08G09G11G16G26G27G31            -0.000444496
  21307829.094 6   -809022.145 6   -607577.07048  21307828.37548
  20515803.484 7  -1350905.887 7  -1030588.46949  20515804.34449
  22844770.164 6  -1310757.242 6   -989191.22349  22844770.75049
  23174433.680 6  -1955723.668 6  -1485709.50047  23174432.31647
  21398499.414 6   -595076.781 6   -449171.86748  21398497.29748
  22822546.305 5   -467628.723 5   -348173.59447  22822547.51247
  19998922.008 7   -785357.543 7   -587666.35949  19998922.21149
  23455239.102 5   -265938.457 5   -203118.16447  23455237.52347
 20  5 16  1 43  3.0000000  0  8G04G08G09G11G16G26G27G31            -0.000446667
  21307298.125 6   -811813.977 6   -609752.52348  21307297.41048
  20514881.094 7  -1355754.207 7  -1034366.37549  20514881.51649
  22843879.445 6  -1315439.367 6   -992839.63349  22843879.92249
  23173138.117 6  -1962534.047 6  -1491016.28147  23173136.04347
  21398084.961 6   -597255.199 6   -450869.33648  21398082.50848
  22822223.930 5   -469322.395 5   -349493.34047  22822225.50847
  19998406.508 7   -788066.098 7   -589776.91849  19998406.77049
  23455061.500 5   -266872.645 5   -203846.10547  23455059.58247
 20  5 16  1 43  4.0000000  0  8G04G08G09G11G16G26G27G31            -0.000448833
  21306766.758 6   -814605.445 6   -611927.69548  21306766.15248
  20513958.648 7  -1360602.176 7  -1038144.00849  20513958.69949
  22842988.813 6  -1320121.137 6   -996487.76249  22842989.11349
  23171842.117 6  -1969344.551 6  -1496323.16447  23171840.11347
  21397670.500 6   -599433.773 6   -452566.92248  21397668.02048
  22821901.266 5   -471016.321 5   -350813.28047  22821903.02747
  19997891.148 7   -790774.270 7   -591887.18449  19997891.22749
  23454883.539 5   -267806.758 5   -204573.98847  23454882.12147
 20  5 16  1 43  5.0000000  0  8G04G08G09G11G16G26G27G31            -0.000451004
  21306235.883 6   -817396.531 6   -614102.57448  21306235.00448
  20513035.906 7  -1365449.852 7  -1041921.41849  20513036.64149
  22842097.453 6  -1324802.523 6  -1000135.59849  22842098.12949
  23170546.297 6  -1976155.172 6  -1501630.14147  23170544.07847
  21397255.984 6   -601612.512 6   -454264.64148  21397253.27348
  22821578.977 5   -472710.426 5   -352133.36347  22821580.84447
  19997375.781 7   -793482.098 7   -593997.18049  19997376.14849
  23454705.797 5   -268740.871 5   -205301.87547  23454704.61347
 20  5 16  1 43  6.0000000  0  8G04G08G09G11G16G26G27G31            -0.000453171
  21305704.609 6   -820187.176 6   -616277.09848  21305703.89548
  20512113.453 7  -1370297.082 7  -1045698.48449  20512114.33649
  22841206.922 6  -1329483.543 6  -1003783.14849  22841207.42249
  23169249.789 6  -1982965.824 6  -1506937.13747  23169248.46947
  21396841.414 6   -603791.324 6   -455962.41448  21396838.35248
  22821256.359 5   -474404.707 5   -353453.58647  22821258.35547
  19996860.703 7   -796189.461 7   -596106.81649  19996860.94149
  23454527.641 5   -269674.832 5   -206029.64147  23454526.25047
 20  5 16  1 43  7.0000000  0  8G04G08G09G11G16G26G27G31            -0.000455343
  21305173.148 6   -822977.504 6   -618451.38348  21305172.72748
  20511191.516 7  -1375144.051 7  -1049475.34049  20511191.87549
  22840315.969 5  -1334164.273 5  -1007430.46949  22840316.72749
  23167953.977 6  -1989776.688 6  -1512244.30547  23167952.07447
  21396426.563 6   -605970.375 6   -457660.37948  21396424.12948
  22820934.141 5   -476099.262 5   -354774.01647  22820935.83247
  19996345.781 7   -798896.512 7   -598216.20349  19996345.75049
  23454350.094 5   -270608.820 5   -206757.42247  23454348.77347
 20  5 16  1 43  8.0000000  0  8G04G08G09G11G16G26G27G31            -0.000457510
  21304642.383 6   -825767.340 6   -620625.28148  21304641.72348
  20510269.102 7  -1379990.609 7  -1053251.87549  20510269.39149
  22839425.055 5  -1338844.555 5  -1011077.44149  22839426.15649
  23166658.016 6  -1996587.531 6  -1517551.45347  23166655.78547
  21396011.805 6   -608149.496 6   -459358.39848  21396009.17648
  22820611.633 5   -477793.984 5   -356094.57847  22820613.50447
  19995830.406 7   -801603.129 7   -600325.25049  19995830.71549
  23454172.750 5   -271542.703 5   -207485.12947  23454170.98047
 20  5 16  1 43  9.0000000  0  8G04G08G09G11G16G26G27G31            -0.000459681
  21304112.297 6   -828556.883 6   -622798.94948  21304111.03548
  20509346.578 7  -1384836.871 7  -1057028.18449  20509347.61349
  22838534.469 5  -1343524.535 5  -1014724.17649  22838535.47749
  23165361.586 6  -2003398.578 6  -1522858.76647  23165359.72347
  21395597.195 6   -610328.840 6   -461056.58248  21395594.54348
  22820288.883 5   -479488.953 5   -357415.33647  22820290.44547
  19995315.594 7   -804309.391 7   -602434.02349  19995315.57849
  23453995.055 5   -272476.555 5   -208212.80947  23453993.61747
 20  5 16  1 43 10.0000000  0  8G04G08G09G11G16G26G27G31            -0.000461849
  21303581.094 6   -831346.004 6   -624972.28548  21303580.28548
  20508424.578 7  -1389682.777 7  -1060804.21149  20508425.04749
  22837644.242 5  -1348204.176 5  -1018370.64549  22837644.81349
  23164065.570 6  -2010209.684 6  -1528166.12147  23164063.83647
  21395182.188 6   -612508.277 6   -462754.84448  21395179.73448
  22819966.531 5   -481184.121 5   -358736.25447  22819968.39147
  19994800.492 7   -807015.270 7   -604542.50449  19994800.74249
  23453817.133 5   -273410.332 5   -208940.43047  23453815.39847
 20  5 16  1 43 11.0000000  0  8G04G08G09G11G16G26G27G31            -0.000464022
  21303050.586 6   -834134.773 6   -627145.35548  21303049.43048
  20507502.484 7  -1394528.367 7  -1064579.99649  20507503.23049
  22836754.141 5  -1352883.461 5  -1022016.84049  22836754.43049
  23162769.742 6  -2017020.973 6  -1533473.60247  23162767.84847
  21394767.797 6   -614687.938 6   -464453.28948  21394765.04748
  22819643.695 5   -482879.527 5   -360057.34447  22819645.65247
  19994285.781 7   -809720.793 7   -606650.70749  19994285.94549
  23453639.586 5   -274344.117 5   -209668.05947  23453638.27047
 20  5 16  1 43 12.0000000  0  8G04G08G09G11G16G26G27G31            -0.000466188
  21302519.789 6   -836923.273 6   -629318.21548  21302519.07048
  20506580.609 7  -1399373.695 7  -1068355.57849  20506581.15249
  22835863.539 6  -1357562.438 6  -1025662.79749  22835864.21549
  23161473.563 6  -2023832.387 6  -1538781.19547  23161471.64847
  21394352.945 6   -616867.809 6   -466151.88748  21394350.45348
  22819321.133 5   -484575.215 5   -361378.66847  22819323.28147
  19993771.164 7   -812426.039 7   -608758.69549  19993771.15649
  23453461.922 5   -275277.895 5   -210395.67647  23453460.39147
 20  5 16  1 43 13.0000000  0  8G04G08G09G11G16G26G27G31            -0.000468361
  21301989.031 6   -839711.309 6   -631490.71148  21301988.50048
  20505658.383 7  -1404218.641 7  -1072130.86349  20505659.02749
  22834973.539 5  -1362241.059 5  -1029308.47749  22834973.87549
  23160177.398 6  -2030643.945 6  -1544088.90647  23160175.45347
  21393938.055 6   -619047.789 6   -467850.57048  21393935.66848
  22818998.586 5   -486271.094 5   -362700.13347  22819000.39147
  19993256.164 7   -815130.848 7   -610866.34049  19993256.38349
  23453283.945 5   -276211.598 5   -211123.23847  23453282.63747
 20  5 16  1 43 14.0000000  0  8G04G08G09G11G16G26G27G31            -0.000470530
  21301458.391 6   -842499.070 6   -633662.99648  21301457.69948
  20504736.539 7  -1409063.336 7  -1075905.94949  20504737.22749
  22834082.883 5  -1366919.430 5  -1032953.96149  22834083.56349
  23158881.383 6  -2037455.656 6  -1549396.72347  23158879.10547
  21393522.797 6   -621228.016 6   -469549.45348  21393520.54348
  22818675.555 5   -487967.270 5   -364021.83647  22818677.30147
  19992741.898 7   -817835.387 7   -612973.76649  19992742.05949
  23453106.398 5   -277145.324 5   -211850.82047  23453105.27747
 20  5 16  1 43 15.0000000  0  8G04G08G09G11G16G26G27G31            -0.000472702
  21300927.891 6   -845286.359 6   -635834.90648  21300927.53548
  20503814.703 7  -1413907.578 7  -1079680.68449  20503815.39849
  22833192.766 5  -1371597.340 5  -1036599.09049  22833193.05549
  23157584.914 6  -2044267.387 6  -1554704.57047  23157582.86747
  21393108.180 6   -623408.336 6   -471248.39548  21393105.65648
  22818353.078 5   -489663.574 5   -365343.62547  22818354.68447
  19992227.117 7   -820539.441 7   -615080.82049  19992227.17249
  23452928.367 5   -278078.926 5   -212578.30147  23452927.35947
 20  5 16  1 43 16.0000000  0  8G04G08G09G11G16G26G27G31            -0.000474871
  21300397.984 6   -848073.238 6   -638006.50048  21300397.35548
  20502892.875 7  -1418751.492 7  -1083455.16449  20502893.66449
  22832302.852 5  -1376274.867 5  -1040243.91849  22832303.31649
  23156288.516 6  -2051079.215 6  -1560012.49247  23156286.28947
  21392693.445 6   -625588.727 6   -472947.40248  21392690.91848
  22818030.430 5   -491360.070 5   -366665.57047  22818031.93847
  19991712.516 7   -823243.086 7   -617187.56349  19991712.53949
  23452751.344 5   -279012.418 5   -213305.70347  23452749.86747
 20  5 16  1 43 17.0000000  0  8G04G08G09G11G16G26G27G31            -0.000477043
  21299868.172 6   -850859.629 6   -640177.71548  21299866.84448
  20501971.383 7  -1423594.930 7  -1087229.27049  20501971.96149
  22831412.594 5  -1380951.938 5  -1043888.38349  22831413.23849
  23154992.422 6  -2057891.027 6  -1565320.39847  23154990.09847
  21392278.375 6   -627769.199 6   -474646.47348  21392275.71148
  22817707.352 5   -493056.699 5   -367987.60947  22817708.81347
  19991198.195 7   -825946.270 7   -619293.93049  19991198.25449
  23452574.148 6   -279945.781 6   -214032.99647  23452572.30947
 20  5 16  1 43 18.0000000  0  8G04G08G09G11G16G26G27G31            -0.000479212
  21299337.563 6   -853645.641 6   -642348.63748  21299336.96548
  20501049.773 7  -1428438.027 7  -1091003.10949  20501050.27049
  22830522.695 6  -1385628.660 6  -1047532.57849  22830523.55949
  23153696.516 6  -2064702.961 6  -1570628.39547  23153693.68447
  21391863.656 6   -629949.836 6   -476345.67648  21391860.42648
  22817384.703 5   -494753.551 5   -369309.82847  22817386.09447
  19990683.688 7   -828649.059 7   -621400.00449  19990684.20349
  23452395.719 5   -280879.098 5   -214760.25447  23452394.55947
 20  5 16  1 43 19.0000000  0  8G04G08G09G11G16G26G27G31            -0.000481384
  21298807.758 6   -856431.387 6   -644519.34448  21298806.85548
  20500127.961 7  -1433280.906 7  -1094776.78549  20500128.31649
  22829633.125 6  -1390305.161 6  -1051176.60449  22829633.49649
  23152399.977 6  -2071515.117 6  -1575936.57047  23152397.57847
  21391448.359 6   -632130.719 6   -478045.06348  21391445.62148
  22817061.484 5   -496450.660 5   -370632.25447  22817062.96547
  19990169.617 7   -831351.602 7   -623505.88349  19990169.65649
  23452218.305 5   -281812.445 5   -215487.53947  23452216.62147
 20  5 16  1 43 20.0000000  0  8G04G08G09G11G16G26G27G31            -0.000483553
  21298277.297 6   -859216.738 6   -646689.74648  21298276.92248
  20499206.547 7  -1438123.402 7  -1098550.16449  20499207.42249
  22828742.922 6  -1394981.219 6  -1054820.28549  22828743.49649
  23151103.758 6  -2078327.348 6  -1581244.80547  23151101.34847
  21391033.203 6   -634311.707 6   -479744.53548  21391030.84848
  22816737.961 5   -498148.024 5   -371954.88147  22816740.19547
  19989655.242 7   -834053.727 7   -625611.43849  19989655.55549
  23452040.828 5   -282745.711 5   -216214.75847  23452039.38347
 20  5 16  1 43 21.0000000  0  8G04G08G09G11G16G26G27G31            -0.000485727
  21297747.406 6   -862001.648 6   -648859.80148  21297746.79348
  20498285.164 7  -1442965.516 7  -1102323.23449  20498285.79749
  22827853.148 5  -1399656.926 5  -1058463.69149  22827854.05949
  23149807.281 6  -2085139.637 6  -1586553.07847  23149805.00047
  21390618.125 6   -636492.836 6   -481444.10948  21390615.70348
  22816414.727 5   -499845.520 5   -373277.60247  22816417.16847
  19989141.516 7   -836755.426 7   -627716.65249  19989141.35549
  23451862.430 5   -283678.902 5   -216941.92247  23451861.80147
 20  5 16  1 43 22.0000000  0  8G04G08G09G11G16G26G27G31            -0.000487896
  21297217.578 6   -864786.105 6   -651029.51248  21297216.86748
  20497363.836 7  -1447807.238 7  -1106096.00849  20497364.29749
  22826963.758 6  -1404332.188 6  -1062106.75849  22826964.21949
  23148510.469 6  -2091951.980 6  -1591861.39847  23148508.52347
  21390203.219 6   -638674.051 6   -483143.76248  21390200.36748
  22816092.344 5   -501543.211 5   -374600.48047  22816094.01647
  19988627.547 7   -839456.688 7   -629821.53149  19988627.65649
  23451685.359 5   -284611.965 5   -217668.98847  23451684.18447
 20  5 16  1 43 23.0000000  0  8G04G08G09G11G16G26G27G31            -0.000490070
  21296687.898 6   -867570.145 6   -653198.89148  21296687.21948
  20496442.578 7  -1452648.570 7  -1109868.46949  20496442.86749
  22826074.164 6  -1409007.090 6  -1065749.53949  22826074.43049
  23147214.672 6  -2098764.352 6  -1597169.73847  23147211.93847
  21389787.805 6   -640855.355 6   -484843.48448  21389785.49248
  22815768.828 5   -503241.031 5   -375923.46547  22815770.90647
  19988113.266 7   -842157.531 7   -631926.09049  19988113.28149
  23451507.805 5   -285544.922 5   -218395.97347  23451506.50847
 20  5 16  1 43 24.0000000  0  8G04G08G09G11G16G26G27G31            -0.000492239
  21296157.961 6   -870353.699 6   -655367.89848  21296157.39848
  20495521.117 7  -1457489.473 7  -1113640.60549  20495521.93449
  22825184.500 6  -1413681.508 6  -1069391.93849  22825184.95749
  23145918.008 6  -2105576.801 6  -1602478.14147  23145915.88347
  21389372.961 6   -643036.754 6   -486543.27748  21389370.59848
  22815446.008 5   -504938.973 5   -377246.54347  22815448.20347
  19987599.328 7   -844857.910 7   -634030.28149  19987599.45349
  23451330.516 5   -286477.738 5   -219122.84847  23451328.93047
 20  5 16  1 43 25.0000000  0  8G04G08G09G11G16G26G27G31            -0.000494413
  21295628.383 6   -873136.824 6   -657536.57048  21295627.97348
  20494599.930 7  -1462329.992 7  -1117412.43849  20494600.94949
  22824295.336 6  -1418355.547 6  -1073034.05149  22824295.43849
  23144621.945 6  -2112389.281 6  -1607786.56647  23144619.66047
  21388958.250 6   -645218.211 6   -488243.11348  21388955.39848
  22815122.828 5   -506637.070 5   -378569.73847  22815124.65647
  19987085.531 7   -847557.848 7   -636134.12949  19987085.64549
  23451152.344 5   -287410.465 5   -219849.64847  23451151.37147
 20  5 16  1 43 26.0000000  0  8G04G08G09G11G16G26G27G31            -0.000496582
  21295098.844 6   -875919.637 6   -659704.99648  21295098.16048
  20493679.336 7  -1467170.180 7  -1121184.01649  20493679.84849
  22823405.969 6  -1423029.238 6  -1076675.88749  22823406.35249
  23143325.641 6  -2119201.906 6  -1613095.10547  23143323.03947
  21388542.945 6   -647399.883 6   -489943.12148  21388540.09048
  22814799.352 5   -508335.453 5   -379893.16447  22814801.24247
  19986571.836 7   -850257.457 7   -638237.71949  19986572.21949
  23450975.117 5   -288343.164 5   -220576.41847  23450974.30147
 20  5 16  1 43 27.0000000  0  8G04G08G09G11G16G26G27G31            -0.000498756
  21294569.734 6   -878701.910 6   -661873.00048  21294568.84448
  20492758.195 7  -1472009.898 7  -1124955.22349  20492758.48049
  22822516.703 6  -1427702.469 6  -1080317.36749  22822516.80149
  23142029.258 6  -2126014.496 6  -1618403.62147  23142026.64847
  21388127.492 6   -649581.586 6   -491643.15248  21388125.30948
  22814476.063 5   -510033.934 5   -381216.64847  22814478.21947
  19986058.070 7   -852956.547 7   -640340.90649  19986058.52049
  23450797.922 5   -289275.680 5   -221303.05547  23450796.71947
 20  5 16  1 43 28.0000000  0  8G04G08G09G11G16G26G27G31            -0.000500927
  21294040.273 6   -881483.898 6   -664040.78548  21294039.64548
  20491837.258 7  -1476849.395 7  -1128726.26249  20491837.97749
  22821627.477 6  -1432375.441 6  -1083958.64549  22821627.76649
  23140732.477 6  -2132827.320 6  -1623712.31347  23140730.59447
  21387712.711 6   -651763.527 6   -493343.36748  21387709.73048
  22814153.023 5   -511732.699 5   -382540.36347  22814155.40647
  19985544.852 7   -855655.395 7   -642443.90649  19985545.24649
  23450619.961 5   -290208.258 5   -222029.74647  23450619.17647
 20  5 16  1 43 28.9990000  0  8G04G08G09G11G16G26G27G31             0.000496902
  21293511.230 6   -884262.742 6   -666206.12148  21293510.85548
  20490917.261 7  -1481683.719 7  -1132493.26249  20490918.29649
  22820738.784 6  -1437043.379 6  -1087596.00049  22820739.47649
  23139437.230 6  -2139633.398 6  -1629015.75047  23139435.19047
  21387297.464 6   -653943.438 6   -495041.99648  21387294.99948
  22813830.276 5   -513430.000 5   -383862.93847  22813832.27247
  19985031.573 7   -858351.125 7   -644544.47749  19985031.93349
  23450443.042 5   -291139.836 5   -222755.65247  23450441.57747
 20  5 16  1 43 29.9990000  0  8G04G08G09G11G16G26G27G31             0.000494732
  21292981.831 6   -887043.949 6   -668373.29348  21292981.34748
  20489996.362 7  -1486522.500 7  -1136263.74249  20489997.07349
  22819850.253 6  -1441715.602 6  -1091236.69549  22819850.20249
  23138140.753 6  -2146446.367 6  -1634324.55547  23138139.02247
  21386882.417 6   -656125.652 6   -496742.41848  21386879.96448
  22813507.081 5   -515129.156 5   -385186.96147  22813508.92947
  19984518.206 7   -861049.168 7   -646646.84849  19984518.42549
  23450265.558 5   -292072.246 5   -223482.21147  23450264.30847
 20  5 16  1 43 30.9990000  0  8G04G08G09G11G16G26G27G31             0.000492558
  21292453.081 6   -889824.805 6   -670540.19548  21292451.89448
  20489075.894 7  -1491361.000 7  -1140034.00449  20489076.46849
  22818960.628 5  -1446387.531 5  -1094877.16049  22818961.48749
  23136844.245 6  -2153259.508 6  -1639633.49647  23136842.44047
  21386467.151 6   -658308.055 6   -498442.99248  21386464.36248
  22813183.659 5   -516828.570 5   -386511.17647  22813185.62847
  19984005.081 7   -863746.875 7   -648748.95349  19984005.08149
  23450088.034 5   -293004.672 5   -224208.77047  23450087.19447
 20  5 16  1 43 31.9990000  0  8G04G08G09G11G16G26G27G31             0.000490387
  21291923.534 6   -892605.211 6   -672706.73848  21291923.48348
  20488155.120 7  -1496199.051 7  -1143803.91049  20488155.92949
  22818071.230 6  -1451058.984 6  -1098517.25049  22818072.36649
  23135547.964 6  -2160072.641 6  -1644942.43447  23135546.03047
  21386051.730 6   -660490.512 6   -500143.60548  21386049.24548
  22812860.019 5   -518528.102 5   -387835.48847  22812862.12847
  19983491.605 7   -866444.094 7   -650850.68449  19983492.09749
  23449910.675 5   -293936.926 5   -224935.20347  23449909.89047
 20  5 16  1 43 32.9990000  0  8G04G08G09G11G16G26G27G31             0.000488213
  21291394.542 6   -895385.207 6   -674872.96948  21291394.27248
  20487234.605 7  -1501036.723 7  -1147573.52749  20487235.03449
  22817182.987 6  -1455730.105 6  -1102157.08249  22817183.29649
  23134251.433 6  -2166885.855 6  -1650251.42247  23134249.17547
  21385636.667 6   -662673.105 6   -501844.32848  21385633.58948
  22812536.956 5   -520227.863 5   -389159.98047  22812538.83947
  19982978.378 7   -869140.934 7   -652952.11349  19982978.65949
  23449733.097 5   -294869.125 5   -225661.59447  23449732.07347
 20  5 16  1 43 33.9990000  0  8G04G08G09G11G16G26G27G31             0.000486042
  21290865.917 6   -898164.699 6   -677038.80948  21290865.37048
  20486314.222 7  -1505873.945 7  -1151342.78949  20486314.69849
  22816293.714 5  -1460400.742 5  -1105796.53949  22816294.51949
  23132954.550 6  -2173699.102 6  -1655560.44547  23132953.12447
  21385221.323 6   -664855.750 6   -503545.09048  21385218.44448
  22812213.355 5   -521927.719 5   -390484.54347  22812215.25747
  19982465.464 7   -871837.301 7   -655053.17649  19982465.82349
  23449556.245 5   -295801.164 5   -226387.86347  23449554.93347
 20  5 16  1 43 34.9990000  0  8G04G08G09G11G16G26G27G31             0.000483866
  21290337.034 6   -900943.844 6   -679204.37548  21290336.40148
  20485393.769 7  -1510710.840 7  -1155111.80549  20485394.37849
  22815405.261 6  -1465070.992 6  -1109435.69549  22815405.84749
  23131657.698 6  -2180512.473 6  -1660869.57047  23131656.46047
  21384805.565 6   -667038.578 6   -505245.99648  21384802.71048
  22811890.105 5   -523627.809 5   -391809.28947  22811892.13647
  19981952.511 7   -874533.297 7   -657153.95749  19981952.52649
  23449378.558 5   -296733.156 5   -227114.09847  23449377.28047
 20  5 16  1 43 35.9990000  0  8G04G08G09G11G16G26G27G31             0.000481695
  21289808.050 6   -903722.539 6   -681369.59848  21289807.34348
  20484473.331 7  -1515547.352 7  -1158880.50849  20484473.81549
  22814517.019 6  -1469740.914 6  -1113074.59049  22814517.21049
  23130361.628 6  -2187325.848 6  -1666178.69147  23130360.17947
  21384389.925 6   -669221.500 6   -506946.97348  21384387.44448
  22811566.026 5   -525328.035 5   -393134.14847  22811568.06247
  19981439.409 7   -877228.871 7   -659254.40649  19981439.67149
  23449201.347 5   -297665.055 5   -227840.25847  23449200.18347
 20  5 16  1 43 36.9990000  0  8G04G08G09G11G16G26G27G31             0.000479521
  21289279.448 6   -906500.828 6   -683534.50048  21289278.80048
  20483553.167 7  -1520383.504 7  -1162648.94149  20483553.85849
  22813628.206 6  -1474410.375 6  -1116713.13749  22813628.37449
  23129064.839 6  -2194139.336 6  -1671487.90247  23129063.23347
  21383974.831 6   -671404.543 6   -508648.04748  21383971.94048
  22811242.339 5   -527028.496 5   -394459.18047  22811245.01147
  19980926.675 7   -879924.008 7   -661354.50849  19980926.64449
  23449023.972 5   -298596.871 5   -228566.35247  23449022.90947
 20  5 16  1 43 37.9990000  0  8G04G08G09G11G16G26G27G31             0.000477350
  21288750.847 6   -909278.742 6   -685699.11348  21288750.48748
  20482632.800 7  -1525219.281 7  -1166417.08249  20482633.62049
  22812739.808 6  -1479079.551 6  -1120351.45349  22812740.10149
  23127768.331 6  -2200952.953 6  -1676797.20347  23127766.84747
  21383559.581 6   -673587.746 6   -510349.24648  21383556.32348
  22810918.714 5   -528729.109 5   -395784.33247  22810920.85547
  19980413.589 7   -882618.781 7   -663454.32849  19980413.87449
  23448846.675 5   -299528.609 5   -229292.38347  23448845.66747
 20  5 16  1 43 38.9990000  0  8G04G08G09G11G16G26G27G31             0.000475174
  21288222.300 6   -912056.254 6   -687863.41048  21288221.60148
  20481712.753 7  -1530054.746 7  -1170184.97349  20481713.38249
  22811851.417 6  -1483748.328 6  -1123989.46549  22811851.59349
  23126471.409 5  -2207766.656 5  -1682106.57847  23126470.11247
  21383144.011 6   -675771.094 6   -512050.55148  21383140.97648
  22810594.667 5   -530429.984 5   -397109.69147  22810597.37847
  19979900.933 7   -885313.195 7   -665553.87549  19979901.01949
  23448669.565 5   -300460.301 5   -230018.37947  23448668.39747
 20  5 16  1 43 39.9990000  0  8G04G08G09G11G16G26G27G31             0.000473001
  21287694.253 6   -914833.445 6   -690027.45348  21287693.30848
  20480792.706 7  -1534889.863 7  -1173952.59449  20480793.43749
  22810963.284 6  -1488416.801 6  -1127627.23849  22810963.03849
  23125175.198 5  -2214580.484 5  -1687416.04347  23125173.62447
  21382728.315 6   -677954.609 6   -513751.99648  21382725.81548
  22810271.815 5   -532131.094 5   -398435.22747  22810273.51547
  19979388.511 7   -888007.246 7   -667653.13749  19979388.24949
  23448492.089 5   -301392.008 5   -230744.38747  23448491.25747
 20  5 16  1 43 40.9990000  0  8G04G08G09G11G16G26G27G31             0.000470827
  21287165.487 6   -917610.258 6   -692191.20348  21287164.92948
  20479872.605 7  -1539724.672 7  -1177719.98049  20479873.21049
  22810075.081 6  -1493084.930 6  -1131264.74249  22810075.27649
  23123878.245 6  -2221394.422 6  -1692725.60247  23123876.77247
  21382312.972 6   -680138.332 6   -515453.59048  21382310.18748
  22809947.808 5   -533832.414 5   -399760.93447  22809949.62847
  19978875.792 7   -890700.953 7   -669752.12949  19978875.97249
  23448314.862 5   -302323.664 5   -231470.34847  23448313.67947
 20  5 16  1 43 41.9990000  0  8G04G08G09G11G16G26G27G31             0.000468655
  21286637.401 6   -920386.727 6   -694354.68448  21286636.69048
  20478952.565 7  -1544559.172 7  -1181487.12149  20478952.89449
  22809186.698 6  -1497752.711 6  -1134901.98049  22809186.51949
  23122581.730 5  -2228208.492 5  -1698035.25047  23122579.91747
  21381897.370 6   -682322.191 6   -517155.30548  21381894.63648
  22809624.206 5   -535534.004 5   -401086.84847  22809626.03447
  19978363.042 7   -893394.293 7   -671850.84049  19978363.15149
  23448137.573 5   -303255.285 5   -232196.29747  23448136.39447
 20  5 16  1 43 42.9990000  0  8G04G08G09G11G16G26G27G31             0.000466478
  21286108.800 6   -923162.781 6   -696517.84448  21286108.19048
  20478032.698 7  -1549393.324 7  -1185254.00449  20478033.13249
  22808297.815 6  -1502420.121 6  -1138538.91849  22808298.35149
  23121284.972 5  -2235022.699 5  -1703345.02747  23121283.26947
  21381481.542 6   -684506.211 6   -518857.14548  21381479.21848
  22809300.448 5   -537235.750 5   -402412.88747  22809302.43747
  19977850.855 7   -896087.246 7   -673949.24649  19977851.10849
  23447960.683 5   -304186.863 5   -232922.20347  23447959.51947
 20  5 16  1 43 43.9990000  0  8G04G08G09G11G16G26G27G31             0.000464306
  21285580.901 6   -925938.570 6   -698680.80148  21285579.88648
  20477112.855 7  -1554227.227 7  -1189020.67649  20477113.71449
  22807409.800 6  -1507087.313 6  -1142175.69149  22807410.52649
  23119988.495 5  -2241837.098 5  -1708654.96547  23119986.83547
  21381066.128 6   -686690.508 6   -520559.19548  21381063.33548
  22808976.526 5   -538937.871 5   -403739.21947  22808978.37047
  19977338.292 7   -898779.934 7   -676047.43449  19977338.37449
  23447783.159 5   -305118.438 5   -233648.10947  23447782.22647
 20  5 16  1 43 44.9990000  0  8G04G08G09G11G16G26G27G31             0.000462130
  21285052.659 6   -928713.883 6   -700843.37948  21285051.94048
  20476192.847 7  -1559060.719 7  -1192787.02749  20476193.65949
  22806521.940 6  -1511754.039 6  -1145812.10249  22806522.31549
  23118691.612 6  -2248651.457 6  -1713964.86747  23118689.61647
  21380650.487 6   -688874.828 6   -522261.25848  21380647.99548
  22808652.370 5   -540640.086 5   -405065.62147  22808654.12847
  19976826.128 7   -901472.164 7   -678145.27349  19976826.53849
  23447606.058 5   -306049.926 5   -234373.94147  23447604.98047
 20  5 16  1 43 45.9990000  0  8G04G08G09G11G16G26G27G31             0.000459957
  21284524.581 6   -931488.840 6   -703005.68448  21284523.89448
  20475273.300 7  -1563893.859 7  -1196553.11349  20475273.84349
  22805634.597 6  -1516420.445 6  -1149448.25849  22805634.42949
  23117394.690 6  -2255465.969 6  -1719274.87547  23117392.82347
  21380234.964 6   -691059.313 6   -523963.45348  21380232.20648
  22808328.808 5   -542342.531 5   -406392.19947  22808330.19047
  19976313.745 7   -904164.000 7   -680242.81349  19976313.95249
  23447428.659 5   -306981.324 5   -235099.71147  23447427.42147
 20  5 16  1 43 46.9990000  0  8G04G08G09G11G16G26G27G31             0.000457781
  21283996.315 6   -934263.352 6   -705167.64148  21283995.95248
  20474353.628 7  -1568726.637 7  -1200318.91449  20474354.08549
  22804746.362 6  -1521086.397 6  -1153084.06849  22804746.59349
  23116097.886 6  -2262280.574 6  -1724584.95347  23116096.27247
  21379819.026 6   -693243.938 6   -525665.75848  21379816.48048
  22808005.026 5   -544045.137 5   -407718.90247  22808006.58547
  19975801.425 7   -906855.434 7   -682340.03549  19975801.52649
  23447251.300 5   -307912.629 5   -235825.41047  23447250.25347
 20  5 16  1 43 47.9990000  0  8G04G08G09G11G16G26G27G31             0.000455608
  21283468.495 6   -937037.504 6   -707329.32048  21283468.15548
  20473433.933 7  -1573559.063 7  -1204084.43849  20473434.57349
  22803858.065 6  -1525752.063 6  -1156719.65649  22803858.56949
  23114801.105 6  -2269095.262 6  -1729895.10247  23114799.73047
  21379403.292 6   -695428.711 6   -527368.18048  21379400.68748
  22807680.347 5   -545747.957 5   -409045.78147  22807682.53847
  19975289.511 7   -909546.504 7   -684436.97749  19975289.63649
  23447074.112 5   -308843.930 5   -236551.09847  23447072.82347
 20  5 16  1 43 48.9990000  0  8G04G08G09G11G16G26G27G31             0.000453432
  21282940.792 6   -939811.344 6   -709490.75048  21282940.04648
  20472514.565 7  -1578391.191 7  -1207849.73849  20472515.44049
  22802970.378 6  -1530417.398 6  -1160354.98449  22802971.10149
  23113504.612 5  -2275910.141 5  -1735205.39547  23113503.06947
  21378987.355 6   -697613.707 6   -529070.77348  21378985.02248
  22807356.565 5   -547451.090 5   -410372.89547  22807358.40147
  19974777.440 7   -912237.250 7   -686533.66449  19974777.79249
  23446897.776 5   -309775.234 5   -237276.79347  23446895.91747
 20  5 16  1 43 49.9990000  0  8G04G08G09G11G16G26G27G31             0.000451260
  21282412.753 6   -942584.898 6   -711651.96548  21282412.35548
  20471594.964 7  -1583223.102 7  -1211614.86349  20471595.72649
  22802083.355 6  -1535082.492 6  -1163990.12549  22802083.26149
  23112207.128 5  -2282725.234 5  -1740515.85247  23112205.74147
  21378571.472 6   -699798.969 6   -530773.57448  21378569.10848
  22807032.589 5   -549154.527 5   -411700.25047  22807033.82347
  19974265.683 7   -914927.746 7   -688630.15249  19974265.72649
  23446719.909 5   -310706.605 5   -238002.53947  23446718.82347
 20  5 16  1 43 50.9990000  0  8G04G08G09G11G16G26G27G31             0.000449081
  21281885.417 6   -945357.973 6   -713812.80148  21281884.72248
  20470675.542 7  -1588054.535 7  -1215379.61749  20470676.36649
  22801195.409 6  -1539747.121 6  -1167624.90249  22801195.76549
  23110910.503 5  -2289540.281 5  -1745826.27747  23110909.10847
  21378155.620 6   -701984.250 6   -532476.39148  21378153.13648
  22806708.058 5   -550858.070 5   -413027.69147  22806709.72247
  19973753.589 7   -917617.742 7   -690726.25449  19973754.05449
  23446542.753 5   -311637.777 5   -238728.13347  23446541.28047
 20  5 16  1 43 51.9990000  0  8G04G08G09G11G16G26G27G31             0.000446909
  21281357.612 6   -948130.477 6   -715973.19148  21281357.28848
  20469756.308 7  -1592885.465 7  -1219143.98049  20469756.94449
  22800308.073 6  -1544411.227 6  -1171259.27049  22800308.09349
  23109613.792 5  -2296355.309 5  -1751136.68847  23109612.39047
  21377739.698 6   -704169.531 6   -534179.19948  21377737.49148
  22806383.839 5   -552561.652 5   -414355.16047  22806385.48047
  19973241.886 7   -920307.180 7   -692821.91849  19973242.10149
  23446365.690 5   -312568.738 5   -239453.55947  23446364.30447
 20  5 16  1 43 52.9990000  0  8G04G08G09G11G16G26G27G31             0.000444731
  21280830.370 6   -950902.723 6   -718133.38748  21280829.70248
  20468837.206 7  -1597716.164 7  -1222908.16049  20468838.09749
  22799420.222 6  -1549075.117 6  -1174893.46949  22799420.74549
  23108316.511 5  -2303170.520 5  -1756447.23847  23108315.61647
  21377324.065 6   -706355.082 6   -535882.23048  21377321.39448
  22806059.401 5   -554265.539 5   -415682.85947  22806061.11247
  19972730.011 7   -922996.379 7   -694917.39549  19972730.80449
  23446188.058 5   -313499.770 5   -240179.03547  23446186.93747
 20  5 16  1 43 53.9990000  0  8G04G08G09G11G16G26G27G31             0.000442558
  21280303.112 6   -953674.527 6   -720293.23448  21280301.91748
  20467917.933 7  -1602546.457 7  -1226672.02749  20467918.62849
  22798532.831 6  -1553738.531 6  -1178527.29749  22798533.06949
  23107020.081 5  -2309985.805 5  -1761757.84847  23107018.25747
  21376908.034 6   -708540.723 6   -537585.32448  21376905.48348
  22805734.870 5   -555969.617 5   -417010.71547  22805736.82347
  19972218.120 7   -925685.133 7   -697012.52349  19972218.49149
  23446011.308 5   -314430.672 5   -240904.41447  23446010.46847
 20  5 16  1 43 54.9990000  0  8G04G08G09G11G16G26G27G31             0.000440380
  21279775.362 6   -956446.016 6   -722452.83648  21279774.69448
  20466998.870 7  -1607376.449 7  -1230435.65649  20466999.35149
  22797645.339 6  -1558401.684 6  -1182160.92249  22797645.40549
  23105723.050 5  -2316801.258 5  -1767068.58247  23105721.76947
  21376491.940 6   -710726.578 6   -539288.59448  21376489.26548
  22805411.042 5   -557673.957 5   -418338.77047  22805412.73747
  19971706.855 7   -928373.563 7   -699107.41049  19971707.23049
  23445834.339 5   -315361.590 5   -241629.80947  23445833.09347
 20  5 16  1 43 55.9990000  0  8G04G08G09G11G16G26G27G31             0.000438208
  21279248.190 6   -959217.070 6   -724612.09848  21279247.09348
  20466079.831 7  -1612206.035 7  -1234198.96549  20466080.70649
  22796758.222 6  -1563064.422 6  -1185794.22349  22796758.40549
  23104426.386 6  -2323616.719 6  -1772379.32447  23104424.55847
  21376076.222 6   -712912.520 6   -540991.92648  21376073.31248
  22805086.370 5   -559378.480 5   -419666.97347  22805088.19847
  19971195.331 7   -931061.570 7   -701201.96549  19971195.63649
  23445656.964 5   -316292.406 5   -242355.12147  23445656.47647
 20  5 16  1 43 56.9990000  0  8G04G08G09G11G16G26G27G31             0.000436029
  21278720.409 6   -961987.809 6   -726771.11748  21278719.87448
  20465160.800 7  -1617035.340 7  -1237962.06349  20465161.58549
  22795870.636 6  -1567726.832 6  -1189427.27049  22795870.73749
  23103129.206 6  -2330432.348 6  -1777690.20347  23103127.82347
  21375660.151 6   -715098.688 6   -542695.42648  21375657.36648
  22804761.800 5   -561083.273 5   -420995.38747  22804764.08147
  19970684.081 7   -933749.266 7   -703296.26249  19970684.24149
  23445480.097 5   -317223.238 5   -243080.44547  23445478.98747
 20  5 16  1 43 57.9990000  0  8G04G08G09G11G16G26G27G31             0.000433855
  21278193.519 6   -964758.199 6   -728929.86348  21278192.79648
  20464241.870 7  -1621864.375 7  -1241724.94149  20464242.34749
  22794983.558 6  -1572389.008 6  -1193060.13349  22794984.10549
  23101832.542 6  -2337248.148 6  -1783001.21947  23101831.35147
  21375244.065 6   -717285.063 6   -544399.09848  21375241.15548
  22804438.128 5   -562788.281 5   -422323.96147  22804439.23747
  19970172.581 7   -936436.645 7   -705390.33249  19970172.56549
  23445302.722 5   -318154.063 5   -243805.76647  23445301.68747
 20  5 16  1 43 58.9990000  0  8G04G08G09G11G16G26G27G31             0.000431677
  21277666.370 6   -967528.289 6   -731088.37548  21277665.89048
  20463322.761 7  -1626693.129 7  -1245487.60549  20463323.61249
  22794096.815 6  -1577050.852 6  -1196692.74249  22794096.64449
  23100535.073 6  -2344064.117 6  -1788312.36347  23100534.10547
  21374827.847 6   -719471.637 6   -546102.92248  21374825.41348
  22804113.355 5   -564493.590 5   -423652.77747  22804114.85147
  19969661.300 7   -939123.684 7   -707484.12549  19969661.73049
  23445126.058 6   -319084.891 6   -244531.08647  23445124.60147
 20  5 16  1 43 59.9990000  0  8G04G08G09G11G16G26G27G31             0.000429502
  21277139.409 6   -970297.973 6   -733246.57048  21277138.73348
  20462404.144 7  -1631521.539 7  -1249250.00849  20462404.75349
  22793209.753 6  -1581712.305 6  -1200325.03949  22793210.03849
  23099238.495 6  -2350880.141 6  -1793623.55947  23099236.93747
  21374411.503 6   -721658.340 6   -547806.84048  21374409.14048
  22803789.128 5   -566199.074 5   -424981.72747  22803790.42147
  19969150.011 7   -941810.340 7   -709577.62549  19969150.32349
  23444948.565 6   -320015.641 6   -245256.34847  23444947.71047
 20  5 16  1 44  0.9990000  0  8G04G08G09G11G16G26G27G31             0.000427324
  21276612.339 6   -973067.270 6   -735404.46148  21276612.01948
  20461485.628 7  -1636349.578 7  -1253012.11349  20461486.36249
  22792321.995 6  -1586373.414 6  -1203957.07049  22792323.07349
  23097941.284 6  -2357696.270 6  -1798934.82447  23097939.56947
  21373995.651 6   -723845.219 6   -549510.91048  21373993.17948
  22803464.472 5   -567904.809 5   -426310.87947  22803465.62047
  19968638.753 7   -944496.605 7   -711670.81649  19968639.01949
  23444771.167 5   -320946.316 5   -245981.54747  23444770.30447
 20  5 16  1 44  1.9990000  0  8G04G08G09G11G16G26G27G31             0.000425150
  21276085.565 6   -975836.145 6   -737562.02748  21276084.78848
  20460566.792 7  -1641177.227 7  -1256773.92249  20460567.44449
  22791435.730 6  -1591034.133 6  -1207588.80149  22791436.12049
  23096643.847 6  -2364512.484 6  -1804246.16447  23096642.57747
  21373579.331 6   -726032.191 6   -551215.04348  21373576.95248
  22803140.050 5   -569610.684 5   -427640.12947  22803141.56547
  19968127.628 7   -947182.480 7   -713763.70749  19968127.80449
  23444594.440 5   -321876.941 5   -246706.71147  23444593.09347
 20  5 16  1 44  2.9990000  0  8G04G08G09G11G16G26G27G31             0.000422970
  21275558.597 6   -978604.590 6   -739719.25448  21275558.06548
  20459648.276 7  -1646004.488 7  -1260535.42249  20459648.65949
  22790548.651 6  -1595694.426 6  -1211220.19549  22790549.06249
  23095346.933 6  -2371328.742 6  -1809557.52347  23095345.69447
  21373163.159 6   -728219.273 6   -552919.26248  21373160.97648
  22802814.667 5   -571316.762 5   -428969.54747  22802816.52647
  19967616.558 7   -949867.902 7   -715856.25049  19967617.21049
  23444417.323 5   -322807.426 5   -247431.76647  23444416.47247
 20  5 16  1 44  3.9990000  0  8G04G08G09G11G16G26G27G31             0.000420795
  21275031.690 6   -981372.563 6   -741876.11748  21275031.16348
  20458729.839 7  -1650831.313 7  -1264296.58249  20458730.33549
  22789661.612 6  -1600354.270 6  -1214851.24249  22789661.93749
  23094049.948 6  -2378145.016 6  -1814868.90247  23094048.44847
  21372746.948 6   -730406.414 6   -554623.53148  21372744.42148
  22802490.730 5   -573022.930 5   -430299.02347  22802491.81247
  19967105.730 7   -952552.875 7   -717948.43449  19967105.88249
  23444240.120 5   -323737.777 5   -248156.70747  23444239.06247
 20  5 16  1 44  4.9990000  0  8G04G08G09G11G16G26G27G31             0.000418617
  21274505.480 6   -984140.059 6   -744032.60948  21274504.64048
  20457811.230 7  -1655657.727 7  -1268057.42249  20457812.15149
  22788775.487 6  -1605013.695 6  -1218481.96149  22788775.98049
  23092752.917 6  -2384961.289 6  -1820180.28147  23092751.39747
  21372331.003 6   -732593.621 6   -556327.85248  21372328.37848
  22802165.659 5   -574729.250 5   -431628.62547  22802167.39747
  19966594.847 7   -955237.383 7   -720040.25849  19966594.99949
  23444063.159 5   -324667.988 5   -248881.55147  23444062.49547
 20  5 16  1 44  5.9990000  0  8G04G08G09G11G16G26G27G31             0.000416443
  21273978.565 6   -986907.352 6   -746188.94148  21273977.91348
  20456892.683 7  -1660483.953 7  -1271818.11749  20456893.59749
  22787888.792 6  -1609672.961 6  -1222112.55949  22787889.00349
  23091455.823 6  -2391777.859 6  -1825491.89547  23091454.06947
  21371914.855 6   -734781.152 6   -558032.41848  21371912.11648
  22801840.714 5   -576435.938 5   -432958.50447  22801842.53447
  19966084.042 7   -957921.688 7   -722131.92249  19966084.47249
  23443886.261 5   -325598.305 5   -249606.47747  23443885.16747
 20  5 16  1 44  6.9990000  0  8G04G08G09G11G16G26G27G31             0.000414263
  21273452.175 6   -989674.199 6   -748344.92248  21273451.95648
  20455974.300 7  -1665309.766 7  -1275578.48849  20455974.79649
  22787002.370 6  -1614331.727 6  -1225742.76249  22787002.53849
  23090158.534 6  -2398594.453 6  -1830803.53147  23090156.86647
  21371498.737 6   -736968.770 6   -559737.05548  21371495.60848
  22801516.409 5   -578142.770 5   -434288.50447  22801517.53047
  19965573.230 7   -960605.520 7   -724223.22749  19965573.18749
  23443708.987 5   -326528.508 5   -250331.32047  23443708.01547
 20  5 16  1 44  7.9990000  0  8G04G08G09G11G16G26G27G31             0.000412086
  21272925.565 6   -992440.715 6   -750500.65248  21272925.17548
  20455056.487 7  -1670135.289 7  -1279338.64149  20455057.28849
  22786116.003 6  -1618990.199 6  -1229372.73849  22786115.86249
  23088861.737 6  -2405411.195 6  -1836115.27747  23088859.63247
  21371082.464 6   -739156.582 6   -561441.84448  21371079.53848
  22801191.565 5   -579849.844 5   -435618.68847  22801193.02647
  19965063.011 7   -963289.063 7   -726314.30149  19965062.69849
  23443532.089 5   -327458.715 5   -251056.16047  23443531.05847
 20  5 16  1 44  8.9990000  0  8G04G08G09G11G16G26G27G31             0.000409908
  21272399.237 6   -995206.891 6   -752656.11348  21272398.60548
  20454138.019 7  -1674960.512 7  -1283098.54749  20454138.42549
  22785229.628 6  -1623648.383 6  -1233002.49249  22785229.60549
  23087564.589 6  -2412228.066 6  -1841427.12147  23087562.42947
  21370665.909 6   -741344.602 6   -563146.78948  21370662.88248
  22800866.605 5   -581557.207 5   -436949.09847  22800868.37847
  19964552.253 7   -965972.250 7   -728405.09049  19964552.12049
  23443355.112 5   -328388.926 5   -251781.00047  23443354.31547
 20  5 16  1 44  9.9990000  0  8G04G08G09G11G16G26G27G31             0.000407732
  21271872.620 6   -997972.656 6   -754811.26648  21271872.37848
  20453219.800 7  -1679785.355 7  -1286858.17249  20453220.60149
  22784342.995 6  -1628306.206 6  -1236631.96949  22784342.87049
  23086267.151 6  -2419045.016 6  -1846739.03147  23086265.12047
  21370249.245 6   -743532.703 6   -564851.80548  21370246.99148
  22800541.605 5   -583264.730 5   -438279.64547  22800543.23047
  19964041.667 7   -968655.027 7   -730495.56649  19964041.97649
  23443177.823 5   -329319.039 5   -252505.76647  23443177.21047
 20  5 16  1 44 10.9990000  0  8G04G08G09G11G16G26G27G31             0.000405552
  21271347.003 6  -1000738.121 6   -756966.16848  21271346.37848
  20452301.862 7  -1684609.957 7  -1290617.60249  20452302.66749
  22783456.347 5  -1632963.691 5  -1240261.18049  22783456.82749
  23084969.597 6  -2425862.191 6  -1852051.11747  23084968.04647
  21369833.097 6   -745721.098 6   -566557.04348  21369830.61248
  22800215.714 5   -584972.543 5   -439610.41847  22800217.94047
  19963531.175 7   -971337.551 7   -732585.84449  19963531.36649
  23443001.151 5   -330249.207 5   -253230.57847  23443000.07747
 20  5 16  1 44 11.9990000  0  8G04G08G09G11G16G26G27G31             0.000403376
  21270820.886 6  -1003503.195 6   -759120.77348  21270820.32748
  20451383.956 7  -1689434.137 7  -1294376.70349  20451384.53849
  22782570.081 5  -1637620.813 5  -1243890.10249  22782570.62849
  23083672.128 6  -2432679.414 6  -1857363.23847  23083670.64447
  21369416.870 6   -747909.574 6   -568262.35548  21369413.79248
  22799891.292 5   -586680.586 5   -440941.36747  22799893.32347
  19963020.698 7   -974019.641 7   -734675.78549  19963021.05049
  23442823.651 5   -331179.234 5   -253955.27747  23442823.35147
 20  5 16  1 44 12.9990000  0  8G04G08G09G11G16G26G27G31             0.000401196
  21270294.495 6  -1006267.836 6   -761275.03948  21270294.04248
  20450466.042 7  -1694257.977 7  -1298135.54749  20450466.33949
  22781684.558 6  -1642277.566 6  -1247518.74249  22781684.55849
  23082375.034 6  -2439496.711 6  -1862675.41447  23082372.98747
  21369000.003 6   -750098.211 6   -569967.78548  21368997.40148
  22799566.089 5   -588388.805 5   -442272.44947  22799567.80447
  19962510.495 7   -976701.328 7   -736765.41449  19962510.79649
  23442646.784 5   -332109.219 5   -254679.94147  23442646.14747
 20  5 16  1 44 13.9990000  0  8G04G08G09G11G16G26G27G31             0.000399019
  21269768.370 6  -1009032.176 6   -763429.07048  21269767.67548
  20449548.034 7  -1699081.516 7  -1301894.14549  20449548.84349
  22780798.089 6  -1646934.004 6  -1251147.13349  22780798.76549
  23081077.659 6  -2446314.176 6  -1867987.71947  23081075.89747
  21368583.331 6   -752287.027 6   -571673.35948  21368580.83148
  22799241.175 5   -590097.246 5   -443603.70747  22799242.79647
  19962000.355 7   -979382.715 7   -738854.80549  19962000.67149
  23442469.831 5   -333039.207 5   -255404.60947  23442469.30447
 20  5 16  1 44 14.9990000  0  8G04G08G09G11G16G26G27G31             0.000396839
  21269242.745 6  -1011796.164 6   -765582.82848  21269241.88248
  20448630.519 7  -1703904.762 7  -1305652.51649  20448631.06549
  22779911.917 6  -1651590.148 6  -1254775.30149  22779911.98749
  23079780.565 6  -2453131.754 6  -1873300.11747  23079778.17947
  21368166.776 6   -754476.043 6   -573379.08248  21368164.03048
  22798915.519 5   -591805.992 5   -444935.19147  22798917.68747
  19961489.964 7   -982063.746 7   -740943.91849  19961490.33949
  23442292.925 5   -333969.191 5   -256129.27347  23442292.20247
 20  5 16  1 44 15.9990000  0  8G04G08G09G11G16G26G27G31             0.000394663
  21268716.776 6  -1014559.688 6   -767736.21948  21268715.56248
  20447712.808 7  -1708727.570 7  -1309410.54749  20447713.14449
  22779026.495 6  -1656245.805 6  -1258403.08649  22779026.39749
  23078483.315 6  -2459949.363 6  -1878612.54747  23078481.12047
  21367750.308 6   -756665.145 6   -575084.87948  21367747.83548
  22798590.995 5   -593514.816 5   -446266.74647  22798591.99547
  19960980.026 7   -984744.332 7   -743032.68049  19960980.21449
  23442115.901 5   -334899.020 5   -256853.82047  23442114.94447
 20  5 16  1 44 16.9990000  0  8G04G08G09G11G16G26G27G31             0.000392483
  21268190.933 6  -1017322.711 6   -769889.23048  21268190.09748
  20446794.831 7  -1713549.930 7  -1313168.23049  20446795.56949
  22778140.472 6  -1660901.047 6  -1262030.54749  22778140.67549
  23077185.394 6  -2466766.965 6  -1883924.96147  23077183.46447
  21367333.745 6   -758854.266 6   -576790.68448  21367330.94448
  22798265.683 5   -595223.785 5   -447598.41047  22798267.16747
  19960469.847 7   -987424.402 7   -745121.05149  19960470.30449
  23441939.581 5   -335828.711 5   -257578.25047  23441938.25347
 20  5 16  1 44 17.9990000  0  8G04G08G09G11G16G26G27G31             0.000390306
  21267665.276 6  -1020085.438 6   -772042.00448  21267664.83948
  20445877.120 7  -1718371.992 7  -1316925.68049  20445877.77649
  22777254.417 6  -1665555.953 6  -1265657.75049  22777254.99949
  23075887.886 6  -2473584.727 6  -1889237.50047  23075886.38247
  21366916.862 6   -761043.621 6   -578496.67648  21366914.47648
  22797940.737 5   -596933.035 5   -448930.28547  22797942.38247
  19959959.886 7   -990104.172 7   -747209.18049  19959960.36649
  23441762.565 5   -336758.352 5   -258302.64547  23441761.23747
 20  5 16  1 44 18.9990000  0  8G04G08G09G11G16G26G27G31             0.000388124
  21267139.605 6  -1022847.844 6   -774194.52348  21267139.26548
  20444959.417 7  -1723193.785 7  -1320682.92249  20444960.55449
  22776368.519 6  -1670210.582 6  -1269284.72749  22776368.89749
  23074590.690 6  -2480402.676 6  -1894550.19147  23074588.78847
  21366500.894 6   -763233.211 6   -580202.84848  21366498.12848
  22797615.136 5   -598642.523 5   -450262.35547  22797616.78447
  19959449.909 7   -992783.648 7   -749297.08249  19959450.18749
  23441585.198 5   -337688.043 5   -259027.07847  23441584.44847
 20  5 16  1 44 19.9990000  0  8G04G08G09G11G16G26G27G31             0.000385948
  21266613.925 6  -1025609.914 6   -776346.78148  21266613.47648
  20444042.183 7  -1728015.297 7  -1324439.94549  20444042.55449
  22775483.526 6  -1674864.926 6  -1272911.49249  22775483.13649
  23073292.956 6  -2487220.750 6  -1899862.97747  23073291.45247
  21366083.636 6   -765422.961 6   -581909.14548  21366080.85548
  22797289.206 5   -600352.297 5   -451594.64547  22797291.89747
  19958939.972 7   -995462.805 7   -751384.73449  19958940.39449
  23441408.612 5   -338617.762 5   -259751.53147  23441407.55447
 20  5 16  1 44 20.9990000  0  8G04G08G09G11G16G26G27G31             0.000383766
  21266088.612 6  -1028371.633 6   -778498.76648  21266087.64748
  20443124.636 7  -1732836.480 7  -1328196.70749  20443125.31949
  22774597.636 6  -1679518.895 6  -1276537.96549  22774598.05449
  23071995.909 6  -2494038.984 6  -1905175.87547  23071993.63647
  21365666.948 6   -767612.945 6   -583615.62948  21365664.53448
  22796964.550 5   -602062.309 5   -452927.13347  22796965.85147
  19958430.480 7   -998141.613 7   -753472.12149  19958430.81949
  23441232.026 5   -339547.414 5   -260475.93847  23441230.87847
 20  5 16  1 44 21.9990000  0  8G04G08G09G11G16G26G27G31             0.000381590
  21265562.956 6  -1031132.930 6   -780650.43848  21265562.55048
  20442207.073 7  -1737657.270 7  -1331953.16449  20442207.80049
  22773711.667 6  -1684172.488 6  -1280164.14549  22773712.20249
  23070698.011 6  -2500857.254 6  -1910488.80947  23070696.56247
  21365250.433 6   -769802.996 6   -585322.16848  21365247.31548
  22796638.995 5   -603772.500 5   -454259.75047  22796640.58947
  19957921.230 7  -1000819.996 7   -755559.17649  19957920.89049
  23441054.722 5   -340476.988 5   -261200.28547  23441053.78047
 20  5 16  1 44 22.9990000  0  8G04G08G09G11G16G26G27G31             0.000379408
  21265037.440 6  -1033893.855 6   -782801.80948  21265036.78448
  20441289.651 7  -1742477.723 7  -1335709.37149  20441290.49949
  22772827.003 6  -1688825.750 6  -1283790.06649  22772826.89049
  23069401.370 6  -2507675.645 6  -1915801.84447  23069399.06247
  21364833.620 6   -771993.223 6   -587028.84048  21364831.02648
  22796313.159 5   -605482.938 5   -455592.56347  22796315.40947
  19957411.362 7  -1003498.004 7   -757645.93849  19957411.29649
  23440877.995 5   -341406.512 5   -261924.59847  23440876.41347
 20  5 16  1 44 23.9990000  0  8G04G08G09G11G16G26G27G31             0.000377230
  21264512.175 6  -1036654.434 6   -784952.91048  21264511.72248
  20440372.433 7  -1747297.898 7  -1339465.35249  20440373.42149
  22771941.019 6  -1693478.680 6  -1287415.72749  22771941.45249
  23068103.597 6  -2514494.156 6  -1921114.97347  23068101.08147
  21364416.683 6   -774183.645 6   -588735.66448  21364413.91748
  22795987.753 5   -607193.590 5   -456925.53547  22795989.82747
  19956901.792 7  -1006175.707 7   -759732.45749  19956901.79249
  23440701.042 5   -342336.043 5   -262648.91047  23440700.34347
 20  5 16  1 44 24.9990000  0  8G04G08G09G11G16G26G27G31             0.000375048
  21263987.183 6  -1039414.660 6   -787103.73448  21263986.49548
  20439455.339 7  -1752117.734 7  -1343221.07049  20439456.26949
  22771055.495 6  -1698131.246 6  -1291041.10249  22771055.78449
  23066806.019 6  -2521312.789 6  -1926428.19947  23066804.12047
  21363999.964 6   -776374.227 6   -590442.60948  21363997.51948
  22795662.019 5   -608904.461 5   -458258.68447  22795664.38247
  19956392.198 7  -1008853.016 7   -761818.66849  19956392.06549
  23440523.987 5   -343265.516 5   -263373.18047  23440523.15947
 20  5 16  1 44 25.9990000  0  8G04G08G09G11G16G26G27G31             0.000372869
  21263461.487 6  -1042174.492 6   -789254.25848  21263461.28048
  20438538.425 7  -1756937.262 7  -1346976.54349  20438538.84349
  22770170.214 6  -1702783.484 6  -1294666.21949  22770170.66749
  23065508.105 5  -2528131.527 5  -1931741.50447  23065506.14047
  21363583.159 6   -778564.984 6   -592149.69148  21363580.24548
  22795336.878 5   -610615.613 5   -459592.03947  22795338.29647
  19955882.495 7  -1011529.965 7   -763904.60549  19955882.71049
  23440347.128 5   -344194.957 5   -264097.41447  23440345.95647
 20  5 16  1 44 26.9990000  0  8G04G08G09G11G16G26G27G31             0.000370687
  21262936.526 6  -1044933.965 6   -791404.49648  21262936.20248
  20437621.425 7  -1761756.441 7  -1350731.74249  20437621.86249
  22769285.011 6  -1707435.375 6  -1298291.06649  22769285.64049
  23064210.573 5  -2534950.387 5  -1937054.89847  23064208.99547
  21363166.042 6   -780755.887 6   -593856.89148  21363163.28848
  22795011.261 5   -612326.918 5   -460925.52347  22795012.65947
  19955373.425 7  -1014206.543 7   -765990.25049  19955373.69049
  23440170.503 5   -345124.344 5   -264821.61347  23440169.14447
 20  5 16  1 44 27.9990000  0  8G04G08G09G11G16G26G27G31             0.000368509
  21262411.386 6  -1047693.039 6   -793554.41448  21262410.90948
  20436704.565 7  -1766575.234 7  -1354486.65249  20436705.21449
  22768399.722 6  -1712086.844 6  -1301915.58649  22768400.55449
  23062912.534 5  -2541769.309 5  -1942368.33647  23062911.20247
  21362749.448 6   -782946.922 6   -595564.19148  21362746.05048
  22794685.269 5   -614038.410 5   -462259.15647  22794686.94047
  19954864.003 7  -1016882.719 7   -768075.57849  19954864.31249
  23439993.315 5   -346053.645 5   -265545.74647  23439992.42947
 20  5 16  1 44 28.9990000  0  8G04G08G09G11G16G26G27G31             0.000366327
  21261886.433 6  -1050451.746 6   -795704.05948  21261886.12448
  20435787.636 7  -1771393.695 7  -1358241.28949  20435788.08549
  22767514.542 6  -1716738.016 6  -1305539.87949  22767514.84349
  23061615.323 5  -2548588.363 5  -1947681.88347  23061613.46447
  21362332.448 6   -785138.125 6   -597271.62548  21362329.35148
  22794358.730 5   -615750.172 5   -463593.00047  22794361.27647
  19954355.120 7  -1019558.551 7   -770160.64549  19954355.01549
  23439816.401 5   -346982.922 5   -266269.85547  23439815.52247
 20  5 16  1 44 29.9990000  0  8G04G08G09G11G16G26G27G31             0.000364149
  21261361.292 6  -1053210.035 6   -797853.37548  21261361.19848
  20434870.698 7  -1776211.766 7  -1361995.63349  20434871.51949
  22766629.886 6  -1721388.758 6  -1309163.83249  22766630.32349
  23060317.589 5  -2555407.488 5  -1952995.48447  23060315.85547
  21361915.167 6   -787329.441 6   -598979.13748  21361912.61648
  22794033.862 5   -617462.113 5   -464926.98447  22794035.81547
  19953845.894 7  -1022233.980 7   -772245.40249  19953846.17149
  23439639.847 5   -347912.105 5   -266993.89847  23439638.57747
 20  5 16  1 44 30.9990000  0  8G04G08G09G11G16G26G27G31             0.000361965
  21260836.714 6  -1055968.004 6   -800002.44548  21260836.02248
  20433953.394 7  -1781029.566 7  -1365749.76649  20433954.23349
  22765744.589 6  -1726039.238 6  -1312787.58649  22765745.73049
  23059020.315 6  -2562226.750 6  -1958309.19947  23059018.06247
  21361498.230 6   -789520.969 6   -600686.82448  21361495.76548
  22793707.565 5   -619174.305 5   -466261.16847  22793709.41747
  19953336.878 7  -1024909.066 7   -774329.88349  19953336.97649
  23439463.245 5   -348841.309 5   -267717.94947  23439461.97247
 20  5 16  1 44 31.9990000  0  8G04G08G09G11G16G26G27G31             0.000359787
  21260312.394 6  -1058725.602 6   -802151.21948  21260311.36648
  20433036.917 7  -1785847.031 7  -1369503.62949  20433037.40149
  22764860.058 6  -1730689.352 6  -1316411.05549  22764860.48749
  23057722.784 6  -2569046.117 6  -1963622.98047  23057720.96847
  21361080.972 6   -791712.664 6   -602394.63348  21361078.39048
  22793382.097 5   -620886.711 5   -467595.50847  22793383.56947
  19952827.605 7  -1027583.813 7   -776414.10249  19952828.34749
  23439285.683 5   -349770.477 5   -268441.98047  23439285.15547
 20  5 16  1 44 32.9990000  0  8G04G08G09G11G16G26G27G31             0.000357605
  21259787.472 6  -1061482.754 6   -804299.64848  21259786.98048
  20432120.370 7  -1790664.094 7  -1373257.18849  20432121.23349
  22763974.511 5  -1735339.035 5  -1320034.18049  22763975.27649
  23056424.808 5  -2575865.535 5  -1968936.80947  23056422.82747
  21360664.331 6   -793904.441 6   -604102.52048  21360661.54648
  22793056.253 5   -622599.270 5   -468929.96547  22793057.90147
  19952319.065 7  -1030258.109 7   -778497.96949  19952319.35849
  23439109.190 5   -350699.492 5   -269165.89547  23439108.70247
 20  5 16  1 44 33.9990000  0  8G04G08G09G11G16G26G27G31             0.000355425
  21259262.870 6  -1064239.609 6   -806447.85248  21259262.26948
  20431204.081 7  -1795480.883 7  -1377010.53149  20431204.39749
  22763090.667 6  -1739988.461 6  -1323657.11349  22763090.93749
  23055127.300 6  -2582685.117 6  -1974250.77047  23055125.08547
  21360246.722 6   -796096.469 6   -605810.59448  21360244.26948
  22792730.659 5   -624312.113 5   -470264.64847  22792731.97247
  19951810.417 7  -1032932.125 7   -780581.61749  19951810.23049
  23438932.503 5   -351628.551 5   -269889.83647  23438931.48047
 20  5 16  1 44 34.9990000  0  8G04G08G09G11G16G26G27G31             0.000353241
  21258738.362 6  -1066996.063 6   -808595.73848  21258738.27248
  20430287.448 7  -1800297.297 7  -1380763.57849  20430288.00749
  22762205.815 5  -1744637.473 5  -1327279.72349  22762206.01149
  23053829.355 6  -2589504.781 6  -1979564.78947  23053827.09347
  21359829.698 6   -798288.594 6   -607518.74248  21359826.90148
  22792404.589 5   -626025.178 5   -471599.51147  22792405.96047
  19951301.269 7  -1035605.707 7   -782664.92649  19951301.80049
  23438755.933 5   -352557.543 5   -270613.72747  23438754.91347
 20  5 16  1 44 35.9990000  0  8G04G08G09G11G16G26G27G31             0.000351063
  21258214.136 6  -1069752.055 6   -810743.26648  21258213.35848
  20429370.690 7  -1805113.316 7  -1384516.32449  20429371.52649
  22761320.831 5  -1749286.090 5  -1330902.02049  22761321.64049
  23052532.190 6  -2596324.477 6  -1984878.84047  23052529.65547
  21359412.644 6   -800480.832 6   -609226.97748  21359409.87048
  22792078.855 5   -627738.367 5   -472934.46947  22792079.68347
  19950792.464 7  -1038278.895 7   -784747.93049  19950792.85849
  23438579.276 5   -353486.379 5   -271337.49647  23438578.16747
 20  5 16  1 44 36.9990000  0  8G04G08G09G11G16G26G27G31             0.000348879
  21257689.394 6  -1072507.680 6   -812890.50448  21257689.08948
  20428454.425 7  -1809928.965 7  -1388268.77349  20428455.22649
  22760436.495 5  -1753934.336 5  -1334524.02749  22760437.10849
  23051233.862 6  -2603144.277 6  -1990192.97747  23051231.70647
  21358994.901 6   -802673.211 6   -610935.32848  21358992.81248
  22791752.659 5   -629451.758 5   -474269.57447  22791753.71847
  19950283.956 7  -1040951.680 7   -786830.62149  19950284.28449
  23438402.620 5   -354415.199 5   -272061.25847  23438401.16747
 20  5 16  1 44 37.9990000  0  8G04G08G09G11G16G26G27G31             0.000346699
  21257165.425 6  -1075262.883 6   -815037.42248  21257164.75348
  20427538.378 7  -1814744.246 7  -1392020.94149  20427538.73749
  22759552.394 5  -1758582.164 5  -1338145.71149  22759552.52649
  23049936.198 6  -2609964.094 6  -1995507.11347  23049933.74147
  21358578.151 6   -804865.727 6   -612643.77748  21358575.56548
  22791426.464 5   -631165.340 5   -475604.82447  22791427.76547
  19949775.362 7  -1043624.047 7   -788912.98449  19949775.82349
  23438225.769 5   -355343.906 5   -272784.93447  23438224.73047
 20  5 16  1 44 38.9990000  0  8G04G08G09G11G16G26G27G31             0.000344515
  21256641.222 6  -1078017.813 6   -817184.12148  21256640.48748
  20426621.784 7  -1819559.273 7  -1395772.91449  20426622.42949
  22758668.105 6  -1763229.773 6  -1341767.22349  22758668.42949
  23048638.698 6  -2616784.129 6  -2000821.42247  23048636.22647
  21358160.698 6   -807058.469 6   -614352.40648  21358158.66748
  22791100.003 5   -632879.219 5   -476940.31347  22791101.68747
  19949266.917 7  -1046296.148 7   -790995.14149  19949267.26549
  23438048.980 5   -356272.672 5   -273508.64547  23438047.89747
 20  5 16  1 44 39.9990000  0  8G04G08G09G11G16G26G27G31             0.000342337
  21256116.698 6  -1080772.395 6   -819330.54748  21256116.41348
  20425705.706 7  -1824374.012 7  -1399524.65249  20425706.37049
  22757783.612 6  -1767877.063 6  -1345388.48849  22757783.94449
  23047340.886 6  -2623604.305 6  -2006135.84847  23047338.20647
  21357743.206 6   -809251.387 6   -616061.17648  21357741.20248
  22790773.730 5   -634593.367 5   -478276.01247  22790775.46047
  19948758.659 7  -1048967.922 7   -793077.04349  19948758.58149
  23437871.964 5   -357201.410 5   -274232.33647  23437871.08547
 20  5 16  1 44 40.9990000  0  8G04G08G09G11G16G26G27G31             0.000340151
  21255593.089 6  -1083526.660 6   -821476.72748  21255592.04248
  20424789.378 7  -1829188.461 7  -1403276.17249  20424790.04649
  22756899.558 6  -1772524.023 6  -1349009.49249  22756899.76949
  23046042.636 6  -2630424.633 6  -2011450.38347  23046040.68747
  21357326.112 6   -811444.512 6   -617770.10248  21357323.78448
  22790446.917 5   -636307.758 5   -479611.90247  22790449.31547
  19948250.097 7  -1051639.355 7   -795158.68449  19948250.27649
  23437695.487 5   -358130.164 5   -274956.04347  23437694.39747
 20  5 16  1 44 41.9990000  0  8G04G08G09G11G16G26G27G31             0.000337971
  21255068.620 6  -1086280.543 6   -823622.60548  21255068.17548
  20423873.183 7  -1834002.551 7  -1407027.41449  20423873.62849
  22756015.261 6  -1777170.605 6  -1352630.20349  22756015.73349
  23044744.737 6  -2637245.074 6  -2016765.01647  23044742.52247
  21356908.690 6   -813637.805 6   -619479.16048  21356906.65548
  22790120.980 5   -638022.422 5   -480948.02047  22790122.79247
  19947741.964 7  -1054310.449 7   -797240.05149  19947741.98749
  23437518.339 5   -359058.859 5   -275679.70347  23437517.48747
 20  5 16  1 44 42.9990000  0  8G04G08G09G11G16G26G27G31             0.000335787
  21254544.472 6  -1089034.156 6   -825768.28148  21254544.28848
  20422957.073 7  -1838816.402 7  -1410778.46949  20422958.01549
  22755130.948 6  -1781816.965 6  -1356250.74649  22755130.94049
  23043447.026 6  -2644065.727 6  -2022079.81347  23043444.83547
  21356491.011 6   -815831.363 6   -621188.43048  21356488.73748
  22789794.698 5   -639737.316 5   -482284.30147  22789796.48347
  19947233.519 7  -1056981.270 7   -799321.20749  19947233.81949
  23437341.550 5   -359987.605 5   -276403.39847  23437341.01147
 20  5 16  1 44 43.9990000  0  8G04G08G09G11G16G26G27G31             0.000333607
  21254020.730 6  -1091787.484 6   -827913.72748  21254020.30848
  20422041.339 7  -1843630.016 7  -1414529.33249  20422042.05449
  22754246.472 6  -1786463.063 6  -1359871.08249  22754247.09749
  23042149.019 6  -2650886.527 6  -2027394.71947  23042146.57347
  21356073.745 6   -818025.137 6   -622897.86348  21356071.15948
  22789468.745 5   -641452.590 5   -483620.87947  22789470.18347
  19946725.190 7  -1059651.781 7   -801402.12549  19946725.72649
  23437164.730 5   -360916.402 5   -277127.14847  23437164.07347
 20  5 16  1 44 44.9990000  0  8G04G08G09G11G16G26G27G31             0.000331421
  21253496.901 6  -1094540.410 6   -830058.86748  21253496.22648
  20421125.417 7  -1848443.266 7  -1418279.91049  20421125.61649
  22753362.300 6  -1791108.805 6  -1363491.14849  22753363.05449
  23040850.909 6  -2657707.473 6  -2032709.73847  23040849.03447
  21355656.237 6   -820219.094 6   -624607.43848  21355653.95248
  22789142.386 5   -643168.047 5   -484957.59447  22789143.65547
  19946217.206 7  -1062321.930 7   -803482.75849  19946217.43749
  23436988.542 5   -361845.156 5   -277850.85247  23436987.49147
 20  5 16  1 44 45.9990000  0  8G04G08G09G11G16G26G27G31             0.000329241
  21252972.901 6  -1097292.984 6   -832203.73448  21252972.69048
  20420209.464 7  -1853256.180 7  -1422030.23849  20420209.94449
  22752478.589 6  -1795754.180 6  -1367110.92249  22752479.19049
  23039552.894 6  -2664528.516 6  -2038024.84047  23039550.98047
  21355238.886 6   -822413.188 6   -626317.11748  21355236.20648
  22788815.776 5   -644883.723 5   -486294.48047  22788817.55047
  19945709.253 7  -1064991.707 7   -805563.10549  19945709.71049
  23436811.511 5   -362773.832 5   -278574.49647  23436810.56547
 20  5 16  1 44 46.9990000  0  8G04G08G09G11G16G26G27G31             0.000327055
  21252449.378 6  -1100045.180 6   -834348.30548  21252448.91348
  20419293.651 7  -1858068.754 7  -1425780.30149  20419294.45249
  22751594.839 6  -1800399.191 6  -1370730.41049  22751594.53849
  23038254.917 6  -2671349.633 6  -2043339.99247  23038252.99947
  21354821.214 6   -824607.453 6   -628026.94148  21354818.72648
  22788488.769 5   -646599.633 5   -487631.55547  22788490.87447
  19945201.261 7  -1067661.117 7   -807643.16849  19945201.49549
  23436634.487 5   -363702.453 5   -279298.10247  23436633.96047
 20  5 16  1 44 47.9990000  0  8G04G08G09G11G16G26G27G31             0.000324875
  21251925.565 6  -1102796.926 6   -836492.52348  21251925.07748
  20418377.683 7  -1862880.953 7  -1429530.07049  20418378.88649
  22750711.198 6  -1805043.793 6  -1374349.58249  22750710.81249
  23036956.362 6  -2678170.832 6  -2048655.21147  23036954.82747
  21354403.737 6   -826801.813 6   -629736.83648  21354401.24548
  22788162.511 5   -648315.660 5   -488968.72747  22788164.23347
  19944693.269 7  -1070330.102 7   -809722.89549  19944693.75349
  23436458.230 5   -364630.973 5   -280021.62147  23436457.25347
 20  5 16  1 44 48.9990000  0  8G04G08G09G11G16G26G27G31             0.000322689
  21251402.128 6  -1105548.215 6   -838636.38748  21251401.49948
  20417462.159 7  -1867692.688 7  -1433279.46949  20417463.01149
  22749827.261 6  -1809687.969 6  -1377968.41449  22749827.38249
  23035658.417 6  -2684992.000 6  -2053970.41047  23035657.10147
  21353986.331 6   -828996.234 6   -631446.77748  21353983.97248
  22787835.589 5   -650031.832 5   -490306.00047  22787837.71447
  19944185.542 7  -1072998.625 7   -811802.27049  19944185.92149
  23436281.659 5   -365559.375 5   -280745.05147  23436280.58547
 20  5 16  1 44 49.9990000  0  8G04G08G09G11G16G26G27G31             0.000320509
  21250878.378 6  -1108299.246 6   -840780.04748  21250878.10148
  20416546.706 7  -1872504.195 7  -1437028.69949  20416547.37049
  22748943.394 6  -1814331.879 6  -1381587.04749  22748943.65149
  23034360.472 6  -2691813.402 6  -2059285.78147  23034359.02247
  21353568.519 6   -831190.922 6   -633156.92248  21353565.89448
  22787508.690 5   -651748.320 5   -491643.52347  22787511.35847
  19943677.808 7  -1075666.879 7   -813881.43049  19943678.01149
  23436105.190 5   -366487.840 5   -281468.53547  23436103.62847
 20  5 16  1 44 50.9990000  0  8G04G08G09G11G16G26G27G31             0.000318321
  21250355.589 6  -1111049.930 6   -842923.43048  21250354.75348
  20415631.175 7  -1877315.410 7  -1440777.69149  20415631.88649
  22748059.933 5  -1818975.449 5  -1385205.41049  22748060.13649
  23033062.581 6  -2698634.922 6  -2064601.24647  23033060.99147
  21353150.894 6   -833385.820 6   -634867.23448  21353148.31548
  22787182.065 5   -653465.059 5   -492981.24647  22787184.48047
  19943170.190 7  -1078334.816 7   -815960.33649  19943170.73049
  23435928.214 5   -367416.273 5   -282191.99247  23435926.92147
 20  5 16  1 44 51.9990000  0  8G04G08G09G11G16G26G27G31             0.000316141
  21249831.815 6  -1113800.172 6   -845066.48048  21249831.16348
  20414715.550 7  -1882126.227 7  -1444526.38749  20414716.32749
  22747175.534 6  -1823618.641 6  -1388823.49249  22747176.55049
  23031764.847 6  -2705456.492 6  -2069916.75447  23031762.84347
  21352733.355 6   -835580.813 6   -636577.62148  21352730.28848
  22786855.339 5   -655181.984 5   -494319.11347  22786857.79647
  19942662.558 7  -1081002.305 7   -818038.89849  19942662.67549
  23435751.597 5   -368344.609 5   -282915.37947  23435750.05047
 20  5 16  1 44 52.9990000  0  8G04G08G09G11G16G26G27G31             0.000313955
  21249308.386 6  -1116549.969 6   -847209.18448  21249307.88648
  20413800.269 7  -1886936.621 7  -1448274.74649  20413801.14049
  22746292.347 5  -1828261.379 5  -1392441.20749  22746293.27249
  23030466.456 6  -2712278.090 6  -2075232.28547  23030464.90547
  21352315.620 6   -837775.867 6   -638288.04748  21352313.07748
  22786529.019 5   -656899.027 5   -495657.07047  22786531.16747
  19942155.003 7  -1083669.375 7   -820117.13749  19942155.12449
  23435575.331 5   -369272.797 5   -283638.64147  23435573.57747
 20  5 16  1 44 53.9990000  0  8G04G08G09G11G16G26G27G31             0.000311773
  21248785.214 6  -1119299.430 6   -849351.62148  21248784.83148
  20412885.050 7  -1891746.711 7  -1452022.86749  20412885.61649
  22745409.276 5  -1832903.805 5  -1396058.68049  22745409.78849
  23029168.698 6  -2719099.816 6  -2080547.91447  23029167.24547
  21351897.558 6   -839971.137 6   -639998.64848  21351895.26548
  22786202.417 5   -658616.332 5   -496995.22747  22786204.40547
  19941647.776 7  -1086336.086 7   -822195.09049  19941647.76549
  23435398.698 5   -370201.000 5   -284361.91847  23435397.31547
 20  5 16  1 44 54.9990000  0  8G04G08G09G11G16G26G27G31             0.000309586
  21248261.917 6  -1122048.594 6   -851493.82048  21248261.68748
  20411969.636 7  -1896556.555 7  -1455770.79349  20411970.37849
  22744525.815 5  -1837545.980 5  -1399675.95749  22744526.19449
  23027869.964 6  -2725921.746 6  -2085863.70747  23027868.53047
  21351479.823 6   -842166.641 6   -641709.43048  21351477.35848
  22785875.589 5   -660333.926 5   -498333.61747  22785877.45247
  19941140.065 7  -1089002.539 7   -824272.84849  19941140.17149
  23435221.792 5   -371129.234 5   -285085.22347  23435220.52647
 20  5 16  1 44 55.9990000  0  8G04G08G09G11G16G26G27G31             0.000307404
  21247739.097 6  -1124797.344 6   -853635.70348  21247738.50348
  20411054.675 7  -1901365.988 7  -1459518.39849  20411055.43749
  22743642.042 6  -1842187.711 6  -1403292.89149  22743642.89449
  23026572.323 6  -2732743.707 6  -2091179.52047  23026570.77647
  21351062.120 6   -844362.246 6   -643420.28548  21351059.51148
  22785548.222 5   -662051.680 5   -499672.12947  22785550.55047
  19940632.987 7  -1091668.535 7   -826350.24249  19940632.81949
  23435044.980 5   -372057.367 5   -285808.44147  23435044.18747
 20  5 16  1 44 56.9990000  0  8G04G08G09G11G16G26G27G31             0.000305218
  21247216.151 6  -1127545.828 6   -855777.38748  21247215.67548
  20410139.136 7  -1906175.250 7  -1463265.87949  20410139.71049
  22742759.573 6  -1846829.227 6  -1406909.65249  22742759.50749
  23025273.909 6  -2739565.891 6  -2096495.50447  23025272.28447
  21350644.253 6   -846558.133 6   -645131.36748  21350641.67548
  22785221.472 5   -663769.773 5   -501010.90647  22785223.63647
  19940125.761 7  -1094334.305 7   -828427.46549  19940125.91749
  23434868.386 5   -372985.559 5   -286531.70347  23434867.69447
 20  5 16  1 44 57.9990000  0  8G04G08G09G11G16G26G27G31             0.000303036
  21246693.472 6  -1130294.027 6   -857918.84048  21246692.64448
  20409224.448 7  -1910984.238 7  -1467013.14549  20409224.40949
  22741876.448 6  -1851470.516 6  -1410526.24249  22741876.50749
  23023975.339 6  -2746388.293 6  -2101811.66047  23023973.89447
  21350226.440 6   -848754.289 6   -646842.66448  21350223.99548
  22784894.526 5   -665488.215 5   -502349.95747  22784896.88247
  19939618.300 7  -1096999.809 7   -830504.48849  19939618.62849
  23434691.800 5   -373913.828 5   -287255.03547  23434690.88247
 20  5 16  1 44 58.9990000  0  8G04G08G09G11G16G26G27G31             0.000300848
  21246170.417 6  -1133041.824 6   -860059.98048  21246169.71048
  20408309.355 7  -1915792.836 7  -1470760.10249  20408310.01949
  22740992.761 6  -1856111.375 6  -1414142.49249  22740993.12849
  23022677.620 6  -2753210.758 6  -2107127.86347  23022675.54647
  21349808.558 6   -850950.543 6   -648554.02748  21349805.93348
  22784568.003 5   -667206.801 5   -503689.11347  22784569.94047
  19939111.401 7  -1099664.883 7   -832581.16849  19939111.51949
  23434515.339 5   -374841.996 5   -287978.28547  23434514.12047
 20  5 16  1 44 59.9990000  0  8G04G08G09G11G16G26G27G31             0.000298666
  21245647.628 6  -1135789.125 6   -862200.73448  21245647.21048
  20407394.425 7  -1920600.957 7  -1474506.69549  20407394.83549
  22740109.855 6  -1860751.773 6  -1417758.38749  22740110.37449
  23021379.636 6  -2760033.168 6  -2112444.02347  23021377.50347
  21349390.433 6   -853146.836 6   -650265.42648  21349388.03048
  22784241.300 5   -668925.473 5   -505028.34447  22784242.56547
  19938603.987 7  -1102329.473 7   -834657.46549  19938604.18749
  23434338.831 5   -375769.977 5   -288701.38347  23434337.97247
 20  5 16  1 45  0.9990000  0  8G04G08G09G11G16G26G27G31             0.000296478
  21245124.714 6  -1138536.176 6   -864341.29748  21245124.36248
  20406479.284 7  -1925408.863 7  -1478253.11749  20406480.27649
  22739227.003 6  -1865391.902 6  -1421374.07849  22739226.86249
  23020081.144 6  -2766855.828 6  -2117760.38747  23020079.27647
  21348972.019 6   -855343.414 6   -651977.05148  21348969.78448
  22783913.550 5   -670644.492 5   -506367.84047  22783915.40947
  19938097.058 7  -1104993.824 7   -836733.58649  19938097.78849
  23434162.190 5   -376698.055 5   -289424.56347  23434160.78847
 20  5 16  1 45  1.9990000  0  8G04G08G09G11G16G26G27G31             0.000294294
  21244602.120 6  -1141282.836 6   -866481.55148  21244601.21448
  20405564.495 7  -1930216.434 7  -1481999.27049  20405565.10149
  22738344.620 6  -1870031.699 6  -1424989.50849  22738344.29249
  23018782.894 6  -2773678.578 6  -2123076.81647  23018780.98347
  21348554.112 6   -857540.160 6   -653688.79348  21348551.77248
  22783586.331 5   -672363.746 5   -507707.51647  22783588.21447
  19937590.276 7  -1107657.801 7   -838809.41449  19937590.46449
  23433985.011 5   -377626.070 5   -290147.69147  23433984.55447
 20  5 16  1 45  2.9990000  0  8G04G08G09G11G16G26G27G31             0.000292109
  21244079.628 6  -1144029.168 6   -868621.54748  21244079.01548
  20404649.534 7  -1935023.695 7  -1485745.18449  20404650.21849
  22737461.550 6  -1874671.184 6  -1428604.69149  22737461.78449
  23017483.886 6  -2780501.441 6  -2128393.32847  23017482.21847
  21348136.425 6   -859737.086 6   -655400.68448  21348133.59748
  22783259.550 5   -674083.238 5   -509047.37947  22783261.03847
  19937083.526 7  -1110321.438 7   -840884.97749  19937083.37049
  23433809.175 5   -378554.082 5   -290870.82047  23433808.11247
 20  5 16  1 45  3.9990000  0  8G04G08G09G11G16G26G27G31             0.000289925
  21243556.620 6  -1146775.238 6   -870761.34048  21243556.52648
  20403734.948 7  -1939830.691 7  -1489490.89849  20403735.40149
  22736578.815 6  -1879310.430 6  -1432219.68849  22736579.01949
  23016185.269 6  -2787324.543 6  -2133710.02747  23016183.98747
  21347718.183 6   -861934.285 6   -657112.79348  21347715.61248
  22782932.355 5   -675803.047 5   -510387.48847  22782933.78447
  19936576.636 7  -1112984.809 7   -842960.33249  19936576.32349
  23433632.542 5   -379482.145 5   -291593.98447  23433631.69047
 20  5 16  1 45  4.9990000  0  8G04G08G09G11G16G26G27G31             0.000287737
  21243034.386 6  -1149520.898 6   -872900.81648  21243033.67548
  20402820.339 7  -1944637.375 7  -1493236.36749  20402820.99149
  22735696.105 6  -1883949.277 6  -1435834.37549  22735696.16749
  23014886.901 6  -2794147.703 6  -2139026.77747  23014885.26147
  21347300.034 6   -864131.613 6   -658824.99648  21347297.49948
  22782604.714 5   -677523.035 5   -511727.74647  22782606.65147
  19936069.940 7  -1115647.809 7   -845035.39149  19936069.99149
  23433456.292 5   -380410.137 5   -292317.10247  23433455.13247
 20  5 16  1 45  5.9990000  0  8G04G08G09G11G16G26G27G31             0.000285553
  21242512.105 6  -1152266.055 6   -875039.89548  21242511.63248
  20401905.237 7  -1949443.582 7  -1496981.46149  20401906.44849
  22734812.870 6  -1888587.629 6  -1439448.67649  22734813.35149
  23013588.690 6  -2800970.832 6  -2144343.49647  23013587.10147
  21346881.651 6   -866328.988 6   -660537.23448  21346879.43748
  22782277.808 5   -679243.129 5   -513068.08647  22782279.19447
  19935563.206 7  -1118310.313 7   -847110.07449  19935563.15549
  23433279.698 5   -381337.957 5   -293040.07447  23433278.21047
 20  5 16  1 45  6.9990000  0  8G04G08G09G11G16G26G27G31             0.000283365
  21241989.651 6  -1155011.004 6   -877178.81648  21241988.94848
  20400990.831 7  -1954249.582 7  -1500726.39549  20400991.69049
  22733930.909 6  -1893225.773 6  -1443062.81349  22733930.76549
  23012289.745 6  -2807794.254 6  -2149660.44547  23012288.19447
  21346464.050 6   -868526.652 6   -662249.70348  21346461.11648
  22781950.190 5   -680963.594 5   -514408.71147  22781951.64747
  19935056.487 7  -1120972.570 7   -849184.56349  19935056.79649
  23433103.214 5   -382265.863 5   -293763.12947  23433101.81247
 20  5 16  1 45  7.9990000  0  8G04G08G09G11G16G26G27G31             0.000281181
  21241467.175 6  -1157755.668 6   -879317.51648  21241467.06248
  20400076.472 7  -1959055.340 7  -1504471.13749  20400077.24549
  22733047.667 6  -1897863.672 6  -1446676.75449  22733047.94849
  23010991.855 6  -2814617.809 6  -2154977.50447  23010990.23047
  21346045.667 6   -870724.586 6   -663962.37148  21346043.20248
  22781622.745 5   -682684.352 5   -515749.56347  22781624.10147
  19934550.198 7  -1123634.590 7   -851258.85949  19934550.26549
  23432926.440 5   -383193.859 5   -294486.23847  23432925.08147
 20  5 16  1 45  8.9990000  0  8G04G08G09G11G16G26G27G31             0.000278992
  21240944.800 6  -1160500.047 6   -881455.99648  21240944.71448
  20399162.097 7  -1963860.855 7  -1508215.69549  20399162.59349
  22732165.558 6  -1902501.305 6  -1450290.49249  22732165.82349
  23009693.159 6  -2821441.578 6  -2160294.72347  23009691.31547
  21345627.167 6   -872922.770 6   -665675.24648  21345624.78448
  22781295.276 5   -684405.445 5   -517090.67247  22781296.84747
  19934043.730 7  -1126296.320 7   -853332.93849  19934043.81549
  23432749.605 5   -384121.863 5   -295209.36747  23432748.82347
 20  5 16  1 45  9.9990000  0  8G04G08G09G11G16G26G27G31             0.000276808
  21240422.776 6  -1163244.129 6   -883594.24248  21240422.25348
  20398247.784 7  -1968666.125 7  -1511960.07049  20398248.35149
  22731283.019 6  -1907138.695 6  -1453904.04749  22731283.12849
  23008394.597 6  -2828265.547 6  -2165612.10247  23008392.79647
  21345209.112 6   -875121.188 6   -667388.29348  21345206.44448
  22780967.706 5   -686126.836 5   -518432.01247  22780968.95247
  19933537.120 7  -1128957.758 7   -855406.78549  19933537.06949
  23432573.401 5   -385049.926 5   -295932.53147  23432572.31547
 20  5 16  1 45 10.9990000  0  8G04G08G09G11G16G26G27G31             0.000274618
  21239900.784 6  -1165987.801 6   -885732.16448  21239900.17148
  20397333.355 7  -1973470.953 7  -1515704.09449  20397334.18749
  22730400.636 6  -1911775.641 6  -1457517.25449  22730400.79249
  23007095.940 6  -2835089.578 6  -2170929.52747  23007094.29647
  21344790.847 6   -877319.703 6   -669101.43048  21344787.89448
  22780639.565 5   -687848.367 5   -519773.47347  22780641.65547
  19933030.737 7  -1131618.770 7   -857480.30549  19933031.01949
  23432396.292 5   -385977.852 5   -296655.58647  23432395.44447
 20  5 16  1 45 11.9990000  0  8G04G08G09G11G16G26G27G31             0.000272434
  21239378.433 6  -1168731.203 6   -887869.88348  21239378.05848
  20396419.089 7  -1978275.613 7  -1519447.98049  20396420.16349
  22729518.042 6  -1916412.410 6  -1461130.32049  22729518.60549
  23005797.401 6  -2841913.824 6  -2176247.12547  23005795.47247
  21344372.136 6   -879518.527 6   -670814.80148  21344369.65548
  22780312.159 5   -689570.277 5   -521115.21547  22780313.87447
  19932524.386 7  -1134279.574 7   -859553.65249  19932524.68349
  23432219.925 5   -386905.875 5   -297378.72747  23432218.78047
 20  5 16  1 45 12.9990000  0  8G04G08G09G11G16G26G27G31             0.000270245
  21238856.800 6  -1171474.305 6   -890007.35948  21238856.19448
  20395504.784 7  -1983079.973 7  -1523191.63749  20395505.51949
  22728636.120 6  -1921048.793 6  -1464743.09049  22728636.21449
  23004498.230 6  -2848738.203 6  -2181564.82447  23004497.24547
  21343953.901 6   -881717.539 6   -672528.31348  21343950.75748
  22779984.370 5   -691292.406 5   -522457.13747  22779986.32747
  19932018.058 7  -1136940.023 7   -861626.72749  19932018.50349
  23432043.198 5   -387833.895 5   -298101.86347  23432042.34747
 20  5 16  1 45 13.9990000  0  8G04G08G09G11G16G26G27G31             0.000268059
  21238335.440 6  -1174216.938 6   -892144.48448  21238334.62048
  20394591.159 7  -1987883.883 7  -1526934.94549  20394591.54649
  22727753.261 6  -1925684.750 6  -1468355.52349  22727753.70249
  23003200.003 6  -2855562.570 6  -2186882.51247  23003198.35547
  21343535.409 6   -883916.594 6   -674241.87148  21343532.68748
  22779656.667 5   -693014.672 5   -523799.16447  22779658.56247
  19931511.855 7  -1139600.035 7   -863699.47349  19931511.89749
  23431866.534 5   -388761.793 5   -298824.89847  23431865.41747
 20  5 16  1 45 14.9990000  0  8G04G08G09G11G16G26G27G31             0.000265869
  21237813.276 6  -1176959.234 6   -894281.34048  21237812.74148
  20393676.573 7  -1992687.566 7  -1530678.07449  20393677.15949
  22726871.823 6  -1930320.457 6  -1471967.75849  22726871.53849
  23001901.292 6  -2862387.129 6  -2192200.34847  23001899.61247
  21343116.917 6   -886115.895 6   -675955.60948  21343113.94448
  22779328.980 5   -694737.258 5   -525141.44147  22779331.15147
  19931005.636 7  -1142259.723 7   -865771.94949  19931006.12449
  23431689.823 5   -389689.695 5   -299547.94547  23431688.89447
 20  5 16  1 45 15.9990000  0  8G04G08G09G11G16G26G27G31             0.000263685
  21237291.331 6  -1179701.184 6   -896417.92248  21237290.62048
  20392762.815 7  -1997490.852 7  -1534420.89849  20392763.05049
  22725989.597 6  -1934955.797 6  -1475579.71549  22725989.41349
  23000602.894 6  -2869211.781 6  -2197518.25647  23000601.28847
  21342698.003 6   -888315.359 6   -677669.47748  21342695.26948
  22779000.878 5   -696460.031 5   -526483.86747  22779002.98747
  19930499.636 7  -1144919.063 7   -867844.16449  19930499.70649
  23431513.019 5   -390617.531 5   -300270.93847  23431512.45647
 20  5 16  1 45 16.9990000  0  8G04G08G09G11G16G26G27G31             0.000261496
  21236769.519 6  -1182442.828 6   -898554.27048  21236769.02248
  20391848.862 7  -2002293.871 7  -1538163.50449  20391849.19849
  22725107.308 6  -1939590.828 6  -1479191.43049  22725107.69849
  22999303.714 5  -2876036.664 5  -2202836.34847  22999302.38247
  21342279.683 6   -890515.063 6   -679383.52748  21342277.14048
  22778673.433 5   -698183.133 5   -527826.53947  22778675.15547
  19929993.745 7  -1147578.102 7   -869916.14149  19929994.28449
  23431336.776 5   -391545.449 5   -300993.99647  23431335.90147
 20  5 16  1 45 17.9990000  0  8G04G08G09G11G16G26G27G31             0.000259310
  21236248.190 6  -1185184.121 6   -900690.34848  21236247.44448
  20390934.589 7  -2007096.582 7  -1541905.87949  20390935.30049
  22724225.769 6  -1944225.563 6  -1482802.90649  22724225.89449
  22998004.940 5  -2882861.605 5  -2208154.48447  22998003.76547
  21341861.183 6   -892714.938 6   -681097.71148  21341858.23048
  22778345.628 5   -699906.406 5   -529169.35547  22778347.14747
  19929487.620 7  -1150236.789 7   -871987.84449  19929488.03049
  23431160.464 5   -392473.313 5   -301717.00447  23431159.66347
 20  5 16  1 45 18.9990000  0  8G04G08G09G11G16G26G27G31             0.000257118
  21235726.331 6  -1187925.023 6   -902826.11348  21235725.70648
  20390020.917 7  -2011898.961 7  -1545647.99649  20390021.93349
  22723343.651 6  -1948859.902 6  -1486414.08649  22723343.81549
  22996706.183 5  -2889686.656 5  -2213472.70347  22996704.68747
  21341442.323 6   -894914.973 6   -682812.03148  21341439.59348
  22778016.987 5   -701629.918 5   -530512.35547  22778019.14447
  19928981.784 7  -1152895.129 7   -874059.27749  19928982.17949
  23430984.081 5   -393401.129 5   -302439.98447  23430982.89447
 20  5 16  1 45 19.9990000  0  8G04G08G09G11G16G26G27G31             0.000254932
  21235204.769 6  -1190665.582 6   -904961.60548  21235204.45648
  20389107.183 7  -2016701.004 7  -1549389.84449  20389107.83549
  22722462.214 6  -1953493.938 6  -1490025.02049  22722461.98749
  22995407.409 5  -2896511.820 5  -2218791.01247  22995406.01547
  21341023.573 6   -897115.160 6   -684526.45748  21341020.80448
  22777689.097 5   -703353.660 5   -531855.52747  22777690.96447
  19928475.964 7  -1155553.070 7   -876130.39849  19928476.13249
  23430806.987 5   -394328.895 5   -303162.91847  23430806.36647
 20  5 16  1 45 20.9990000  0  8G04G08G09G11G16G26G27G31             0.000252743
  21234683.495 6  -1193405.727 6   -907096.78948  21234682.99548
  20388193.269 7  -2021502.684 7  -1553131.40649  20388193.82349
  22721579.690 6  -1958127.543 6  -1493635.61749  22721580.25749
  22994109.128 5  -2903337.016 5  -2224109.34047  22994107.22647
  21340604.823 6   -899315.469 6   -686240.98848  21340602.12848
  22777361.042 5   -705077.605 5   -533198.85947  22777363.10147
  19927970.433 7  -1158210.648 7   -878201.24649  19927970.28049
  23430630.097 5   -395256.598 5   -303885.80547  23430630.01547
 20  5 16  1 45 21.9990000  0  8G04G08G09G11G16G26G27G31             0.000250557
  21234162.253 6  -1196145.520 6   -909231.68848  21234161.49948
  20387279.292 7  -2026304.055 7  -1556872.73849  20387280.26149
  22720698.761 6  -1962760.828 6  -1497245.96949  22720698.28049
  22992810.011 5  -2910162.367 5  -2229427.80547  22992808.33947
  21340186.300 6   -901515.977 6   -687955.67248  21340183.58148
  22777033.183 5   -706801.770 5   -534542.37547  22777035.30447
  19927464.839 7  -1160867.863 7   -880271.80149  19927464.80849
  23430453.870 5   -396184.258 5   -304608.66847  23430453.14747
 20  5 16  1 45 22.9990000  0  8G04G08G09G11G16G26G27G31             0.000248365
  21233640.769 6  -1198885.023 6   -911366.37148  21233640.10848
  20386365.886 7  -2031105.172 7  -1560613.87149  20386366.73349
  22719817.105 6  -1967393.840 6  -1500856.11349  22719816.69849
  22991511.362 6  -2916987.902 6  -2234746.40247  22991509.56947
  21339767.667 6   -903716.738 6   -689670.55148  21339764.53848
  22776704.714 5   -708526.254 5   -535886.11847  22776706.91347
  19926959.120 7  -1163524.816 7   -882342.15249  19926959.26549
  23430277.245 5   -397111.969 5   -305331.56647  23430276.90147
 20  5 16  1 45 23.9990000  0  8G04G08G09G11G16G26G27G31             0.000246180
  21233119.558 6  -1201624.086 6   -913500.70348  21233118.90148
  20385451.972 7  -2035905.852 7  -1564354.66049  20385452.89449
  22718934.855 6  -1972026.410 6  -1504465.91049  22718935.25749
  22990212.433 6  -2923813.445 6  -2240065.00047  22990210.48047
  21339348.433 6   -905917.551 6   -691385.46548  21339345.85548
  22776376.815 5   -710250.828 5   -537229.94547  22776378.72247
  19926453.636 7  -1166181.301 7   -884412.14149  19926453.68749
  23430101.339 5   -398039.535 5   -306054.34847  23430100.26547
 20  5 16  1 45 24.9990000  0  8G04G08G09G11G16G26G27G31             0.000243988
  21232598.097 6  -1204362.891 6   -915634.83648  21232597.49548
  20384538.722 7  -2040706.270 7  -1568095.24649  20384539.66749
  22718053.245 6  -1976658.777 6  -1508075.55149  22718053.87449
  22988913.565 6  -2930639.203 6  -2245383.77747  22988911.73747
  21338929.917 6   -908118.660 6   -693100.61348  21338927.46848
  22776047.980 5   -711975.746 5   -538574.03947  22776049.95647
  19925948.151 7  -1168837.531 7   -886481.93049  19925948.21449
  23429924.347 5   -398967.191 5   -306777.19947  23429923.70247
 20  5 16  1 45 25.9990000  0  8G04G08G09G11G16G26G27G31             0.000241800
  21232077.159 6  -1207101.176 6   -917768.56348  21232076.76148
  20383625.487 7  -2045506.270 7  -1571835.50849  20383625.97649
  22717172.620 6  -1981290.648 6  -1511684.79749  22717172.64049
  22987614.550 6  -2937464.953 6  -2250702.54347  22987612.62447
  21338510.737 6   -910319.781 6   -694815.77048  21338508.09748
  22775720.355 5   -713700.793 5   -539918.23847  22775722.22647
  19925443.159 7  -1171493.313 7   -888551.37149  19925442.94449
  23429747.464 5   -399894.664 5   -307499.90647  23429747.24947
 20  5 16  1 45 26.9990000  0  8G04G08G09G11G16G26G27G31             0.000239611
  21231556.026 6  -1209839.133 6   -919902.03948  21231555.78448
  20382712.136 7  -2050305.938 7  -1575575.50849  20382713.17549
  22716290.745 6  -1985922.148 6  -1515293.76649  22716291.23749
  22986315.347 6  -2944290.805 6  -2256021.39547  22986314.05047
  21338091.761 6   -912521.109 6   -696531.09448  21338089.53048
  22775391.878 5   -715426.090 5   -541262.62947  22775393.74547
  19924937.644 7  -1174148.707 7   -890620.51249  19924937.68349
  23429570.987 5   -400822.109 5   -308222.59847  23429570.77647
 20  5 16  1 45 27.9990000  0  8G04G08G09G11G16G26G27G31             0.000237423
  21231035.089 6  -1212576.750 6   -922035.25048  21231034.77648
  20381798.761 7  -2055105.336 7  -1579315.29749  20381799.25749
  22715409.573 6  -1990553.366 6  -1518902.50549  22715410.06249
  22985016.573 6  -2951116.813 6  -2261340.35947  22985015.03447
  21337672.878 6   -914722.625 6   -698246.56348  21337670.50748
  22775063.784 5   -717151.594 5   -542607.18047  22775065.43347
  19924432.105 7  -1176803.793 7   -892689.40649  19924432.42549
  23429394.940 5   -401749.551 5   -308945.28147  23429394.10847
 20  5 16  1 45 28.9990000  0  8G04G08G09G11G16G26G27G31             0.000235231
  21230514.222 6  -1215313.930 6   -924168.11348  21230513.94848
  20380885.808 7  -2059904.301 7  -1583054.75449  20380886.31249
  22714528.050 6  -1995184.188 6  -1522510.93849  22714528.67949
  22983717.769 6  -2957942.855 6  -2266659.35947  22983715.89447
  21337253.956 6   -916924.242 6   -699962.10548  21337251.61248
  22774735.901 5   -718877.281 5   -543951.87147  22774737.39747
  19923926.839 7  -1179458.473 7   -894757.98449  19923927.15149
  23429218.675 5   -402676.898 5   -309667.89147  23429217.84747
 20  5 16  1 45 29.9990000  0  8G04G08G09G11G16G26G27G31             0.000233044
  21229993.636 6  -1218050.754 6   -926300.70348  21229993.39748
  20379972.519 7  -2064702.969 7  -1586793.96949  20379973.05449
  22713647.386 6  -1999814.648 6  -1526119.09049  22713647.47249
  22982418.355 5  -2964768.984 5  -2271978.42247  22982417.26147
  21336834.605 6   -919126.039 6   -701677.79348  21336832.74548
  22774407.347 5   -720603.215 5   -545296.75847  22774408.78047
  19923421.987 7  -1182112.766 7   -896826.27049  19923422.08549
  23429041.659 5   -403604.195 5   -310390.46547  23429041.67147
 20  5 16  1 45 30.9990000  0  8G04G08G09G11G16G26G27G31             0.000230852
  21229472.597 6  -1220787.227 6   -928433.02348  21229472.48748
  20379059.253 7  -2069501.277 7  -1590532.91849  20379060.06249
  22712766.128 6  -2004444.758 6  -1529726.96149  22712766.11249
  22981119.972 5  -2971595.223 5  -2277297.57047  22981118.24947
  21336415.753 6   -921327.977 6   -703393.59048  21336413.54248
  22774078.683 5   -722329.324 5   -546641.77347  22774080.20647
  19922916.823 7  -1184766.707 7   -898894.28149  19922916.90949
  23428865.425 5   -404531.465 5   -311113.01247  23428865.02247
 20  5 16  1 45 31.9990000  0  8G04G08G09G11G16G26G27G31             0.000228664
  21228952.222 6  -1223523.262 6   -930564.99648  21228951.81948
  20378146.581 7  -2074299.191 7  -1594271.54749  20378147.16349
  22711885.230 6  -2009074.488 6  -1533334.54349  22711885.28849
  22979820.792 6  -2978421.543 6  -2282616.78147  22979819.16747
  21335996.612 6   -923530.059 6   -705109.49648  21335994.33948
  22773749.784 5   -724055.656 5   -547986.96947  22773751.82347
  19922411.769 7  -1187420.227 7   -900961.95349  19922412.15949
  23428688.605 5   -405458.633 5   -311835.48047  23428688.51947
 20  5 16  1 45 32.9990000  0  8G04G08G09G11G16G26G27G31             0.000226473
  21228431.839 6  -1226258.965 6   -932696.71548  21228431.33948
  20377233.636 7  -2079096.777 7  -1598009.93049  20377234.18749
  22711004.409 6  -2013703.848 6  -1536941.83649  22711004.15549
  22978521.839 5  -2985247.973 5  -2287936.07447  22978520.11647
  21335577.800 6   -925732.309 6   -706825.53948  21335575.47648
  22773420.800 5   -725782.215 5   -549332.34047  22773423.26147
  19921906.831 7  -1190073.422 7   -903029.37949  19921907.20249
  23428512.550 5   -406385.773 5   -312557.93047  23428511.90947
 20  5 16  1 45 33.9990000  0  8G04G08G09G11G16G26G27G31             0.000224285
  21227910.823 6  -1228994.336 6   -934828.17248  21227910.51548
  20376320.620 7  -2083894.066 7  -1601748.08249  20376321.37449
  22710123.472 6  -2018332.918 6  -1540548.90649  22710123.69049
  22977222.964 5  -2992074.527 5  -2293255.46547  22977221.32347
  21335158.644 6   -927934.770 6   -708541.74248  21335155.91748
  22773092.706 5   -727509.045 5   -550677.91847  22773094.40147
  19921402.300 7  -1192726.301 7   -905096.55949  19921402.72649
  23428336.026 5   -407312.910 5   -313280.37947  23428335.53847
 20  5 16  1 45 34.9990000  0  8G04G08G09G11G16G26G27G31             0.000222092
  21227390.784 6  -1231729.320 6   -936959.32848  21227390.35148
  20375407.792 7  -2088690.992 7  -1605485.94149  20375408.67549
  22709242.230 6  -2022961.633 6  -1544155.69949  22709242.87849
  22975923.862 6  -2998901.172 6  -2298574.92647  22975921.75747
  21334739.565 6   -930137.367 6   -710258.05948  21334737.10548
  22772763.690 5   -729236.051 5   -552023.63747  22772765.92547
  19920897.714 7  -1195378.797 7   -907163.43849  19920897.76149
  23428159.581 5   -408240.008 5   -314002.78147  23428158.91347
 20  5 16  1 45 35.9990000  0  8G04G08G09G11G16G26G27G31             0.000219904
  21226870.183 6  -1234463.973 6   -939090.23448  21226869.43348
  20374495.136 7  -2093487.617 7  -1609223.57049  20374495.52249
  22708361.800 6  -2027590.039 6  -1547762.25049  22708362.10849
  22974624.948 6  -3005727.945 6  -2303894.48847  22974622.61647
  21334320.105 6   -932340.180 6   -711974.53148  21334317.55448
  22772435.503 5   -730963.328 5   -553369.57047  22772437.03447
  19920392.698 7  -1198030.969 7   -909230.06649  19920393.16749
  23427983.034 5   -409167.109 5   -314725.20347  23427982.53847
 20  5 16  1 45 36.9990000  0  8G04G08G09G11G16G26G27G31             0.000217710
  21226349.909 6  -1237198.355 6   -941220.92248  21226349.52248
  20373582.417 7  -2098284.000 7  -1612961.01649  20373582.94849
  22707481.198 6  -2032218.152 6  -1551368.57049  22707481.41349
  22973325.534 6  -3012554.934 6  -2309214.21147  22973323.71847
  21333901.558 6   -934543.211 6   -713691.18448  21333898.82748
  22772106.956 5   -732690.874 5   -554715.71347  22772108.44847
  19919888.081 7  -1200682.832 7   -911296.45749  19919888.46449
  23427806.917 5   -410094.219 5   -315447.62147  23427805.83547
 20  5 16  1 45 37.9990000  0  8G04G08G09G11G16G26G27G31             0.000215523
  21225829.480 6  -1239932.254 6   -943351.23448  21225829.08548
  20372669.620 7  -2103079.953 7  -1616698.12549  20372670.07349
  22706600.417 6  -2036845.770 6  -1554974.50849  22706600.61649
  22972026.847 6  -3019381.891 6  -2314533.91847  22972024.71047
  21333481.980 6   -936746.313 6   -715407.88348  21333479.46848
  22771777.487 5   -734418.578 5   -556061.97747  22771779.78047
  19919383.558 7  -1203334.277 7   -913362.52049  19919383.92549
  23427630.573 5   -411021.180 5   -316169.93047  23427629.86647
 20  5 16  1 45 38.9990000  0  8G04G08G09G11G16G26G27G31             0.000213329
  21225309.526 6  -1242665.785 6   -945481.25448  21225308.78848
  20371757.019 7  -2107875.602 7  -1620434.99249  20371757.76149
  22705719.440 6  -2041473.102 6  -1558580.22749  22705720.35149
  22970727.144 6  -3026208.969 6  -2319853.71147  22970725.61647
  21333062.730 6   -938949.602 6   -717124.73448  21333060.31548
  22771448.901 5   -736146.535 5   -557408.43447  22771451.02247
  19918879.206 7  -1205985.352 7   -915428.28949  19918879.18749
  23427454.519 5   -411948.121 5   -316892.22347  23427453.46047
 20  5 16  1 45 39.9990000  0  8G04G08G09G11G16G26G27G31             0.000211140
  21224789.276 6  -1245398.957 6   -947611.00448  21224788.51548
  20370844.284 7  -2112670.879 7  -1624171.57449  20370845.28449
  22704839.003 6  -2046100.074 6  -1562185.65649  22704839.63249
  22969428.019 6  -3033036.184 6  -2325173.62147  22969426.35147
  21332643.378 6   -941153.051 6   -718841.71548  21332640.84748
  22771120.261 5   -737874.699 5   -558755.05547  22771122.33147
  19918374.745 7  -1208636.070 7   -917493.78549  19918374.99949
  23427277.972 5   -412875.031 5   -317614.49647  23427276.67147
 20  5 16  1 45 40.9990000  0  8G04G08G09G11G16G26G27G31             0.000208946
  21224269.159 6  -1248131.789 6   -949740.48048  21224268.69048
  20369931.980 7  -2117465.809 7  -1627907.87549  20369932.68349
  22703958.253 5  -2050726.699 5  -1565790.82049  22703959.10549
  22968128.667 6  -3039863.461 6  -2330493.57447  22968127.21447
  21332224.315 6   -943356.652 6   -720558.80948  21332221.82748
  22770791.159 5   -739603.008 5   -560101.79747  22770793.06947
  19917870.347 7  -1211286.426 7   -919559.00049  19917870.80049
  23427101.308 5   -413801.887 5   -318336.72747  23427100.51147
 20  5 16  1 45 41.9990000  0  8G04G08G09G11G16G26G27G31             0.000206758
  21223749.159 6  -1250864.320 6   -951869.72348  21223748.59348
  20369019.690 7  -2122260.535 7  -1631644.03149  20369020.62449
  22703078.175 6  -2055353.055 6  -1569395.77349  22703078.56249
  22966829.730 5  -3046690.953 5  -2335813.69547  22966827.95647
  21331804.987 6   -945560.539 6   -722276.12148  21331802.26148
  22770462.394 5   -741331.738 5   -561448.86747  22770463.65147
  19917366.128 7  -1213936.520 7   -921624.00449  19917365.84349
  23426924.511 5   -414728.789 5   -319058.98447  23426924.34747
 20  5 16  1 45 42.9990000  0  8G04G08G09G11G16G26G27G31             0.000204565
  21223230.011 6  -1253596.547 6   -953998.73448  21223229.02648
  20368107.300 7  -2127054.984 7  -1635379.96149  20368108.05049
  22702198.206 6  -2059979.125 6  -1573000.50449  22702198.74949
  22965530.581 6  -3053518.598 6  -2341133.93847  22965528.73047
  21331385.620 6   -947764.613 6   -723993.57848  21331382.80048
  22770133.605 5   -743060.676 5   -562796.09047  22770135.00347
  19916862.073 7  -1216586.297 7   -923688.76249  19916861.98749
  23426748.605 5   -415655.715 5   -319781.27047  23426747.64047
 20  5 16  1 45 43.9990000  0  8G04G08G09G11G16G26G27G31             0.000202375
  21222709.573 6  -1256328.402 6   -956127.44948  21222709.18348
  20367194.808 7  -2131849.070 7  -1639115.60949  20367195.64049
  22701318.190 6  -2064604.871 6  -1576604.97749  22701318.40949
  22964231.589 6  -3060346.352 6  -2346454.25447  22964229.53447
  21330966.378 6   -949968.852 6   -725711.16448  21330963.54248
  22769804.526 5   -744789.852 5   -564143.50447  22769805.81247
  19916357.933 7  -1219235.715 7   -925753.24249  19916357.74949
  23426572.190 5   -416582.598 5   -320503.52047  23426571.41747
 20  5 16  1 45 44.9990000  0  8G04G08G09G11G16G26G27G31             0.000200182
  21222189.644 6  -1259059.945 6   -958255.92648  21222189.06548
  20366282.878 7  -2136642.902 7  -1642851.06649  20366283.67949
  22700438.058 6  -2069230.309 6  -1580209.21149  22700438.07749
  22962932.534 6  -3067174.301 6  -2351774.73847  22962929.96447
  21330546.386 6   -952173.359 6   -727428.96148  21330543.95648
  22769475.245 5   -746519.336 5   -565491.15247  22769476.88247
  19915853.823 7  -1221884.855 7   -927817.50849  19915853.41749
  23426396.081 5   -417509.516 5   -321225.78947  23426395.11247
 20  5 16  1 45 45.9990000  0  8G04G08G09G11G16G26G27G31             0.000197990
  21221670.503 6  -1261791.160 6   -960384.14548  21221669.46048
  20365370.901 7  -2141436.375 7  -1646586.24249  20365371.40149
  22699557.667 6  -2073855.402 6  -1583813.18049  22699557.81249
  22961632.433 6  -3074002.309 6  -2357095.26247  22961630.57747
  21330127.136 6   -954378.012 6   -729146.87548  21330124.29648
  22769146.628 5   -748249.074 5   -566838.99647  22769147.78847
  19915349.690 7  -1224533.641 7   -929881.50049  19915349.94449
  23426219.620 5   -418436.375 5   -321948.02347  23426219.17947
 20  5 16  1 45 46.9990000  0  8G04G08G09G11G16G26G27G31             0.000195797
  21221150.198 6  -1264521.949 6   -962512.03148  21221149.64748
  20364458.675 7  -2146229.492 7  -1650321.14149  20364459.29649
  22698677.292 6  -2078480.094 6  -1587416.84049  22698677.94849
  22960333.440 6  -3080830.379 6  -2362415.84447  22960331.22247
  21329707.167 6   -956582.773 6   -730864.86748  21329704.66748
  22768817.042 5   -749978.934 5   -568186.94547  22768818.19047
  19914845.636 7  -1227182.023 7   -931945.18049  19914845.77249
  23426043.823 5   -419363.172 5   -322670.21147  23426042.40947
 20  5 16  1 45 47.9990000  0  8G04G08G09G11G16G26G27G31             0.000193607
  21220630.948 6  -1267252.340 6   -964639.61348  21220629.98048
  20363546.417 7  -2151022.238 7  -1654055.74649  20363547.25349
  22697797.823 6  -2083104.406 6  -1591020.21149  22697797.99149
  22959034.026 6  -3087658.523 6  -2367736.47747  22959031.85847
  21329287.722 6   -958787.672 6   -732582.97348  21329285.11648
  22768487.870 5   -751708.977 5   -569535.03947  22768489.56547
  19914341.519 7  -1229829.992 7   -934008.52749  19914341.56949
  23425867.605 5   -420289.867 5   -323392.31647  23425865.79647
 20  5 16  1 45 48.9990000  0  8G04G08G09G11G16G26G27G31             0.000191412
  21220110.847 6  -1269982.523 6   -966767.02348  21220110.64048
  20362634.589 7  -2155814.789 7  -1657790.19949  20362635.22649
  22696917.558 6  -2087728.504 6  -1594623.39849  22696917.95649
  22957734.909 6  -3094486.938 6  -2373057.31347  22957732.30447
  21328868.167 6   -960992.898 6   -734301.32848  21328865.60148
  22768158.159 5   -753439.441 5   -570883.46147  22768159.68747
  19913837.628 7  -1232477.766 7   -936071.73049  19913837.76549
  23425690.683 5   -421216.711 5   -324114.53547  23425689.64047
 20  5 16  1 45 49.9990000  0  8G04G08G09G11G16G26G27G31             0.000189222
  21219591.605 6  -1272712.262 6   -968894.10248  21219591.48048
  20361722.440 7  -2160606.957 7  -1661524.35949  20361723.18349
  22696038.214 6  -2092352.223 6  -1598226.29749  22696037.98349
  22956434.987 5  -3101315.406 5  -2378378.20347  22956433.26547
  21328448.190 6   -963198.230 6   -736019.76248  21328446.02248
  22767829.339 5   -755170.074 5   -572232.00047  22767830.46047
  19913333.956 7  -1235125.129 7   -938134.60949  19913334.05049
  23425514.745 5   -422143.434 5   -324836.66047  23425513.17947
 20  5 16  1 45 50.9990000  0  8G04G08G09G11G16G26G27G31             0.000187027
  21219072.144 6  -1275441.762 6   -971020.98048  21219071.53848
  20360810.605 7  -2165398.883 7  -1665258.32449  20360811.09349
  22695158.081 6  -2096975.691 6  -1601828.99649  22695158.35849
  22955135.839 6  -3108144.043 6  -2383699.21547  22955133.73347
  21328028.878 6   -965403.824 6   -737738.41048  21328025.93748
  22767499.573 5   -756901.000 5   -573580.76647  22767500.96847
  19912830.269 7  -1237772.234 7   -940197.28949  19912830.46849
  23425337.870 5   -423070.211 5   -325558.82847  23425336.55847
 20  5 16  1 45 51.9990000  0  8G04G08G09G11G16G26G27G31             0.000184835
  21218552.855 6  -1278170.992 6   -973147.65648  21218552.73348
  20359898.956 7  -2170190.563 7  -1668992.10249  20359899.12849
  22694278.737 6  -2101598.891 6  -1605431.48849  22694278.99149
  22953836.120 6  -3114972.914 6  -2389020.41447  22953834.44847
  21327608.964 6   -967609.680 6   -739457.26248  21327606.59348
  22767170.394 5   -758632.242 5   -574929.77747  22767171.44847
  19912326.581 7  -1240419.055 7   -942259.74649  19912326.62849
  23425161.558 5   -423997.059 5   -326281.03947  23425160.30847
 20  5 16  1 45 52.9990000  0  8G04G08G09G11G16G26G27G31             0.000182640
  21218033.847 6  -1280899.863 6   -975274.04748  21218033.63648
  20358986.972 7  -2174981.926 7  -1672725.63349  20358987.77249
  22693398.784 6  -2106221.746 6  -1609033.71349  22693398.89449
  22952537.190 6  -3121801.863 6  -2394341.66847  22952534.89447
  21327189.456 6   -969815.734 6   -741176.26248  21327186.81548
  22766840.862 5   -760363.734 5   -576279.00047  22766842.20247
  19911823.065 7  -1243065.559 7   -944321.96149  19911823.18749
  23424985.487 5   -424923.875 5   -327003.23047  23424984.18347
 20  5 16  1 45 53.9990000  0  8G04G08G09G11G16G26G27G31             0.000180450
  21217514.526 6  -1283628.254 6   -977400.06648  21217513.99148
  20358075.503 7  -2179772.875 7  -1676458.83649  20358076.05049
  22692519.058 6  -2110844.176 6  -1612635.60249  22692519.39449
  22951237.425 6  -3128630.824 6  -2399662.93447  22951235.24147
  21326769.183 6   -972021.816 6   -742895.28948  21326766.83148
  22766511.401 5   -762095.352 5   -577628.31647  22766512.86247
  19911319.620 7  -1245711.574 7   -946383.78549  19911319.79649
  23424809.292 5   -425850.555 5   -327725.32047  23424807.85147
 20  5 16  1 45 54.9990000  0  8G04G08G09G11G16G26G27G31             0.000178253
  21216995.667 6  -1286356.418 6   -979525.91848  21216994.74548
  20357163.651 7  -2184563.602 7  -1680191.87149  20357164.78449
  22691638.565 6  -2115466.414 6  -1616237.34449  22691639.79249
  22949937.753 5  -3135460.051 5  -2404984.40647  22949935.15147
  21326349.190 6   -974228.230 6   -744614.57848  21326347.06948
  22766181.917 5   -763827.316 5   -578977.89847  22766183.01547
  19910816.042 7  -1248357.414 7   -948445.47349  19910816.44049
  23424632.862 6   -426777.324 6   -328447.48447  23424631.51947
 20  5 16  1 45 55.9990000  0  8G04G08G09G11G16G26G27G31             0.000176062
  21216476.300 6  -1289084.281 6   -981651.52048  21216475.65548
  20356252.105 7  -2189354.086 7  -1683924.70749  20356252.90949
  22690759.659 6  -2120088.313 6  -1619838.82449  22690760.06549
  22948638.284 6  -3142289.402 6  -2410305.97747  22948635.94847
  21325929.480 6   -976434.848 6   -746334.01648  21325927.12848
  22765852.034 5   -765559.547 5   -580327.68847  22765853.64047
  19910312.714 7  -1251002.914 7   -950506.91049  19910312.84349
  23424456.214 6   -427704.098 6   -329169.64847  23424455.02647
 20  5 16  1 45 56.9990000  0  8G04G08G09G11G16G26G27G31             0.000173866
  21215957.112 6  -1291811.680 6   -983776.76248  21215957.11648
  20355340.526 7  -2194144.113 7  -1687657.19949  20355341.53449
  22689880.550 6  -2124709.734 6  -1623439.93449  22689880.45649
  22947338.480 5  -3149118.734 5  -2415627.53947  22947336.38247
  21325509.730 6   -978641.508 6   -748053.49248  21325507.01548
  22765522.120 5   -767291.930 5   -581677.60547  22765523.98747
  19909809.292 7  -1253647.938 7   -952567.96549  19909809.67949
  23424279.761 5   -428630.750 5   -329891.71547  23424278.90147
 20  5 16  1 45 57.9990000  0  8G04G08G09G11G16G26G27G31             0.000171675
  21215438.159 6  -1294538.832 6   -985901.82048  21215437.65948
  20354429.261 7  -2198933.957 7  -1691389.55549  20354429.73749
  22689000.808 6  -2129330.984 6  -1627040.90649  22689001.18749
  22946038.745 6  -3155948.336 6  -2420949.29747  22946036.75747
  21325089.394 6   -980848.484 6   -749773.21548  21325086.96848
  22765193.011 5   -769024.605 5   -583027.75047  22765194.39047
  19909306.073 7  -1256292.762 7   -954628.87149  19909306.14049
  23424103.456 5   -429557.469 5   -330613.83247  23424102.66747
 20  5 16  1 45 58.9990000  0  8G04G08G09G11G16G26G27G31             0.000169479
  21214919.855 6  -1297265.598 6   -988026.57048  21214918.80848
  20353517.917 7  -2203723.410 7  -1695121.59449  20353518.44049
  22688121.511 6  -2133951.855 6  -1630641.59049  22688122.06249
  22944738.987 6  -3162777.977 6  -2426271.09047  22944737.57747
  21324669.925 6   -983055.609 6   -751493.05548  21324667.02248
  22764862.440 5   -770757.543 5   -584378.08647  22764864.55847
  19908802.737 7  -1258937.191 7   -956689.46549  19908802.62449
  23423926.855 5   -430484.145 5   -331335.92647  23423925.82747
 20  5 16  1 45 59.9990000  0  8G04G08G09G11G16G26G27G31             0.000167286
  21214400.659 6  -1299991.988 6   -990151.02748  21214400.15148
  20352606.519 7  -2208512.523 7  -1698853.37549  20352607.31549
  22687242.362 6  -2138572.348 6  -1634241.97349  22687242.40949
  22943439.347 5  -3169607.727 5  -2431592.98047  22943437.46847
  21324249.558 6   -985262.902 6   -753213.02348  21324247.53848
  22764533.128 5   -772490.680 5   -585728.57847  22764534.73347
  19908299.901 7  -1261581.270 7   -958749.78949  19908300.27249
  23423750.175 5   -431410.781 5   -332057.97347  23423749.90547
 20  5 16  1 46  0.9990000  0  8G04G08G09G11G16G26G27G31             0.000165091
  21213882.120 6  -1302718.117 6   -992275.28148  21213881.05448
  20351695.347 7  -2213301.363 7  -1702584.93449  20351695.55049
  22686363.448 6  -2143192.578 6  -1637842.16049  22686363.49549
  22942139.644 5  -3176437.652 5  -2436914.99647  22942137.61647
  21323829.323 6   -987470.398 6   -754933.15248  21323826.93748
  22764203.097 5   -774224.059 5   -587079.27047  22764204.77647
  19907796.565 7  -1264225.020 7   -960809.85249  19907796.69849
  23423574.300 5   -432337.422 5   -332780.03547  23423573.73047
 20  5 16  1 46  1.9990000  0  8G04G08G09G11G16G26G27G31             0.000162897
  21213363.378 6  -1305443.848 6   -994399.23048  21213362.56548
  20350783.987 7  -2218089.898 7  -1706316.26249  20350784.83549
  22685483.636 6  -2147812.469 6  -1641442.07049  22685484.14049
  22940839.769 5  -3183267.703 5  -2442237.10947  22940838.06547
  21323409.495 6   -989678.074 6   -756653.41848  21323407.17948
  22763873.105 5   -775957.742 5   -588430.19147  22763874.75747
  19907293.683 7  -1266868.465 7   -962869.68049  19907293.83949
  23423397.995 5   -433264.055 5   -333502.09047  23423396.87447
 20  5 16  1 46  2.9990000  0  8G04G08G09G11G16G26G27G31             0.000160702
  21212844.690 6  -1308169.121 6   -996522.82048  21212844.05048
  20349872.972 7  -2222877.980 7  -1710047.23849  20349873.46449
  22684605.190 6  -2152431.867 6  -1645041.59849  22684605.49149
  22939539.690 5  -3190097.746 5  -2447559.21147  22939538.42147
  21322989.308 6   -991885.848 6   -758373.76248  21322986.49948
  22763543.112 5   -777691.523 5   -589781.18847  22763545.19047
  19906790.628 7  -1269511.445 7   -964929.14149  19906790.51949
  23423221.901 5   -434190.559 5   -334224.03947  23423220.78447
 20  5 16  1 46  3.9990000  0  8G04G08G09G11G16G26G27G31             0.000158508
  21212325.769 6  -1310894.164 6   -998646.23848  21212325.56248
  20348961.761 7  -2227665.883 7  -1713778.07049  20348962.65549
  22683725.964 6  -2157051.105 6  -1648641.00449  22683726.64749
  22938240.706 6  -3196928.031 6  -2452881.50847  22938239.03047
  21322569.183 6   -994093.902 6   -760094.32448  21322566.58948
  22763212.839 5   -779425.660 5   -591132.45747  22763214.78447
  19906287.409 7  -1272154.215 7   -966988.44549  19906287.57749
  23423045.315 5   -435117.160 5   -334946.07047  23423044.39447
 20  5 16  1 46  4.9990000  0  8G04G08G09G11G16G26G27G31             0.000156311
  21211807.667 6  -1313618.898 6  -1000769.40248  21211806.73348
  20348050.597 7  -2232453.477 7  -1717508.66049  20348051.55849
  22682846.870 5  -2161669.988 5  -1652240.13349  22682847.46449
  22936941.073 6  -3203758.434 6  -2458203.89547  22936939.14447
  21322149.089 6   -996302.164 6   -761815.04348  21322146.61648
  22762882.698 5   -781160.066 5   -592483.94947  22762884.61647
  19905784.730 7  -1274796.629 7   -969047.47349  19905785.04649
  23422869.401 5   -436043.730 5   -335668.07847  23422867.89747
 20  5 16  1 46  5.9990000  0  8G04G08G09G11G16G26G27G31             0.000154118
  21211288.987 6  -1316343.234 6  -1002892.27048  21211288.60848
  20347139.628 7  -2237240.691 7  -1721238.96149  20347140.06549
  22681967.933 5  -2166288.520 5  -1655838.98449  22681968.31949
  22935640.956 6  -3210588.910 6  -2463526.34047  22935639.15147
  21321728.722 6   -998510.520 6   -763535.84048  21321726.16348
  22762552.870 5   -782894.617 5   -593835.54347  22762554.70247
  19905281.855 7  -1277438.660 7   -971106.19549  19905282.05049
  23422692.980 5   -436970.219 5   -336390.01647  23422691.68347
 20  5 16  1 46  6.9990000  0  8G04G08G09G11G16G26G27G31             0.000151920
  21210770.308 6  -1319067.117 6  -1005014.77048  21210770.02248
  20346228.878 7  -2242027.520 7  -1724968.95349  20346229.36649
  22681089.394 5  -2170906.613 5  -1659437.50449  22681090.02649
  22934341.019 5  -3217419.434 5  -2468848.82847  22934339.41347
  21321308.612 6  -1000719.004 6   -765256.73048  21321305.98348
  22762222.878 5   -784629.337 5   -595187.27647  22762224.84347
  19904779.362 7  -1280080.266 7   -973164.58649  19904779.42149
  23422516.605 5   -437896.602 5   -337111.87547  23422515.47247
 20  5 16  1 46  7.9990000  0  8G04G08G09G11G16G26G27G31             0.000149727
  21210252.847 6  -1321790.688 6  -1007137.03148  21210252.07748
  20345317.980 7  -2246814.082 7  -1728698.74649  20345318.60549
  22680210.448 5  -2175524.418 5  -1663035.79349  22680210.96449
  22933041.401 6  -3224250.148 6  -2474171.46147  22933039.60547
  21320888.355 6  -1002927.719 6   -766977.80948  21320885.37848
  22761893.120 5   -786364.387 5   -596539.26647  22761894.25347
  19904276.714 7  -1282721.578 7   -975222.75449  19904277.04249
  23422340.589 5   -438823.051 5   -337833.78547  23422339.19847
 20  5 16  1 46  8.9990000  0  8G04G08G09G11G16G26G27G31             0.000147530
  21209734.581 6  -1324513.980 6  -1009259.08648  21209733.50348
  20344407.448 7  -2251600.344 7  -1732428.29749  20344407.95649
  22679332.144 5  -2180141.934 5  -1666633.85949  22679332.19449
  22931741.417 6  -3231081.008 6  -2479494.21547  22931740.30047
  21320467.597 6  -1005136.641 6   -768699.04348  21320465.21048
  22761562.730 5   -788099.656 5   -597891.41847  22761564.32347
  19903774.198 7  -1285362.609 7   -977280.70349  19903774.48349
  23422163.698 5   -439749.512 5   -338555.71147  23422163.01947
 20  5 16  1 46  9.9990000  0  8G04G08G09G11G16G26G27G31             0.000145336
  21209216.081 6  -1327236.945 6  -1011380.87948  21209215.64448
  20343496.276 7  -2256386.336 7  -1736157.64549  20343496.87849
  22678453.409 6  -2184759.148 6  -1670231.68849  22678453.65549
  22930441.448 5  -3237911.996 5  -2484817.05947  22930440.09347
  21320047.120 6  -1007345.766 6   -770420.44548  21320044.71848
  22761232.003 5   -789835.254 5   -599243.83647  22761233.99147
  19903271.761 7  -1288003.297 7   -979338.37549  19903271.66349
  23421987.925 5   -440675.918 5   -339277.58247  23421986.56947
 20  5 16  1 46 10.9990000  0  8G04G08G09G11G16G26G27G31             0.000143139
  21208698.065 6  -1329959.578 6  -1013502.40648  21208697.34748
  20342585.472 7  -2261172.012 7  -1739886.74249  20342586.39049
  22677574.737 5  -2189376.055 5  -1673829.28549  22677575.08549
  22929141.589 6  -3244743.089 6  -2490139.98947  22929139.73747
  21319627.097 6  -1009555.074 6   -772141.98848  21319624.54248
  22760902.081 5   -791571.047 5   -600596.41047  22760903.12047
  19902769.284 7  -1290643.672 7   -981395.81649  19902769.21849
  23421811.448 5   -441602.352 5   -339999.47747  23421810.19847
 20  5 16  1 46 11.9990000  0  8G04G08G09G11G16G26G27G31             0.000140944
  21208179.917 6  -1332681.840 6  -1015623.64848  21208179.27248
  20341674.800 7  -2265957.363 7  -1743615.58649  20341675.61649
  22676696.214 6  -2193992.543 6  -1677426.54749  22676696.81549
  22927842.667 6  -3251574.313 6  -2495463.00847  22927839.83547
  21319206.644 6  -1011764.547 6   -773863.64848  21319204.04648
  22760571.565 5   -793307.082 5   -601949.16447  22760573.44847
  19902267.019 7  -1293283.699 7   -983452.97749  19902266.77249
  23421635.120 5   -442528.730 5   -340721.33247  23421634.07747
 20  5 16  1 46 12.9990000  0  8G04G08G09G11G16G26G27G31             0.000138746
  21207662.315 6  -1335403.730 6  -1017744.60548  21207661.43348
  20340764.464 7  -2270742.336 7  -1747344.14549  20340765.44849
  22675817.714 6  -2198608.730 6  -1681023.57849  22675818.18749
  22926542.276 6  -3258405.609 6  -2500786.09047  22926539.62847
  21318785.855 6  -1013974.180 6   -775585.43848  21318783.33548
  22760241.667 5   -795043.309 5   -603302.07447  22760243.09747
  19901764.323 7  -1295923.344 7   -985509.84449  19901764.43349
  23421459.019 5   -443455.051 5   -341443.14847  23421457.80447
 20  5 16  1 46 13.9990000  0  8G04G08G09G11G16G26G27G31             0.000136551
  21207144.347 6  -1338125.371 6  -1019865.36348  21207143.90948
  20339853.964 7  -2275527.117 7  -1751072.54349  20339854.73349
  22674939.870 6  -2203224.691 6  -1684620.43049  22674939.69049
  22925241.909 6  -3265237.141 6  -2506109.37147  22925239.69447
  21318365.565 6  -1016184.125 6   -777307.47748  21318362.80448
  22759911.308 5   -796779.918 5   -604655.28147  22759912.61247
  19901262.183 7  -1298562.758 7   -987566.52749  19901262.31949
  23421282.464 5   -444381.508 5   -342165.07047  23421281.42547
 20  5 16  1 46 14.9990000  0  8G04G08G09G11G16G26G27G31             0.000134352
  21206625.831 6  -1340846.777 6  -1021985.94948  21206625.52648
  20338943.362 7  -2280311.672 7  -1754800.76249  20338943.78049
  22674061.081 6  -2207840.406 6  -1688217.09049  22674061.86649
  22923941.823 6  -3272068.902 6  -2511432.82447  22923939.77247
  21317944.862 6  -1018394.348 6   -779029.73848  21317942.07348
  22759580.214 5   -798516.871 5   -606008.75847  22759581.92147
  19900760.097 7  -1301201.941 7   -989623.03549  19900760.19049
  23421106.237 5   -445308.027 5   -342887.03547  23421105.15147
 20  5 16  1 46 15.9990000  0  8G04G08G09G11G16G26G27G31             0.000132158
  21206108.581 6  -1343567.980 6  -1024106.36348  21206107.80448
  20338033.097 7  -2285096.012 7  -1758528.81649  20338033.29249
  22673182.886 6  -2212455.938 6  -1691813.61349  22673183.35849
  22922641.847 6  -3278900.887 6  -2516756.45347  22922639.59747
  21317524.495 6  -1020604.895 6   -780752.23848  21317521.76148
  22759249.261 5   -800254.141 5   -607362.48047  22759251.71847
  19900257.769 7  -1303840.906 7   -991679.37549  19900257.75749
  23420929.925 5   -446234.621 5   -343609.05947  23420929.13247
 20  5 16  1 46 16.9990000  0  8G04G08G09G11G16G26G27G31             0.000129959
  21205590.737 6  -1346288.746 6  -1026226.43848  21205590.24948
  20337122.636 7  -2289879.988 7  -1762256.59049  20337123.36249
  22672304.940 6  -2217071.039 6  -1695409.79349  22672305.06549
  22921342.120 6  -3285732.945 6  -2522080.13347  22921339.54647
  21317103.776 6  -1022815.563 6   -782474.84048  21317101.31548
  22758919.456 5   -801991.668 5   -608716.39147  22758920.97247
  19899755.737 7  -1306479.473 7   -993735.39549  19899755.83949
  23420753.503 5   -447161.160 5   -344331.03547  23420752.21047
 20  5 16  1 46 17.9990000  0  8G04G08G09G11G16G26G27G31             0.000127764
  21205072.948 6  -1349009.133 6  -1028346.21548  21205072.76948
  20336212.167 7  -2294663.648 7  -1765984.11749  20336213.17149
  22671426.644 6  -2221685.824 6  -1699005.72749  22671427.00349
  22920041.628 6  -3292565.098 6  -2527403.88747  22920039.24147
  21316682.714 6  -1025026.371 6   -784197.54748  21316680.56948
  22758588.284 5   -803729.344 5   -610070.42647  22758590.28847
  19899253.730 7  -1309117.680 7   -995791.14549  19899253.82749
  23420577.331 5   -448087.637 5   -345052.96147  23420576.27647
 20  5 16  1 46 18.9990000  0  8G04G08G09G11G16G26G27G31             0.000125565
  21204555.620 6  -1351729.125 6  -1030465.68848  21204555.35548
  20335302.440 7  -2299446.879 7  -1769711.30949  20335302.98049
  22670548.589 6  -2226300.148 6  -1702601.30949  22670548.83549
  22918740.956 6  -3299397.273 6  -2532727.64847  22918739.46047
  21316262.269 6  -1027237.293 6   -785920.34048  21316259.74948
  22758258.175 5   -805467.195 5   -611424.59847  22758259.47647
  19898751.722 7  -1311755.461 7   -997846.55949  19898751.84749
  23420400.737 5   -449014.012 5   -345774.81647  23420400.12847
 20  5 16  1 46 19.9990000  0  8G04G08G09G11G16G26G27G31             0.000123369
  21204037.855 6  -1354448.824 6  -1032584.93448  21204037.53048
  20334392.120 7  -2304229.871 7  -1773438.31349  20334393.00749
  22669670.058 5  -2230914.211 5  -1706196.67649  22669670.75749
  22917441.034 6  -3306229.637 6  -2538051.57047  22917439.05847
  21315841.597 6  -1029448.461 6   -787643.33248  21315839.07748
  22757927.042 5   -807205.352 5   -612779.00847  22757928.67547
  19898250.042 7  -1314392.953 7   -999901.74249  19898249.76949
  23420224.605 5   -449940.430 5   -346496.69947  23420223.67947
 20  5 16  1 46 20.9990000  0  8G04G08G09G11G16G26G27G31             0.000121168
  21203520.628 6  -1357168.148 6  -1034703.88748  21203519.30848
  20333481.956 7  -2309012.504 7  -1777165.04349  20333482.67149
  22668792.534 5  -2235527.914 5  -1709791.75849  22668792.57349
  22916141.081 6  -3313062.098 6  -2543375.56647  22916139.39747
  21315421.206 6  -1031659.785 6   -789366.43448  21315418.48348
  22757596.511 5   -808943.730 5   -614133.58247  22757597.43347
  19897747.940 7  -1317030.090 7  -1001956.65249  19897748.30849
  23420048.589 5   -450866.793 5   -347218.54347  23420047.33147
 20  5 16  1 46 21.9990000  0  8G04G08G09G11G16G26G27G31             0.000118975
  21203002.956 6  -1359887.051 6  -1036822.51648  21203002.22648
  20332571.847 7  -2313794.773 7  -1780891.48849  20332572.67549
  22667914.425 6  -2240141.238 6  -1713386.56349  22667914.83949
  22914840.690 6  -3319894.629 6  -2548699.61347  22914838.88247
  21315000.050 6  -1033871.250 6   -791089.65248  21314997.55048
  22757265.542 5   -810682.316 5   -615488.32847  22757266.97647
  19897246.370 7  -1319666.836 7  -1004011.26249  19897246.37049
  23419871.987 5   -451793.066 5   -347940.32047  23419871.45247
 20  5 16  1 46 22.9990000  0  8G04G08G09G11G16G26G27G31             0.000116774
  21202485.839 6  -1362605.664 6  -1038940.92648  21202485.23048
  20331662.058 7  -2318576.750 7  -1784617.71549  20331662.58149
  22667036.355 6  -2244754.246 6  -1716981.12949  22667037.06249
  22913540.886 6  -3326727.281 6  -2554023.75847  22913538.69047
  21314579.081 6  -1036082.902 6   -792813.01648  21314576.30848
  22756934.659 5   -812421.109 5   -616843.23447  22756936.16347
  19896744.690 7  -1322303.254 7  -1006065.62149  19896744.48749
  23419695.925 5   -452719.359 5   -348662.10947  23419694.74547
 20  5 16  1 46 23.9990000  0  8G04G08G09G11G16G26G27G31             0.000114578
  21201968.339 6  -1365324.098 6  -1041059.18848  21201967.63248
  20330752.128 7  -2323358.582 7  -1788343.81649  20330752.91349
  22666158.753 5  -2249367.152 5  -1720575.60549  22666159.21049
  22912240.495 6  -3333560.246 6  -2559348.14547  22912238.47247
  21314157.659 6  -1038294.934 6   -794536.68848  21314155.10848
  22756603.503 5   -814160.359 5   -618198.50447  22756604.70247
  19896242.870 7  -1324939.547 7  -1008119.87949  19896242.59349
  23419519.597 5   -453645.816 5   -349384.02047  23419518.77247
 20  5 16  1 46 24.9990000  0  8G04G08G09G11G16G26G27G31             0.000112377
  21201451.511 6  -1368042.074 6  -1043177.08648  21201450.67948
  20329842.206 7  -2328139.984 7  -1792069.57849  20329842.76149
  22665281.128 5  -2253979.535 5  -1724169.67249  22665281.90949
  22910940.159 6  -3340393.211 6  -2564672.53547  22910938.13647
  21313737.026 6  -1040507.031 6   -796260.39548  21313734.31548
  22756272.058 5   -815899.711 5   -619553.84447  22756273.83547
  19895741.175 7  -1327575.332 7  -1010173.73849  19895741.16349
  23419343.128 5   -454572.133 5   -350105.82847  23419342.26147
 20  5 16  1 46 25.9990000  0  8G04G08G09G11G16G26G27G31             0.000110180
  21200933.956 6  -1370759.719 6  -1045294.73448  21200933.61248
  20328932.292 7  -2332921.152 7  -1795795.16849  20328933.04649
  22664403.526 6  -2258591.699 6  -1727763.55549  22664404.12449
  22909639.964 6  -3347226.328 6  -2569997.05147  22909637.65547
  21313316.019 6  -1042719.375 6   -797984.30548  21313313.24148
  22755941.394 5   -817639.391 5   -620909.43447  22755943.00347
  19895239.933 7  -1330210.879 7  -1012227.41049  19895239.73749
  23419167.011 5   -455498.477 5   -350827.66047  23419165.62447
 20  5 16  1 46 26.9990000  0  8G04G08G09G11G16G26G27G31             0.000107981
  21200416.597 6  -1373477.156 6  -1047412.21548  21200416.32748
  20328022.550 7  -2337702.070 7  -1799520.55949  20328023.53049
  22663526.050 5  -2263203.582 5  -1731357.23049  22663526.38649
  22908339.026 6  -3354059.641 6  -2575321.70347  22908337.31547
  21312895.315 6  -1044931.996 6   -799708.42248  21312892.72248
  22755610.659 5   -819379.359 5   -622265.25047  22755611.87847
  19894738.401 7  -1332846.145 7  -1014280.86349  19894738.64049
  23418990.370 5   -456424.918 5   -351549.57047  23418989.51147
 20  5 16  1 46 27.9990000  0  8G04G08G09G11G16G26G27G31             0.000105783
  21199900.011 6  -1376194.230 6  -1049529.41048  21199899.42548
  20327112.487 7  -2342482.648 7  -1803245.68449  20327113.42549
  22662648.073 6  -2267815.137 6  -1734950.64849  22662648.48749
  22907039.105 6  -3360893.078 6  -2580646.45747  22907037.20247
  21312474.198 6  -1047144.801 6   -801432.68048  21312471.42948
  22755278.784 5   -821119.594 5   -623621.27347  22755280.86647
  19894236.855 7  -1335481.094 7  -1016334.07449  19894237.19449
  23418813.862 5   -457351.297 5   -352271.42247  23418813.44447
 20  5 16  1 46 28.9990000  0  8G04G08G09G11G16G26G27G31             0.000103582
  21199382.776 6  -1378911.008 6  -1051646.37948  21199382.41748
  20326202.925 7  -2347262.965 7  -1806970.60549  20326204.19849
  22661771.011 6  -2272426.395 6  -1738543.83249  22661771.32749
  22905738.597 6  -3367726.719 6  -2585971.36747  22905737.06547
  21312052.823 6  -1049357.840 6   -803157.12548  21312050.29648
  22754947.394 5   -822860.121 5   -624977.52747  22754949.99547
  19893735.597 7  -1338115.734 7  -1018387.03149  19893735.95249
  23418638.167 5   -458277.703 5   -352993.29747  23418637.25747
 20  5 16  1 46 29.9990000  0  8G04G08G09G11G16G26G27G31             0.000101385
  21198865.753 6  -1381627.344 6  -1053763.00048  21198865.16348
  20325293.636 7  -2352042.871 7  -1810695.21149  20325294.34749
  22660893.433 6  -2277037.262 6  -1742136.71149  22660894.05449
  22904438.300 6  -3374560.344 6  -2591296.26247  22904436.56947
  21311631.573 6  -1051570.969 6   -804881.64548  21311629.12048
  22754616.589 5   -824600.797 5   -626333.89847  22754618.48747
  19893234.112 7  -1340749.977 7  -1020439.68849  19893234.06949
  23418461.870 5   -459204.023 5   -353715.10547  23418461.04247
 20  5 16  1 46 30.9990000  0  8G04G08G09G11G16G26G27G31             0.000099184
  21198348.870 6  -1384343.406 6  -1055879.42248  21198348.56248
  20324383.933 7  -2356822.496 7  -1814419.59449  20324384.83149
  22660015.855 6  -2281647.813 6  -1745729.34849  22660016.60149
  22903137.948 6  -3381394.152 6  -2596621.30947  22903135.88247
  21311210.253 6  -1053784.297 6   -806606.31348  21311207.64748
  22754285.401 5   -826341.730 5   -627690.47347  22754287.16747
  19892733.050 7  -1343383.898 7  -1022492.10249  19892733.49149
  23418285.417 5   -460130.355 5   -354436.93047  23418284.50347
 20  5 16  1 46 31.9990000  0  8G04G08G09G11G16G26G27G31             0.000096987
  21197832.519 6  -1387059.125 6  -1057995.56648  21197831.67948
  20323474.409 7  -2361601.852 7  -1818143.75849  20323475.46849
  22659139.050 6  -2286258.066 6  -1749321.75449  22659139.12449
  22901837.659 6  -3388228.109 6  -2601946.46547  22901835.85847
  21310789.105 6  -1055997.883 6   -808331.19148  21310786.40948
  22753953.651 5   -828082.953 5   -629047.27347  22753955.80447
  19892231.964 7  -1346017.547 7  -1024544.28949  19892231.78049
  23418109.519 5   -461056.719 5   -355158.77047  23418108.67147
 20  5 16  1 46 32.9990000  0  8G04G08G09G11G16G26G27G31             0.000094786
  21197315.183 6  -1389774.449 6  -1060111.40248  21197315.58948
  20322565.065 7  -2366380.863 7  -1821867.66449  20322565.80849
  22658261.839 6  -2290867.965 6  -1752913.87949  22658262.14749
  22900537.417 6  -3395062.148 6  -2607271.69147  22900535.32747
  21310367.862 6  -1058211.602 6   -810056.16448  21310365.14448
  22753622.784 5   -829824.395 5   -630404.23847  22753624.39047
  19891730.644 7  -1348650.770 7  -1026596.15249  19891730.89449
  23417932.886 5   -461982.992 5   -355880.53947  23417931.87847
 20  5 16  1 46 33.9990000  0  8G04G08G09G11G16G26G27G31             0.000092587
  21196799.261 6  -1392489.504 6  -1062227.03148  21196798.58948
  20321655.706 7  -2371159.602 7  -1825591.36349  20321656.63649
  22657384.276 6  -2295477.557 6  -1756505.77549  22657385.00749
  22899236.737 6  -3401896.355 6  -2612597.04347  22899234.47647
  21309946.683 6  -1060425.563 6   -811781.32448  21309944.06948
  22753291.355 5   -831566.105 5   -631761.41847  22753292.77647
  19891229.769 7  -1351283.738 7  -1028647.82049  19891229.93749
  23417756.394 5   -462909.328 5   -356602.37147  23417755.85847
 20  5 16  1 46 34.9990000  0  8G04G08G09G11G16G26G27G31             0.000090385
  21196282.605 6  -1395204.324 6  -1064342.48448  21196282.01148
  20320746.651 7  -2375938.121 7  -1829314.88349  20320746.99149
  22656507.128 6  -2300086.941 6  -1760097.50849  22656507.58949
  22897935.886 6  -3408730.766 6  -2617922.56647  22897934.19047
  21309525.097 6  -1062639.801 6   -813506.71148  21309522.94848
  22752959.558 5   -833308.148 5   -633118.85547  22752961.35847
  19890728.925 7  -1353916.457 7  -1030699.28549  19890728.94849
  23417580.355 5   -463835.707 5   -357324.23447  23417579.51547
