     2.10           OBSERVATION DATA    GPS(GPS)            RINEX VERSION / TYPE
cnvtToRINEX 2.50.0  convertToRINEX OPR  30-May-18 13:32 UTC PGM / RUN BY / DATE 
----------------------------------------------------------- COMMENT             
GE201                                                       MARKER NAME         
GE201                                                       MARKER NUMBER       
GNSS Observer       Trimble                                 OBSERVER / AGENCY   
0220297922          5700                2.32                REC # / TYPE / VERS 
                    TRM39105-00                             ANT # / TYPE
 -2966946.1553  5005522.7256  2603716.0670                  APPROX POSITION XYZ 
        1.3030        1.2609        1.3069                  ANTENNA: DELTA H/E/N
     1     1     0                                          WAVELENGTH FACT L1/2
     4    C1    L1    L2    P2                              # / TYPES OF OBSERV 
  2018     5    30     0    33   45.0000000     GPS         TIME OF FIRST OBS   
  2018     5    30     1    35   45.0000000     GPS         TIME OF LAST OBS    
     0                                                      RCV CLOCK OFFS APPL 
    17                                                      LEAP SECONDS        
    12                                                      # OF SATELLITES     
   G03   733   730   728   728                              PRN / # OF OBS      
   G08    65    56     0     0                              PRN / # OF OBS      
   G14   745   744   745   745                              PRN / # OF OBS      
   G16   745   745   745   745                              PRN / # OF OBS      
   G21    36    33     0     0                              PRN / # OF OBS      
   G22   609   604   575   575                              PRN / # OF OBS      
   G23   716   715   715   715                              PRN / # OF OBS      
   G26   745   745   745   745                              PRN / # OF OBS      
   G27   738   738   738   738                              PRN / # OF OBS      
   G29   191   189   130   130                              PRN / # OF OBS      
   G31   745   745   745   745                              PRN / # OF OBS      
   G32   504   498   428   428                              PRN / # OF OBS      
CARRIER PHASE MEASUREMENTS: PHASE SHIFTS REMOVED            COMMENT             
                                                            END OF HEADER       
 18  5 30  0 33 45.0000000  0  8G03G14G16G22G26G29G31G32             0.000198183
  23888988.37511                     37562.25856  23888990.10256
  20855450.47716    104524.28916     65347.10258  20855448.80558
  20662353.33617     11989.52017      7446.37158  20662351.01658
  23856346.75815     82626.36715     54898.82856  23856342.24256
  20831499.90617     82322.55117     50382.63758  20831501.65658
  23992763.08616    142817.69116     80353.64157  23992762.50057
  21745760.01616     59346.52016     36371.90258  21745757.75858
  23002129.50816    164287.10516    111792.26257  23002129.61757
 18  5 30  0 33 50.0000000  0  8G03G14G16G22G26G29G31G32             0.000200403
  23890269.71915     65441.68815                
  20857706.688 6    116378.570 6     74584.20748  20857704.99648
  20662595.742 6     13262.523 6      8438.32448  20662593.77348
  23858224.492 5     92498.488 5     62591.38346  23858221.18846
  20833218.539 7     91352.059 7     57418.61748  20833219.66048
  23996024.977 6    159956.023 6     93708.15647  23996023.68047
  21746994.344 6     65833.539 6     41426.71548  21746992.53148
  23005882.133 6    184007.934 6    127159.13347  23005882.63347
 18  5 30  0 33 55.0000000  0  8G03G14G16G22G26G29G31G32             0.000202610
  23891550.898 4     72168.719 4                
  20859961.016 6    128229.023 6     83818.32048  20859959.73848
  20662837.461 6     14529.551 6      9425.57848  20662834.32848
  23860101.719 6    102359.141 6     70274.91446  23860097.63346
  20834933.656 6    100370.777 6     64446.17648  20834936.04748
  23999284.438 6    177086.664 6    107056.68847  23999283.69947
  21748226.734 7     72306.102 7     46470.30147  21748223.55947
  23009632.023 6    203718.352 6    142517.87947  23009633.42247
 18  5 30  0 34  0.0000000  0  8G03G14G16G22G26G29G31G32             0.000204809
  23892828.383 4     78890.254 4                
  20862216.063 6    140076.875 6     93050.39848  20862214.33648
  20663077.648 6     15791.617 6     10409.04748  20663075.38748
  23861975.797 6    112209.754 6     77950.66046  23861972.02746
  20836648.477 6    109379.922 6     71466.27348  20836650.10548
  24002543.406 6    194210.801 6    120400.16047  24002542.13747
  21749455.523 6     78765.504 6     51503.54347  21749452.68047
  23013381.367 6    223419.457 6    157869.35947  23013382.84047
 18  5 30  0 34  5.0000000  0  8G03G14G16G22G26G29G31G32             0.000206997
  23894107.008 4     85606.695 4                
  20864470.063 6    151922.500 6    102280.78148  20864468.38748
  20663316.125 6     17049.207 6     11388.97348  20663314.27048
  23863848.344 5    122050.742 5     85618.96146  23863844.87146
  20838361.953 7    118379.918 7     78479.23448  20838362.94148
  24005800.930 6    211328.926 6    133738.95347  24005799.99247
  21750682.438 7     85212.145 7     56526.89847  21750679.23047
  23017129.102 6    243111.699 6    173213.94947  23017129.55147
 18  5 30  0 34 10.0000000  0  8G03G14G16G22G26G29G31G32             0.000209175
  23895385.594 3     92319.234 3                
  20866724.461 6    163767.113 6    111510.30548  20866722.57048
  20663554.797 6     18303.469 6     12366.33248  20663552.57848
  23865720.188 5    131883.184 5     93280.60546  23865716.43846
  20840072.680 6    127371.844 6     85485.92648  20840074.23848
  24009057.273 6    228442.023 6    147073.83247  24009056.37147
  21751906.750 6     91647.137 6     61541.20747  21751903.86747
  23020875.078 6    262796.203 6    188552.53147  23020876.00847
 18  5 30  0 34 15.0000000  0  8G03G14G16G22G26G29G31G32             0.000211346
  23896662.219 4     99028.188 4     38190.50856  23896687.94956
  20868978.602 6    175611.000 6    120739.34048  20868976.39548
  20663793.680 6     19554.828 6     13341.40248  20663790.92648
  23867589.250 6    141707.441 6    100935.85246  23867586.03546
  20841782.016 6    136356.133 6     92486.68048  20841783.79748
  24012312.945 6    245550.672 6    160405.21547  24012311.94147
  21753129.094 6     98070.922 6     66546.78947  21753126.12947
  23024618.703 6    282473.363 6    203885.33647  23024620.48047
 18  5 30  0 34 20.0000000  0  9G03G14G16G22G26G27G29G31G32          0.000213507
  23897936.555 5    105733.758 5     43415.49246  23897964.83646
  20871231.906 6    187454.301 6    129967.82448  20871230.21948
  20664030.734 7     20803.172 7     14314.12948  20664027.86748
  23869456.430 5    151523.766 5    108585.10546  23869453.42246
  20843490.570 7    145332.801 7     99481.48448  20843491.83648
  22483959.68014   -106761.14814    -65697.12156  22483960.63756
  24015567.695 6    262654.816 6    173733.14147  24015567.07847
  21754348.570 6    104483.703 6     71543.67647  21754346.57447
  23028362.578 6    302143.332 6    219212.57447  23028363.93047
 18  5 30  0 34 25.0000000  0  9G03G14G16G22G26G27G29G31G32          0.000215658
  23899212.328 5    112436.332 5     48638.14545  23899238.30145
  20873485.609 6    199297.527 6    139196.32048  20873483.91048
  20664267.906 6     22049.324 6     15285.16848  20664265.15248
  23871322.453 5    161332.441 5    116228.19146  23871319.71546
  20845197.086 7    154302.488 7    106470.85248  20845198.73448
  22481298.164 5   -120749.984 5    -76597.50447  22481298.84847
  24018821.836 6    279755.031 6    187057.94547  24018821.17647
  21755567.359 6    110885.797 6     76532.35947  21755564.88747
  23032104.164 6    321806.480 6    234534.49647  23032105.79347
 18  5 30  0 34 30.0000000  0  9G03G14G16G22G26G27G29G31G32          0.000217802
  23900488.836 5    119136.473 5     53858.93045  23900507.21545
  20875739.359 6    211141.289 6    148425.21948  20875737.83648
  20664504.898 6     23293.734 6     16254.82447  20664501.75047
  23873187.703 5    171134.133 5    123865.89146  23873184.96946
  20846902.391 7    163265.750 7    113455.21548  20846904.48848
  22478634.852 5   -134746.238 5    -87503.68447  22478635.32447
  24022074.992 6    296851.836 6    200380.15247  24022075.00447
  21756783.781 6    117277.977 6     81513.26647  21756781.48047
  23035844.586 6    341463.559 6    249851.65647  23035845.98847
 18  5 30  0 34 35.0000000  0  9G03G14G16G22G26G27G29G31G32          0.000219936
  23901762.586 5    125834.547 5     59078.21946  23901772.89846
  20877993.414 6    222985.863 6    157654.75448  20877991.45348
  20664741.047 6     24536.602 6     17223.26648  20664738.16448
  23875052.422 5    180929.086 5    131498.33646  23875048.82046
  20848607.164 7    172222.844 7    120434.71949  20848609.10549
  22475970.227 5   -148749.621 5    -98415.42646  22475969.73846
  24025327.961 6    313945.582 6    213699.93047  24025327.44547
  21757998.477 6    123660.309 6     86486.46547  21757995.74247
  23039584.047 6    361114.672 6    265164.21547  23039586.00447
 18  5 30  0 34 40.0000000  0  9G03G14G16G22G26G27G29G31G32          0.000222063
  23903036.414 5    132529.977 5     64295.43847  23903040.90247
  20880247.703 6    234830.664 6    166884.46548  20880245.73048
  20664977.086 6     25777.508 6     18190.20348  20664974.04348
  23876914.320 5    190716.859 5    139125.12146  23876911.21146
  20850310.383 7    181173.219 7    127409.04349  20850312.27349
  22473304.109 5   -162760.672 5   -109333.09046  22473303.99246
  24028580.156 6    331035.656 6    227016.89147  24028580.17247
  21759211.297 6    130032.477 6     91451.81647  21759208.52747
  23043322.797 6    380759.375 6    280471.75447  23043324.58647
 18  5 30  0 34 45.0000000  0  9G03G14G16G22G26G27G29G31G32          0.000224182
  23904310.734 5    139224.008 5     69511.50847  23904312.91447
  20882501.547 6    246677.020 6    176115.39148  20882499.87948
  20665212.539 7     27017.641 7     19156.54348  20665209.74648
  23878775.305 4    200498.602 4    146747.25046  23878772.75046
  20852013.141 7    190118.117 7    134379.07049  20852014.73449
  22470635.992 5   -176778.090 5   -120255.77746  22470636.06646
  24031831.703 5    348123.383 5    240331.94146  24031831.43446
  21760421.664 6    136395.660 6     96410.10547  21760419.41447
  23047060.086 6    400398.914 6    295775.25047  23047061.94147
 18  5 30  0 34 50.0000000  0  9G03G14G16G22G26G27G29G31G32          0.000226292
  23905585.086 5    145915.941 5     74725.98847  23905585.87547
  20884755.945 6    258524.219 6    185346.96948  20884754.48448
  20665448.523 7     28256.320 7     20121.75048  20665445.80548
  23880635.711 4    210273.637 4    154364.18846  23880633.45346
  20853714.148 7    199056.832 7    141344.29749  20853715.14149
  22467967.617 5   -190802.586 5   -131183.94146  22467967.46946
  24035082.141 5    365208.023 5    253644.64146  24035082.27746
  21761630.930 6    142749.195 6    101360.91047  21761628.12547
  23050796.008 6    420032.563 6    311074.18447  23050798.23447
 18  5 30  0 34 55.0000000  0  9G03G14G16G22G26G27G29G31G32          0.000228395
  23906858.172 5    152606.328 5     79939.28947  23906858.94547
  20887010.711 6    270372.801 6    194579.61348  20887008.85248
  20665683.813 7     29494.152 7     21086.28148  20665681.12548
  23882494.813 4    220042.555 4    161976.29746  23882491.81646
  20855414.008 7    207989.926 7    148305.14549  20855415.54349
  22465297.773 5   -204833.531 5   -142117.13346  22465297.84846
  24038333.453 5    382290.113 5    266955.35246  24038333.09446
  21762838.352 6    149093.684 6    106304.66847  21762835.68847
  23054530.719 6    439660.883 6    326368.95347  23054533.33647
 18  5 30  0 35  0.0000000  0  9G03G14G16G22G26G27G29G31G32          0.000230490
  23908130.922 5    159295.344 5     85151.46547  23908131.73447
  20889265.617 6    282222.797 6    203813.37148  20889264.50848
  20665919.594 7     30731.125 7     22050.15648  20665916.67648
  23884352.945 5    229805.441 5    169583.74246  23884348.80146
  20857112.773 7    216917.488 7    155261.68449  20857114.38349
  22462626.188 5   -218870.875 5   -153055.31646  22462625.99246
  24041583.766 5    399369.754 5    280264.12946  24041583.75046
  21764044.391 6    155429.117 6    111241.36748  21764041.20348
  23058264.641 6    459283.941 6    341659.63347  23058267.44947
 18  5 30  0 35  5.0000000  0  9G03G14G16G22G26G27G29G31G32          0.000232576
  23909402.938 4    165982.867 4     90362.55947  23909404.17647
  20891520.852 6    294074.301 6    213048.30148  20891519.36748
  20666154.914 6     31967.285 6     23013.40247  20666151.87147
  23886208.742 5    239562.152 5    177186.31646  23886205.35546
  20858810.336 6    225839.594 6    162214.00048  20858811.59848
  22459953.961 5   -232914.570 5   -163998.43447  22459954.20347
  24044833.211 5    416446.904 5    293571.03546  24044833.46946
  21765247.797 6    161755.469 6    116170.98047  21765244.71947
  23061997.586 6    478901.668 6    356946.17847  23062000.44947
 18  5 30  0 35 10.0000000  0  9G03G14G16G22G26G27G29G31G32          0.000234657
  23910675.078 5    172668.676 5     95572.24247  23910676.67647
  20893776.969 6    305927.180 6    222284.30948  20893774.86348
  20666389.484 7     33202.637 7     23976.00448  20666386.93448
  23888065.023 4    249312.777 4    184784.21946  23888060.90246
  20860507.102 7    234755.910 7    169161.75848  20860508.28148
  22457280.289 5   -246964.715 5   -174946.60946  22457280.16846
  24048081.828 5    433521.488 5    306875.83246  24048082.93846
  21766449.922 6    168073.031 6    121093.75047  21766447.34047
  23065729.961 6    498514.172 6    372228.60547  23065732.97747
 18  5 30  0 35 15.0000000  0  9G03G14G16G22G26G27G29G31G32          0.000236729
  23911946.891 6    179353.543 6    100781.27747  23911948.18447
  20896032.391 6    317781.902 6    231521.74648  20896030.87948
  20666624.789 7     34437.516 7     24938.24648  20666622.02748
  23889919.063 4    259057.676 4    192377.67246  23889915.28946
  20862203.023 7    243667.141 7    176105.57048  20862204.13348
  22454605.508 5   -261020.766 5   -185899.35547  22454605.34047
  24051331.016 6    450594.070 6    320179.18047  24051331.33247
  21767650.406 6    174381.859 6    126009.71547  21767647.43447
  23069461.391 6    518121.762 6    387507.23847  23069464.14847
 18  5 30  0 35 20.0000000  0  9G03G14G16G22G26G27G29G31G32          0.000238792
  23913219.289 6    186037.359 6    105989.44147  23913220.19147
  20898288.805 6    329638.484 6    240760.63748  20898286.90648
  20666859.539 6     35672.031 6     25900.20748  20666856.46548
  23891772.594 4    268796.977 4    199966.71946  23891768.58646
  20863897.977 7    252573.273 7    183045.41448  20863898.91048
  22451928.992 5   -275082.695 5   -196856.71147  22451929.55947
  24054579.805 6    467664.574 6    333480.86347  24054580.13347
  21768849.320 6    180682.180 6    130919.04747  21768846.36347
  23073191.203 6    537724.492 6    402782.06647  23073194.33247
 18  5 30  0 35 25.0000000  0  9G03G14G16G22G26G27G29G31G32          0.000240849
  23914491.031 6    192720.664 6    111197.18447  23914491.71947
  20900545.820 7    341497.512 7    250001.42648  20900544.16048
  20667094.953 6     36906.703 6     26862.27748  20667091.84048
  23893624.891 4    278531.148 4    207551.79346  23893621.11346
  20865591.930 7    261474.824 7    189981.69148  20865592.32048
  22449252.164 5   -289149.914 5   -207818.16846  22449252.53946
  24057828.047 6    484733.590 6    346781.37947  24057828.32047
  21770047.023 6    186974.516 6    135822.15247  21770043.46947
  23076920.336 6    557322.910 6    418053.55947  23076923.97747
 18  5 30  0 35 30.0000000  0  9G03G14G16G22G26G27G29G31G32          0.000242899
  23915763.266 6    199403.691 6    116404.72747  23915763.94947
  20902802.789 6    353359.230 6    259244.31348  20902801.05948
  20667329.648 6     38141.754 6     27824.65248  20667326.96948
  23895476.922 4    288260.465 4    215133.02046  23895472.50046
  20867285.188 7    270372.023 7    196914.57448  20867285.72748
  22446574.180 5   -303222.164 5   -218783.56346  22446574.08246
  24061075.563 6    501801.277 6    360080.89146  24061075.95746
  21771242.734 6    193259.094 6    140719.22347  21771239.98847
  23080649.164 5    576917.273 5    433321.87947  23080652.15247
 18  5 30  0 35 35.0000000  0  9G03G14G16G22G26G27G29G31G32          0.000244942
  23917035.406 6    206085.898 6    121611.62547  23917035.21547
  20905060.188 6    365223.078 6    268488.86748  20905058.88348
  20667564.570 7     39376.656 7     28786.91848  20667561.69148
  23897327.156 4    297984.281 4    222710.03146  23897322.91446
  20868977.414 7    279264.320 7    203843.62949  20868978.35549
  22443895.727 5   -317300.016 5   -229753.31346  22443895.68846
  24064323.586 6    518867.199 6    373379.00046  24064323.58646
  21772437.266 6    199535.395 6    145609.83247  21772434.39547
  23084376.641 5    596507.000 5    448586.58247  23084380.21147
 18  5 30  0 35 40.0000000  0  9G03G14G16G22G26G27G29G31G32          0.000246977
  23918306.672 6    212768.035 6    126818.50447  23918307.09047
  20907318.820 7    377089.797 7    277735.65648  20907317.00048
  20667799.758 6     40612.199 6     29749.66848  20667797.03948
  23899176.742 5    307703.426 5    230283.36346  23899172.97346
  20870668.578 7    288152.488 7    210769.48049  20870669.30549
  22441215.883 5   -331382.660 5   -240726.79746  22441215.87146
  24067570.609 6    535932.012 6    386676.25046  24067570.29346
  21773630.195 6    205804.191 6    150494.60947  21773627.42647
  23088104.516 5    616092.840 5    463848.27047  23088107.49647
 18  5 30  0 35 45.0000000  0  9G03G14G16G22G26G27G29G31G32          0.000249004
  23919577.594 6    219449.637 6    132024.93047  23919578.24647
  20909577.297 7    388958.992 7    286984.37948  20909575.30948
  20668035.063 6     41847.914 6     30712.55148  20668032.22348
  23901025.109 4    317417.375 4    237852.66846  23901021.21946
  20872359.133 7    297036.039 7    217691.71949  20872359.82849
  22438535.297 5   -345470.531 5   -251704.36746  22438534.93446
  24070817.477 6    552995.230 6    399972.24646  24070817.50046
  21774821.555 6    212065.082 6    155373.20347  21774818.31647
  23091831.000 6    635674.391 6    479106.59047  23091833.14147
 18  5 30  0 35 50.0000000  0  9G03G14G16G22G26G27G29G31G32          0.000251026
  23920848.047 6    226130.078 6    137230.47747  23920849.46147
  20911836.375 7    400829.996 7    296234.50848  20911834.29748
  20668270.313 6     43083.102 6     31675.03148  20668267.66448
  23902872.133 4    327125.402 4    245417.32446  23902868.60546
  20874048.289 7    305914.344 7    224609.87549  20874049.52349
  22435853.016 5   -359564.242 5   -262686.45747  22435852.83247
  24074063.914 6    570056.246 6    413266.55546  24074064.08246
  21776011.281 6    218317.414 6    160245.14147  21776008.35947
  23095556.109 6    655250.918 6    494361.01247  23095558.38747
 18  5 30  0 35 55.0000000  0  9G03G14G16G22G26G27G29G31G32          0.000253038
  23922120.078 5    232808.598 5    142434.51647  23922120.45747
  20914095.359 7    412702.055 7    305485.45348  20914093.67648
  20668505.055 6     44317.137 6     32636.61748  20668501.65648
  23904718.375 5    336826.902 5    252976.92246  23904714.94946
  20875736.813 7    314786.688 7    231523.39549  20875737.90649
  22433170.492 5   -373664.563 5   -273673.70747  22433169.76247
  24077310.813 6    587114.324 6    426558.55146  24077310.16446
  21777199.344 6    224560.414 6    165109.82447  21777196.96547
  23099279.805 6    674821.715 6    509610.96147  23099282.57047
 18  5 30  0 36  0.0000000  0  9G03G14G16G22G26G27G29G31G32          0.000255043
  23923389.602 6    239484.695 6    147636.67647  23923390.67247
  20916354.891 6    424574.672 6    314736.84048  20916353.05948
  20668739.234 6     45549.441 6     33596.85548  20668736.41048
  23906562.711 5    346521.398 5    260531.08246  23906559.92246
  20877424.250 7    323652.535 7    238431.83649  20877424.94549
  22430485.383 5   -387771.930 5   -284666.46547  22430485.31647
  24080556.148 6    604168.934 6    439847.85546  24080555.41046
  21778385.133 6    230793.613 6    169966.85247  21778382.91047
  23103002.547 5    694386.363 5    524856.13347  23103005.31347
 18  5 30  0 36  5.0000000  0  9G03G14G16G22G26G27G29G31G32          0.000257038
  23924660.281 6    246159.152 6    152837.52747  23924660.68847
  20918614.211 7    436448.594 7    323989.24648  20918611.66048
  20668973.859 7     46780.707 7     34556.27348  20668970.54748
  23908406.734 5    356209.555 5    268080.28146  23908403.23446
  20879110.555 7    332512.602 7    245335.78949  20879111.08249
  22427799.219 5   -401885.578 5   -295664.11747  22427799.30147
  24083800.625 6    621220.820 6    453135.02346  24083799.66846
  21779570.344 6    237017.766 6    174816.84047  21779567.60947
  23106724.633 6    713945.398 6    540096.93047  23106727.54347
 18  5 30  0 36 10.0000000  0 10G03G14G16G22G23G26G27G29G31G32       0.000259027
  23925929.070 6    252831.590 6    158036.82447  23925930.52747
  20920873.930 6    448323.566 6    333242.46548  20920871.99648
  20669207.891 6     48010.730 6     35514.72748  20669204.27048
  23910249.234 5    365891.129 5    275624.33646  23910246.23446
  24120407.78115   -395542.16815   -192151.74257  24120406.58657
  20880795.227 7    341366.633 7    252235.02749  20880796.17249
  22425112.695 5   -416005.801 5   -306666.89547  22425112.21547
  24087045.117 6    638269.734 6    466419.90646  24087044.50046
  21780752.422 6    243232.621 6    179659.58647  21780749.79747
  23110446.039 5    733498.707 5    555333.25847  23110448.56647
 18  5 30  0 36 15.0000000  0 10G03G14G16G22G23G26G27G29G31G32       0.000261007
  23927198.445 6    259503.254 6    163235.52747  23927200.09447
  20923134.141 7    460200.719 7    342497.38748  20923132.17648
  20669442.367 6     49240.691 6     36473.12948  20669438.35548
  23912090.109 4    375567.316 4    283164.23046  23912087.47346
  24117847.344 5   -408998.594 5   -202637.25447  24117845.93447
  20882478.578 7    350215.797 7    259130.48049  20882479.89549
  22422424.898 5   -430131.352 5   -317673.81347  22422424.69947
  24090289.914 6    655316.801 6    479703.29746  24090288.70746
  21781933.672 6    249439.324 6    184495.96147  21781931.34847
  23114165.828 5    753047.402 5    570565.98847  23114168.34447
 18  5 30  0 36 20.0000000  0 10G03G14G16G22G23G26G27G29G31G32       0.000262981
  23928468.445 6    266174.430 6    168433.85547  23928469.39847
  20925394.516 7    472080.398 7    351754.28148  20925392.22348
  20669676.461 6     50470.871 6     37431.71548  20669672.52748
  23913931.117 5    385238.344 5    290700.07046  23913928.22346
  24115285.242 5   -422461.855 5   -213128.10247  24115283.55547
  20884161.828 7    359060.418 7    266022.39549  20884163.00049
  22419736.250 5   -444261.922 5   -328684.64147  22419735.48447
  24093533.203 6    672362.379 6    492985.57046  24093531.96546
  21783113.586 6    255638.227 6    189326.28547  21783111.23047
  23117885.414 5    772591.824 5    585795.37947  23117887.73047
 18  5 30  0 36 25.0000000  0 10G03G14G16G22G23G26G27G29G31G32       0.000264948
  23929737.258 6    272845.527 6    173632.10947  23929738.71947
  20927655.930 7    483962.996 7    361013.43848  20927653.85248
  20669910.461 6     51701.727 6     38390.82048  20669907.05148
  23915770.586 5    394904.707 5    298232.28946  23915767.40246
  24112721.625 5   -435931.520 5   -223623.97347  24112720.66847
  20885843.938 7    367900.891 7    272911.07049  20885845.36349
  22417046.086 5   -458397.137 5   -339699.09447  22417045.89847
  24096776.289 6    689406.816 6    506266.93846  24096775.46546
  21784291.719 6    261829.746 6    194150.82847  21784289.18047
  23121603.898 5    792132.324 5    601021.71947  23121606.04347
 18  5 30  0 36 30.0000000  0 10G03G14G16G22G23G26G27G29G31G32       0.000266909
  23931007.414 6    279515.836 6    178829.73847  23931008.21147
  20929917.625 6    495847.750 6    370274.27048  20929915.11348
  20670144.945 6     52932.406 6     39349.78548  20670141.42648
  23917608.828 5    404565.500 5    305760.17246  23917605.67246
  24110157.273 5   -449408.359 5   -234125.37947  24110155.98447
  20887525.508 7    376736.465 7    279795.91849  20887526.69549
  22414355.016 5   -472537.641 5   -350717.65647  22414355.29747
  24100019.734 6    706449.313 6    519546.79346  24100018.39146
  21785468.336 6    268013.160 6    198969.06648  21785465.94948
  23125321.195 6    811668.141 6    616244.41047  23125323.19147
 18  5 30  0 36 35.0000000  0 10G03G14G16G22G23G26G27G29G31G32       0.000268862
  23932275.891 6    286186.398 6    184027.54347  23932278.05547
  20932179.984 6    507735.773 6    379537.66448  20932177.08248
  20670379.102 6     54164.090 6     40309.53148  20670375.57448
  23919446.336 5    414221.961 5    313284.66846  23919443.50446
  24107591.594 5   -462891.172 5   -244631.48047  24107590.02347
  20889206.352 7    385568.238 7    286677.82049  20889207.56349
  22411663.555 5   -486682.379 5   -361739.54347  22411663.59847
  24103262.688 6    723491.000 6    532826.02346  24103261.53946
  21786643.648 6    274189.641 6    203781.89847  21786641.27747
  23129037.289 5    831200.461 5    631464.38347  23129040.11747
 18  5 30  0 36 40.0000000  0 10G03G14G16G22G23G26G27G29G31G32       0.000270807
  23933545.078 5    292856.961 5    189225.38347  23933547.69147
  20934442.453 7    519626.801 7    388803.40248  20934440.18048
  20670613.797 6     55396.473 6     41269.82848  20670610.30148
  23921283.938 5    423873.734 5    320805.55546  23921279.67646
  24105024.547 6   -476380.340 6   -255142.52347  24105023.25447
  20890886.258 7    394395.926 7    293556.52349  20890887.50449
  22408970.688 5   -500831.547 5   -372764.85547  22408971.76647
  24106505.531 6    740531.629 6    546104.42646  24106504.09046
  21787817.586 6    280358.816 6    208589.03947  21787814.84847
  23132753.828 5    850728.895 5    646681.32847  23132756.28947
 18  5 30  0 36 45.0000000  0 10G03G14G16G22G23G26G27G29G31G32       0.000272747
  23934814.992 5    299527.367 5    194423.09047  23934817.43047
  20936705.930 7    531520.742 7    398071.41048  20936703.24248
  20670848.547 7     56629.422 7     42230.56648  20670844.36748
  23923118.555 5    433520.699 5    328322.63746  23923115.52746
  24102457.016 6   -489875.816 6   -265658.48447  24102455.03147
  20892564.859 7    403219.422 7    300431.97349  20892566.35249
  22406277.766 5   -514985.285 5   -383793.75447  22406277.89147
  24109747.227 6    757571.113 6    559381.94146  24109746.46946
  21788989.961 7    286520.668 7    213390.47347  21788987.28147
  23136469.734 5    870253.391 5    661895.21147  23136471.48847
 18  5 30  0 36 50.0000000  0 10G03G14G16G22G23G26G27G29G31G32       0.000274679
  23936084.469 5    306197.508 5    199620.60247  23936087.02747
  20938969.711 7    543417.418 7    407341.53948  20938967.33648
  20671083.117 6     57862.871 6     43191.69148  20671079.38748
  23924952.938 5    443162.742 5    335835.91446  23924950.38746
  24099887.938 6   -503377.734 6   -276179.45347  24099886.24647
  20894243.406 7    412038.578 7    307304.03949  20894244.43849
  22403583.336 5   -529143.684 5   -394826.26647  22403584.08247
  24112990.086 6    774609.316 6    572658.44146  24112988.35546
  21790160.898 6    292675.016 6    218186.06647  21790158.96147
  23140184.438 5    889773.793 5    677105.89147  23140186.34047
 18  5 30  0 36 55.0000000  0 10G03G14G16G22G23G26G27G29G31G32       0.000276606
  23937353.922 5    312867.594 5    204818.05147  23937356.51647
  20941234.148 6    555317.090 6    416614.00448  20941231.36748
  20671317.961 6     59096.992 6     44153.34048  20671314.01648
  23926787.352 5    452800.094 5    343345.56346  23926783.85946
  24097317.258 6   -516885.863 6   -286705.26247  24097315.60547
  20895920.711 7    420853.629 7    314172.90249  20895921.57849
  22400888.203 5   -543306.484 5   -405862.20747  22400888.53947
  24116232.195 6    791646.461 6    585934.13746  24116230.56646
  21791331.133 6    298822.051 6    222975.96147  21791328.65647
  23143898.641 5    909290.320 5    692313.55947  23143899.98047
 18  5 30  0 37  0.0000000  0 10G03G14G16G22G23G26G27G29G31G32       0.000278524
  23938623.211 5    319538.191 5    210015.90647  23938626.25847
  20943498.906 7    567220.199 7    425889.14848  20943496.44948
  20671552.781 7     60332.277 7     45115.89548  20671549.43848
  23928620.195 5    462433.285 5    350851.93846  23928616.84846
  24094745.727 6   -530399.813 6   -297235.60247  24094743.41847
  20897597.500 7    429665.047 7    321038.93849  20897598.59049
  22398192.641 5   -557473.168 5   -416901.19547  22398193.02047
  24119474.266 6    808682.961 6    599209.31646  24119472.89146
  21792499.094 6    304962.285 6    227760.55548  21792497.37948
  23147610.859 6    928803.477 6    707518.60547  23147612.87947
 18  5 30  0 37  5.0000000  0 10G03G14G16G22G23G26G27G29G31G32       0.000280437
  23939892.672 5    326209.559 5    215214.36347  23939895.76647
  20945765.031 7    579127.145 7    435167.28148  20945762.57448
  20671788.000 6     61569.086 6     46079.64148  20671784.63748
  23930453.148 5    472062.555 5    358355.25046  23930448.84446
  24092173.422 6   -543919.133 6   -307770.15647  24092170.51247
  20899273.672 7    438473.211 7    327902.43849  20899274.27349
  22395496.063 6   -571643.484 6   -427942.98847  22395496.27747
  24122716.563 6    825719.180 6    612484.28146  24122715.18846
  21793666.656 7    311096.063 7    232540.12147  21793665.03947
  23151323.992 6    948313.582 6    722721.25847  23151325.87547
 18  5 30  0 37 10.0000000  0 10G03G14G16G22G23G26G27G29G31G32       0.000282345
  23941162.164 5    332881.543 5    220413.30147  23941165.20347
  20948031.398 7    591037.773 7    444448.28948  20948028.96548
  20672023.820 7     62807.234 7     47044.42648  20672020.38348
  23932285.000 5    481687.828 5    365855.44546  23932279.76646
  24089599.336 6   -557443.910 6   -318308.94547  24089596.78147
  20900949.344 7    447277.934 7    334763.25449  20900949.29349
  22392799.227 5   -585817.426 5   -438987.61747  22392798.83247
  24125958.227 6    842754.980 6    625758.93446  24125956.52046
  21794832.844 6    317223.266 6    237314.56647  21794830.91847
  23155036.344 6    967820.477 6    737921.41047  23155037.76247
 18  5 30  0 37 15.0000000  0 10G03G14G16G22G23G26G27G29G31G32       0.000284245
  23942432.359 5    339554.035 5    225612.63747  23942434.77347
  20950298.656 7    602951.914 7    453732.02748  20950295.96148
  20672259.898 6     64046.641 6     48010.18448  20672256.28548
  23934115.883 5    491308.824 5    373352.33246  23934110.41046
  24087024.836 5   -570974.328 5   -328852.11347  24087022.38347
  20902624.297 7    456079.082 7    341621.28149  20902624.76649
  22390100.758 5   -599995.145 5   -450035.18847  22390101.10547
  24129199.969 6    859790.188 6    639033.10246  24129198.07846
  21795996.984 6    323343.758 6    242083.77748  21795995.32848
  23158747.617 6    987324.039 6    753118.97747  23158749.45747
 18  5 30  0 37 20.0000000  0 10G03G14G16G22G23G26G27G29G31G32       0.000286139
  23943701.445 5    346227.332 5    230812.59847  23943704.98447
  20952566.977 7    614869.910 7    463018.77348  20952564.39548
  20672496.195 7     65287.613 7     48977.17248  20672492.34448
  23935944.922 5    500925.988 5    380846.24646  23935940.00446
  24084448.383 5   -584510.004 5   -339399.38747  24084446.62547
  20904298.313 7    464876.965 7    348476.77048  20904298.55148
  22387402.047 5   -614176.328 5   -461085.44147  22387402.47347
  24132441.742 6    876825.148 6    652307.08646  24132440.10546
  21797160.875 6    329457.879 6    246848.02748  21797159.02048
  23162459.180 6   1006824.605 6    768314.20347  23162460.39847
 18  5 30  0 37 25.0000000  0 10G03G14G16G22G23G26G27G29G31G32       0.000288025
  23944971.813 5    352901.535 5    236013.24647  23944974.73047
  20954835.281 7    626791.879 7    472308.60948  20954833.00048
  20672732.242 7     66530.293 7     49945.48848  20672728.60548
  23937775.508 5    510539.410 5    388337.20745  23937769.36345
  24081871.836 5   -598050.797 5   -349950.65647  24081869.56347
  20905972.156 7    473671.711 7    355329.82048  20905972.35248
  22384703.109 5   -628360.816 5   -472138.29747  22384703.62547
  24135682.852 6    893860.016 6    665580.99646  24135681.63346
  21798323.477 6    335565.785 6    251607.43047  21798320.89547
  23166168.758 6   1026322.238 6    783507.14847  23166170.93047
 18  5 30  0 37 30.0000000  0 10G03G14G16G22G23G26G27G29G31G32       0.000289907
  23946241.648 5    359576.539 5    241214.54747  23946244.78547
  20957104.563 7    638717.621 7    481601.38348  20957102.41448
  20672969.555 7     67774.422 7     50914.92648  20672965.53948
  23939603.852 5    520148.891 5    395825.14845  23939597.74245
  24079294.219 6   -611596.961 6   -360506.10947  24079291.53947
  20907644.781 7    482463.133 7    362180.26649  20907644.90249
  22382002.523 5   -642548.754 5   -483193.82847  22382003.80147
  24138924.789 6    910894.535 6    678854.63746  24138923.26646
  21799484.406 6    341667.324 6    256361.86347  21799482.21947
  23169878.492 6   1045816.777 6    798697.67647  23169880.39847
 18  5 30  0 37 35.0000000  0 10G03G14G16G22G23G26G27G29G31G32       0.000291782
  23947512.125 5    366252.367 5    246416.48047  23947514.81647
  20959374.977 7    650647.301 7    490897.23448  20959372.62948
  20673206.414 7     69020.199 7     51885.66448  20673202.82048
  23941431.539 6    529754.543 6    403310.05146  23941425.53946
  24076715.469 5   -625148.277 5   -371065.57047  24076712.66447
  20909317.336 7    491251.316 7    369028.19948  20909317.60948
  22379302.453 5   -656740.051 5   -494251.98847  22379303.34847
  24142165.516 6    927928.836 6    692128.10946  24142164.47746
  21800644.367 6    347762.586 6    261111.42247  21800642.02347
  23173587.766 6   1065308.336 6    813885.87547  23173589.84447
 18  5 30  0 37 40.0000000  0 10G03G14G16G22G23G26G27G29G31G32       0.000293652
  23948782.680 4    372928.938 4    251618.98847  23948784.85247
  20961645.508 7    662580.707 7    500195.98848  20961643.49648
  20673443.563 6     70267.406 6     52857.50848  20673440.05148
  23943258.625 6    539356.188 6    410791.82046  23943252.40646
  24074135.695 5   -638704.980 5   -381629.25047  24074132.91047
  20910988.828 7    500036.109 7    375873.48848  20910988.70348
  22376601.578 5   -670934.848 5   -505312.86747  22376601.83647
  24145408.336 6    944962.727 6    705401.26246  24145405.97346
  21801802.922 6    353851.422 6    265855.96547  21801800.55147
  23177295.961 6   1084796.688 6    829071.59047  23177298.10947
 18  5 30  0 37 45.0000000  0 10G03G14G16G22G23G26G27G29G31G32       0.000295515
  23950053.836 5    379605.789 5    256821.70347  23950055.37147
  20963917.227 7    674517.566 7    509497.42248  20963914.98848
  20673681.000 6     71515.746 6     53830.24248  20673677.62548
  23945084.969 6    548953.523 6    418270.29746  23945078.58646
  24071555.094 5   -652267.301 5   -392197.30147  24071552.19947
  20912659.859 7    508817.219 7    382715.89848  20912659.72748
  22373899.547 5   -685133.395 5   -516376.67647  22373900.04747
  24148648.813 6    961995.930 6    718673.89546  24148647.18846
  21802960.094 6    359933.543 6    270595.28147  21802957.60947
  23181003.430 6   1104281.605 6    844254.62147  23181005.95747
 18  5 30  0 37 50.0000000  0 10G03G14G16G22G23G26G27G29G31G32       0.000297371
  23951324.391 5    386283.121 5    262024.83246  23951325.85546
  20966189.195 7    686457.922 7    518801.59448  20966187.64548
  20673919.109 6     72765.336 6     54803.94148  20673915.44548
  23946910.305 5    558546.613 5    425745.40246  23946903.76246
  24068973.656 5   -665835.145 5   -402769.65247  24068969.61347
  20914330.391 7    517594.734 7    389555.52048  20914329.99248
  22371196.852 5   -699335.629 5   -527443.33247  22371197.44947
  24151890.070 5    979028.535 5    731946.05946  24151888.50046
  21804116.648 6    366009.055 6    275329.43447  21804113.99647
  23184711.406 6   1123763.125 6    859435.01647  23184713.39847
 18  5 30  0 37 55.0000000  0 10G03G14G16G22G23G26G27G29G31G32       0.000299221
  23952596.047 5    392961.727 5    267228.91447  23952596.67247
  20968462.516 6    698402.676 6    528109.18848  20968460.36348
  20674157.148 6     74017.000 6     55779.26248  20674153.68848
  23948735.391 5    568136.395 5    433218.00046  23948728.65246
  24066391.109 5   -679407.609 5   -413345.60947  24066387.06647
  20916000.164 7    526369.496 7    396392.99248  20915999.70348
  22368493.352 5   -713540.625 5   -538512.16047  22368494.37147
  24155131.445 5    996061.328 5    745218.35246  24155129.80946
  21805271.305 6    372078.785 6    280059.09047  21805268.88347
  23188418.078 6   1143242.109 6    874613.42647  23188420.43447
 18  5 30  0 38  0.0000000  0 10G03G14G16G22G23G26G27G29G31G32       0.000301065
  23953866.148 5    399641.148 5    272433.66447  23953867.17647
  20970735.891 6    710351.207 6    537419.71548  20970733.94148
  20674395.328 6     75270.156 6     56755.73448  20674392.28948
  23950559.828 5    577722.129 5    440687.38346  23950552.86346
  24063807.375 5   -692985.215 5   -423925.53547  24063802.63747
  20917668.930 7    535140.910 7    403227.85548  20917669.06648
  22365789.617 5   -727748.949 5   -549583.57447  22365790.72747
  24158371.938 5   1013093.777 5    758490.40646  24158371.03146
  21806425.367 6    378142.195 6    284783.81348  21806422.83648
  23192124.727 6   1162717.965 6    889789.40247  23192126.62547
 18  5 30  0 38  5.0000000  0 10G03G14G16G22G23G26G27G29G31G32       0.000302902
  23955137.461 5    406321.637 5    277639.23847  23955138.25047
  20973010.836 6    722303.992 6    546733.56648  20973008.82048
  20674634.266 6     76525.207 6     57733.69948  20674631.57848
  23952382.859 5    587304.324 5    448154.04746  23952376.60246
  24061222.633 5   -706567.633 5   -434509.24247  24061217.81647
  20919337.602 7    543909.430 7    410060.46548  20919337.77048
  22363085.484 5   -741960.195 5   -560657.26247  22363085.94147
  24161613.680 5   1030126.266 5    771762.47746  24161612.25446
  21807577.859 6    384199.711 6    289503.95747  21807575.27047
  23195830.031 6   1182191.125 6    904963.27348  23195832.24648
 18  5 30  0 38 10.0000000  0 10G03G14G16G22G23G26G27G29G31G32       0.000304735
  23956408.805 5    413003.465 5    282845.85247  23956409.53547
  20975286.516 7    734261.137 7    556050.80548  20975284.21948
  20674873.508 6     77782.363 6     58713.29348  20674870.41848
  23954206.336 6    596883.168 6    455618.08246  23954199.84046
  24058637.172 5   -720154.566 5   -445096.48047  24058632.01247
  20921005.570 7    552675.168 7    416890.90248  20921006.12148
  22360379.922 5   -756174.156 5   -571733.07847  22360380.77747
  24164854.430 5   1047158.988 5    785034.71146  24164853.44546
  21808729.633 6    390251.488 6    294219.62948  21808726.94548
  23199535.188 6   1201661.742 6    920135.16448  23199537.01248
 18  5 30  0 38 15.0000000  0 10G03G14G16G22G23G26G27G29G31G32       0.000306562
  23957680.242 5    419686.387 5    288053.34847  23957680.50047
  20977562.313 6    746222.453 6    565371.30948  20977560.69948
  20675112.688 6     79041.383 6     59694.35548  20675110.34848
  23956028.883 6    606458.340 6    463079.24246  23956022.03946
  24056050.484 5   -733746.324 5   -455687.45347  24056045.85947
  20922673.172 7    561437.938 7    423719.03149  20922673.55949
  22357675.039 5   -770391.074 5   -582811.19147  22357675.68447
  24168095.836 5   1064191.652 5    798306.91446  24168094.41046
  21809880.273 6    396297.355 6    298930.68848  21809877.38748
  23203240.172 6   1221129.555 6    935304.86748  23203241.78148
 18  5 30  0 38 20.0000000  0 10G03G14G16G22G23G26G27G29G31G32       0.000308382
  23958952.555 6    426370.152 6    293261.46947  23958951.96547
  20979839.242 6    758187.770 6    574694.91448  20979837.37948
  20675352.406 6     80302.133 6     60676.75048  20675350.24248
  23957849.164 6    616029.793 6    470537.53546  23957843.53546
  24053463.398 5   -747343.008 5   -466282.28947  24053458.49647
  20924340.086 7    570197.555 7    430544.69548  20924340.21148
  22354969.641 5   -784611.023 5   -593891.66847  22354969.58247
  24171337.711 5   1081224.160 5    811578.98046  24171335.25846
  21811029.500 6    402337.121 6    303637.00047  21811026.96147
  23206944.133 6   1240594.434 6    950472.27748  23206945.53548
 18  5 30  0 38 25.0000000  0 10G03G14G16G22G23G26G27G29G31G32       0.000310196
  23960224.734 6    433055.242 6    298470.62547  23960223.79347
  20982116.617 6    770157.453 6    584021.93848  20982115.46148
  20675592.992 6     81564.922 6     61660.74248  20675590.70348
  23959670.102 6    625597.754 6    477993.08646  23959664.79346
  24050875.383 5   -760944.215 5   -476880.62147  24050869.98847
  20926006.539 7    578954.395 7    437368.20748  20926006.75448
  22352262.680 5   -798833.652 5   -604974.22347  22352262.44947
  24174578.328 5   1098256.828 5    824851.17646  24174576.70346
  21812177.898 6    408371.184 6    308338.86348  21812175.24648
  23210647.570 6   1260056.719 6    965637.67647  23210649.39847
 18  5 30  0 38 30.0000000  0 10G03G14G16G22G23G26G27G29G31G32       0.000312004
  23961497.242 6    439741.383 6    303680.61747  23961496.52747
  20984395.414 6    782131.309 6    593352.21148  20984394.28548
  20675833.242 6     82829.559 6     62646.18048  20675831.38348
  23961489.563 5    635162.105 5    485445.82046  23961484.81646
  24048286.461 5   -774550.152 5   -487482.64146  24048280.94146
  20927671.953 7    587708.199 7    444189.35549  20927672.24649
  22349555.641 5   -813059.199 5   -616059.07447  22349555.45747
  24177819.078 5   1115289.477 5    838123.33646  24177817.88346
  21813324.492 6    414399.359 6    313036.14147  21813322.27347
  23214350.852 6   1279516.230 6    980800.91848  23214352.37148
 18  5 30  0 38 35.0000000  0 10G03G14G16G22G23G26G27G29G31G32       0.000313807
  23962770.164 6    446428.895 6    308891.64547  23962769.57047
  20986675.102 6    794109.656 6    602685.97748  20986673.30548
  20676074.813 6     84096.395 6     63633.31348  20676072.32848
  23963309.391 5    644723.090 5    492895.90646  23963304.92646
  24045696.117 5   -788160.496 5   -498088.09447  24045690.63347
  20929337.141 7    596459.344 7    451008.43048  20929337.83248
  22346848.141 5   -827287.234 5   -627145.84847  22346848.12947
  24181060.859 5   1132322.418 5    851395.75846  24181058.89146
  21814470.688 6    420421.949 6    317729.07047  21814468.21547
  23218053.195 6   1298973.238 6    995962.19548  23218055.37548
 18  5 30  0 38 40.0000000  0 10G03G14G16G22G23G26G27G29G31G32       0.000315603
  23964042.773 6    453117.457 6    314103.52347  23964041.64847
  20988955.438 6    806092.133 6    612022.97748  20988953.68448
  20676315.766 6     85365.063 6     64621.88748  20676313.74648
  23965128.203 6    654280.387 6    500343.17646  23965123.48046
  24043105.344 5   -801775.531 5   -508697.19546  24043099.50046
  20931001.992 7    605207.457 7    457825.14148  20931002.13748
  22344139.805 6   -841518.121 6   -638234.85247  22344140.02747
  24184301.531 5   1149355.285 5    864668.08646  24184299.86746
  21815615.805 6    426438.625 6    322417.39147  21815613.21147
  23221755.039 6   1318427.406 6   1011121.27048  23221757.13748
 18  5 30  0 38 45.0000000  0 10G03G14G16G22G23G26G27G29G31G32       0.000317394
  23965315.867 6    459807.164 6    319316.27047  23965315.32047
  20991236.641 6    818078.898 6    621363.29748  20991234.68448
  20676557.422 6     86635.730 6     65612.01648  20676555.26248
  23966946.320 6    663834.113 6    507787.62146  23966942.18046
  24040513.391 5   -815395.141 5   -519309.89147  24040508.25047
  20932666.109 7    613952.680 7    464639.59848  20932666.46548
  22341431.734 6   -855751.723 6   -649325.96947  22341431.32047
  24187543.438 5   1166388.242 5    877940.50046  24187541.16446
  21816759.195 6    432449.555 6    327101.22347  21816756.50447
  23225456.617 6   1337878.883 6   1026278.24648  23225458.69948
 18  5 30  0 38 50.0000000  0 10G03G14G16G22G23G26G27G29G31G32       0.000319180
  23966589.492 6    466498.688 6    324530.45347  23966588.77047
  20993518.023 6    830070.586 6    630707.46548  20993516.39548
  20676799.406 6     87908.973 6     66604.15648  20676797.59848
  23968763.906 6    673384.969 6    515229.83247  23968759.63747
  24037920.688 5   -829018.742 5   -529925.67646  24037915.93846
  20934329.805 7    622695.660 7    471452.30549  20934330.80149
  22338722.594 6   -869987.328 6   -660418.64547  22338721.93047
  24190784.539 5   1183421.805 5    891213.41446  24190782.67646
  21817902.367 7    438455.375 7    331781.08647  21817899.78147
  23229157.164 6   1357328.281 6   1041433.59848  23229159.44148
 18  5 30  0 38 55.0000000  0 10G03G14G16G22G23G26G27G29G31G32       0.000320959
  23967863.469 6    473191.531 6    329745.64847  23967862.72347
  20995801.188 6    842066.719 6    640055.09048  20995799.27348
  20677042.367 6     89184.375 6     67597.98448  20677040.34048
  23970580.188 6    682932.418 6    522669.40646  23970577.24246
  24035328.367 6   -842646.641 6   -540544.81347  24035322.75847
  20935993.125 7    631435.898 7    478262.87149  20935994.20749
  22336013.266 5   -884225.434 5   -671513.27747  22336013.26647
  24194026.508 5   1200455.613 5    904486.50446  24194023.71546
  21819043.883 6    444455.641 6    336456.60947  21819041.56347
  23232857.773 6   1376775.180 6   1056587.00847  23232860.23047
 18  5 30  0 39  0.0000000  0 10G03G14G16G22G23G26G27G29G31G32       0.000322733
  23969137.359 6    479886.664 6    334962.62947  23969136.49247
  20998084.992 6    854068.215 6    649406.91048  20998083.17248
  20677285.859 6     90462.902 6     68594.22348  20677283.76248
  23972397.055 6    692477.441 6    530107.07046  23972393.55146
  24032733.703 6   -856278.000 6   -551166.64847  24032728.23847
  20937656.117 7    640174.340 7    485072.03949  20937657.41449
  22333303.305 5   -898465.078 5   -682609.08647  22333303.35247
  24197267.664 5   1217490.570 5    917760.47746  24197265.04346
  21820185.047 6    450451.281 6    341128.53947  21820182.71547
  23236558.750 6   1396220.441 6   1071739.14548  23236560.85548
 18  5 30  0 39  5.0000000  0 10G03G14G16G22G23G26G27G29G31G32       0.000324503
  23970410.922 6    486583.504 6    340180.91847  23970411.16447
  21000369.320 6    866074.605 6    658762.52748  21000367.82448
  20677529.805 6     91743.961 6     69592.45348  20677527.56348
  23974212.664 6    702019.449 6    537542.41046  23974209.54746
  24030140.109 5   -869913.313 5   -561791.57846  24030133.94546
  20939318.250 7    648910.457 7    491879.39849  20939319.34849
  22330593.547 5   -912706.707 5   -693706.46547  22330593.39847
  24200509.688 5   1234526.148 5    931034.91046  24200506.77346
  21821325.031 6    456441.766 6    345796.43447  21821322.52747
  23240258.766 6   1415663.563 6   1086889.61348  23240260.71948
 18  5 30  0 39 10.0000000  0 10G03G14G16G22G23G26G27G29G31G32       0.000326265
  23971686.305 6    493281.723 6    345400.33246  23971685.69546
  21002655.500 6    878085.469 6    668121.64148  21002653.57048
  20677774.156 6     93027.195 6     70592.37148  20677771.94948
  23976027.906 6    711558.102 6    544975.10246  23976024.97346
  24027543.977 6   -883552.840 6   -572419.77347  24027538.46147
  20940980.313 7    657643.840 7    498684.63349  20940981.52349
  22327883.125 5   -926950.785 5   -704805.73447  22327882.81647
  24203751.859 5   1251561.980 5    944309.57046  24203749.14546
  21822463.688 6    462426.738 6    350460.05547  21822461.24647
  23243957.922 6   1435104.164 6   1102038.11348  23243959.85948
 18  5 30  0 39 15.0000000  0 10G03G14G16G22G23G26G27G29G31G32       0.000328022
  23972961.516 6    499981.633 6    350621.05947  23972960.55547
  21004941.813 7    890101.195 7    677484.53148  21004939.94548
  20678018.813 6     94312.969 6     71594.27348  20678016.10948
  23977842.711 6    721093.723 6    552405.46146  23977839.81346
  24024947.984 6   -897196.258 6   -583051.02747  24024942.32047
  20942641.703 7    666374.934 7    505488.07849  20942643.10949
  22325171.445 5   -941196.828 5   -715906.55147  22325171.50447
  24206993.672 5   1268598.375 5    957584.66846  24206990.65646
  21823601.281 6    468406.602 6    355119.66047  21823599.02047
  23247657.117 6   1454542.633 6   1117184.95348  23247659.05948
 18  5 30  0 39 20.0000000  0 10G03G14G16G22G23G26G27G29G31G32       0.000329775
  23974236.055 6    506683.758 6    355843.44547  23974236.21947
  21007229.211 7    902122.242 7    686851.57048  21007226.91848
  20678263.672 6     95601.746 6     72598.52348  20678261.58648
  23979655.977 5    730626.832 5    559833.84446  23979653.69946
  24022350.602 6   -910843.078 6   -593684.86747  24022345.28547
  20944303.008 7    675104.145 7    512290.05548  20944304.04748
  22322461.484 6   -955444.391 6   -727008.55147  22322460.49647
  24210235.898 5   1285635.859 5    970860.61746  24210233.04346
  21824738.578 6    474381.813 6    359775.66847  21824736.34047
  23251355.734 6   1473979.410 6   1132330.48448  23251357.47748
 18  5 30  0 39 25.0000000  0 10G03G14G16G22G23G26G27G29G31G32       0.000331522
  23975511.672 6    513388.379 6    361067.83647  23975511.93847
  21009517.859 6    914148.969 6    696223.04748  21009515.95748
  20678510.188 6     96893.848 6     73605.34848  20678507.43448
  23981469.953 6    740157.730 6    567260.52346  23981467.55146
  24019752.672 6   -924492.965 6   -604321.14847  24019748.35247
  20945963.750 7    683831.801 7    519090.81348  20945964.74248
  22319749.859 6   -969693.098 6   -738111.44147  22319748.51247
  24213478.133 5   1302674.637 5    984137.57446  24213475.53946
  21825874.555 6    480352.672 6    364428.29347  21825872.77347
  23255054.711 6   1493414.797 6   1147474.91448  23255056.27048
 18  5 30  0 39 30.0000000  0 10G03G14G16G22G23G26G27G29G31G32       0.000333263
  23976787.695 6    520094.840 6    366293.64547  23976788.53547
  21011807.336 6    926180.691 6    705598.41448  21011805.08648
  20678756.594 6     98188.641 6     74614.27748  20678753.78548
  23983282.477 6    749685.695 6    574684.92247  23983280.80147
  24017154.398 6   -938146.563 6   -614960.30547  24017150.10947
  20947624.281 7    692557.242 7    525889.85548  20947625.18048
  22317037.609 6   -983943.652 6   -749215.76647  22317037.01247
  24216720.602 5   1319714.238 5    997415.16446  24216718.10946
  21827010.086 6    486318.586 6    369077.04747  21827008.05547
  23258752.188 6   1512848.145 6   1162617.76648  23258754.17648
 18  5 30  0 39 35.0000000  0 10G03G14G16G22G23G26G27G29G31G32       0.000335001
  23978065.047 6    526803.551 6    371521.23046  23978065.37946
  21014097.609 6    938217.840 6    714978.01248  21014095.41048
  20679003.594 6     99486.484 6     75625.58248  20679000.57448
  23985096.141 5    759211.191 5    582107.38346  23985093.19146
  24014555.703 6   -951803.395 6   -625601.97347  24014551.62947
  20949284.234 7    701280.895 7    532687.51248  20949285.56648
  22314325.531 5   -998195.543 5   -760321.12947  22314325.12547
  24219963.719 5   1336754.961 5   1010693.65646  24219961.10546
  21828144.641 6    492279.953 6    373722.26647  21828142.75447
  23262450.148 6   1532279.926 6   1177759.39147  23262451.72747
 18  5 30  0 39 40.0000000  0 10G03G14G16G22G23G26G27G29G31G32       0.000336733
  23979342.242 6    533514.406 6    376750.45747  23979342.77047
  21016389.750 6    950260.254 6    724361.70348  21016387.56648
  20679251.133 6    100787.277 6     76639.18048  20679248.53548
  23986907.586 5    768734.102 5    589527.82446  23986905.64546
  24011956.852 6   -965463.605 6   -636246.28947  24011952.07447
  20950943.773 7    710002.633 7    539483.66448  20950945.04348
  22311613.547 6  -1012448.879 6   -771427.63347  22311612.77347
  24223206.273 4   1353796.672 4   1023972.91446  24223204.11746
  21829278.219 6    498236.688 6    378363.86747  21829276.34447
  23266147.328 6   1551709.930 6   1192899.63347  23266149.00847
 18  5 30  0 39 45.0000000  0 10G03G14G16G22G23G26G27G29G31G32       0.000338459
  23980618.914 6    540227.109 6    381981.13347  23980621.01647
  21018682.414 7    962307.648 7    733749.27748  21018679.53548
  20679499.086 6    102090.773 6     77654.89848  20679496.11348
  23988719.125 5    778254.094 5    596945.98046  23988717.07446
  24009356.516 6   -979127.426 6   -646893.40647  24009352.34047
  20952603.063 7    718722.188 7    546278.11748  20952604.78548
  22308900.875 6  -1026703.941 6   -782535.46547  22308899.94947
  24226448.773 4   1370839.109 4   1037252.73846  24226446.90646
  21830410.594 6    504188.461 6    383001.60948  21830408.78948
  23269844.680 6   1571137.898 6   1208038.28948  23269846.21548
 18  5 30  0 39 50.0000000  0 10G03G14G16G22G23G26G27G29G31G32       0.000340179
  23981897.281 6    546942.410 6    387213.80546  23981899.14846
  21020975.641 6    974360.770 6    743141.30548  21020973.82848
  20679747.680 6    103397.699 6     78673.27348  20679744.81648
  23990530.766 5    787771.941 5    604362.46146  23990528.08646
  24006756.219 6   -992794.121 6   -657542.77047  24006751.62147
  20954261.766 7    727440.242 7    553071.39849  20954263.67249
  22306187.406 6  -1040959.996 6   -793644.08647  22306187.16047
  24229692.078 4   1387882.977 4   1050533.66846  24229690.54746
  21831542.672 6    510136.102 6    387636.13348  21831540.79348
  23273541.273 6   1590564.566 6   1223175.93048  23273543.19948
 18  5 30  0 39 55.0000000  0 10G03G14G16G22G23G26G27G29G31G32       0.000341896
  23983175.672 6    553659.930 6    392448.23047  23983178.00047
  21023270.484 6    986419.332 6    752537.59048  21023268.03548
  20679996.969 6    104707.770 6     79694.10548  20679994.34048
  23992341.430 5    797287.289 5    611777.00046  23992339.27746
  24004154.742 6  -1006463.957 6   -668194.58647  24004150.13347
  20955920.492 7    736156.512 7    559863.28149  20955922.76249
  22303475.125 6  -1055217.293 6   -804753.67647  22303474.47347
  24232935.805 3   1404927.996 3   1063815.51246  24232934.28546
  21832673.914 6    516079.266 6    392267.16448  21832671.59048
  23277237.672 6   1609989.617 6   1238312.30948  23277239.12148
 18  5 30  0 40  0.0000000  0 10G03G14G16G22G23G26G27G29G31G32       0.000343607
  23984454.719 6    560379.859 6    397684.52747  23984457.20347
  21025565.992 6    998483.441 6    761938.19548  21025563.91848
  20680247.016 6    106021.059 6     80717.44948  20680243.97748
  23994151.922 5    806800.215 5    619189.65646  23994149.14846
  24001552.570 6  -1020136.836 6   -678848.77347  24001548.47347
  20957579.141 7    744871.125 7    566653.88349  20957581.01249
  22300761.680 6  -1069475.746 6   -815864.15247  22300761.15647
  24236179.180 2   1421974.145 2   1077098.17646  24236178.64146
  21833804.094 6    522018.047 6    396894.78148  21833801.82048
  23280933.883 6   1629413.121 6   1253447.48848  23280935.63748
 18  5 30  0 40  5.0000000  0 10G03G14G16G22G23G26G27G29G31G32       0.000345312
  23985733.977 6    567102.633 6    402923.04347  23985736.67647
  21027863.227 6   1010553.582 6    771343.49648  21027860.89148
  20680497.938 6    107338.090 6     81743.70748  20680494.98048
  23995960.797 5    816311.336 5    626600.89146  23995959.21546
  23998951.000 6  -1033812.227 6   -689504.93447  23998946.10947
  20959237.180 7    753584.520 7    573443.53148  20959238.84848
  22298048.148 6  -1083734.809 6   -826975.11347  22298047.46547
  24239423.461 2   1439022.047 2   1090382.28945  24239423.17245
  21834933.352 6    527953.008 6    401519.41848  21834931.12948
  23284629.914 6   1648835.613 6   1268581.86748  23284631.63348
 18  5 30  0 40 10.0000000  0 10G03G14G16G22G23G26G27G29G31G32       0.000347013
  23987013.242 6    573828.035 6    408163.61347  23987016.67247
  21030160.867 6   1022629.563 6    780753.34848  21030158.72348
  20680748.984 6    108658.621 6     82772.69148  20680746.10548
  23997770.852 5    825820.285 5    634010.46146  23997768.23446
  23996348.117 6  -1047490.375 6   -700163.21947  23996343.69147
  20960895.156 7    762296.504 7    580232.09049  20960897.13349
  22295334.648 6  -1097994.711 6   -838086.71947  22295334.34447
  24242668.336 1   1456071.410 1   1103667.48845  24242667.96945
  21836062.109 6    533883.910 6    406140.89148  21836059.31348
  23288325.984 6   1668256.852 6   1283715.28548  23288326.88348
 18  5 30  0 40 15.0000000  0 10G03G14G16G22G23G26G27G29G31G32       0.000348711
  23988293.438 6    580555.816 6    413406.03947  23988296.98047
  21032459.859 6   1034711.121 6    790167.53548  21032457.78948
  20681000.758 6    109982.508 6     83804.27748  20680997.72348
  23999580.266 5    835326.887 5    641418.19546  23999577.48846
  23993744.180 6  -1061171.457 6   -710823.80147  23993740.19947
  20962552.633 7    771006.852 7    587019.37549  20962554.34849
  22292620.766 6  -1112255.641 6   -849199.12147  22292620.52047
  24245912.094 1   1473122.031 1   1116953.70345  24245912.16045
  21837189.789 6    539810.508 6    410759.01648  21837187.39548
  23292021.438 6   1687676.598 6   1298847.53948  23292022.60548
 18  5 30  0 40 20.0000000  0 10G03G14G16G22G23G26G27G29G31G32       0.000350401
  23989573.891 6    587286.180 6    418650.48846  23989577.52046
  21034760.227 6   1046798.406 6    799586.19148  21034757.95748
  20681253.828 6    111309.766 6     84838.50848  20681250.34448
  24001388.672 5    844831.273 5    648824.20746  24001385.93446
  23991140.633 6  -1074855.309 6   -721486.56646  23991136.63746
  20964209.844 7    779715.715 7    593805.50448  20964211.30548
  22289906.297 6  -1126517.438 6   -860312.21147  22289905.96947
  24249157.156 1   1490174.047 1   1130240.93045  24249157.46145
  21838317.031 6    545732.980 6    415373.93048  21838314.97348
  23295716.594 6   1707094.996 6   1313978.74248  23295717.55548
 18  5 30  0 40 25.0000000  0 10G03G14G16G22G23G26G27G29G31G32       0.000352089
  23990856.047 6    594019.309 6    423897.08647  23990858.14847
  21037061.242 6   1058891.723 6    809009.55948  21037059.39148
  20681506.555 6    112640.715 6     85875.60548  20681503.52048
  24003197.141 5    854333.711 5    656228.69146  24003194.10246
  23988536.133 6  -1088541.691 6   -732151.26647  23988532.02747
  20965866.641 7    788423.340 7    600590.66049  20965868.27349
  22287192.617 6  -1140779.793 6   -871425.73447  22287191.95747
  24252401.023 1   1507227.762 1   1143529.50845  24252402.88745
  21839443.531 6    551651.629 6    419985.84448  21839441.23448
  23299411.320 6   1726512.328 6   1329109.12148  23299412.78148
 18  5 30  0 40 30.0000000  0 10G03G14G16G22G23G26G27G29G31G32       0.000353769
  23992137.305 6    600754.609 6    429145.37947  23992138.88347
  21039363.773 6   1070990.352 6    818437.05148  21039361.80548
  20681760.641 6    113974.656 6     86915.04348  20681757.48848
  24005004.602 5    863833.523 5    663631.14146  24005001.80946
  23985930.117 6  -1102231.184 6   -742818.41447  23985927.32847
  20967523.547 7    797129.055 7    607374.33248  20967525.25448
  22284478.039 6  -1155043.359 6   -882540.20347  22284478.28147
  24255647.570 1   1524282.387 1   1156818.85545  24255647.94145
  21840568.570 7    557565.746 7    424594.24648  21840566.67648
  23303106.531 6   1745927.879 6   1344238.10248  23303107.30948
 18  5 30  0 40 35.0000000  0 10G03G14G16G22G23G26G27G29G31G32       0.000355446
  23993419.344 6    607492.574 6    434395.73847  23993421.11347
  21041667.297 6   1083094.816 6    827869.10548  21041665.30148
  20682014.953 6    115312.117 6     87957.21548  20682012.04748
  24006812.180 5    873331.281 5    671031.98446  24006809.53946
  23983325.531 6  -1115923.273 6   -753487.57047  23983321.73847
  20969180.031 7    805833.402 7    614156.93849  20969181.73849
  22281764.219 6  -1169307.613 6   -893655.21947  22281763.34847
  24258893.648 1   1541338.633 1   1170109.43445  24258893.94945
  21841693.164 6    563475.934 6    429199.57848  21841691.33648
  23306800.492 6   1765342.215 6   1359366.12948  23306801.75048
 18  5 30  0 40 40.0000000  0 10G03G14G16G22G23G26G27G29G31G32       0.000357119
  23994701.945 5    614233.570 5    439648.46546  23994703.37146
  21043971.844 6   1095205.500 6    837305.99648  21043969.58648
  20682270.305 6    116653.547 6     89002.47348  20682267.42648
  24008618.813 5    882827.277 5    678431.44946  24008616.27046
  23980718.836 6  -1129617.664 6   -764158.53547  23980715.33247
  20970836.375 7    814536.734 7    620938.75448  20970837.73448
  22279049.633 6  -1183572.133 6   -904770.40647  22279049.37547
  24262140.320 1   1558396.695 1   1183401.44545  24262140.52345
  21842817.078 6    569382.539 6    433802.12548  21842815.63348
  23310494.859 6   1784755.680 6   1374493.47748  23310496.32848
 18  5 30  0 40 45.0000000  0 10G03G14G16G22G23G26G27G29G31G32       0.000358786
  23995985.227 6    620977.402 6    444903.40646  23995986.18446
  21046277.000 6   1107322.215 6    846747.58648  21046275.36348
  20682526.516 6    117998.719 6     90050.66848  20682523.47348
  24010426.023 5    892321.383 5    685829.44946  24010422.77346
  23978112.602 6  -1143314.355 6   -774831.28146  23978108.94146
  20972492.141 7    823238.887 7    627719.64849  20972494.05149
  22276335.406 6  -1197837.070 6   -915885.95347  22276334.19947
  24265386.039 1   1575456.453 1   1196694.78145  24265386.59045
  21843940.563 6    575285.418 6    438401.77748  21843938.78548
  23314189.211 6   1804168.121 6   1389620.03548  23314190.64848
 18  5 30  0 40 50.0000000  0 10G03G14G16G22G23G26G27G29G31G32       0.000360449
  23997269.398 6    627723.418 6    450160.03946  23997269.54746
  21048584.188 6   1119444.270 6    856193.34448  21048582.23848
  20682782.750 6    119346.906 6     91101.20748  20682780.08248
  24012231.438 5    901812.902 5    693225.42246  24012228.84846
  23975505.453 6  -1157014.016 6   -785506.29746  23975502.34446
  20974147.563 7    831939.137 7    634499.05148  20974149.71548
  22273620.242 6  -1212103.148 6   -927002.37147  22273619.62547
  24268633.797 1   1592517.246 1   1209988.89545  24268633.47345
  21845063.164 6    581183.859 6    442997.96148  21845060.98048
  23317882.703 7   1823578.793 7   1404745.21148  23317884.02048
 18  5 30  0 40 55.0000000  0 10G03G14G16G22G23G26G27G29G31G32       0.000362106
  23998553.430 6    634472.098 6    455418.73446  23998554.19946
  21050892.063 6   1131572.238 6    865643.70348  21050890.36348
  20683039.945 7    120698.680 7     92154.52348  20683037.50448
  24014037.969 5    911302.293 5    700619.73046  24014034.75446
  23972898.078 6  -1170716.250 6   -796183.37947  23972894.90247
  20975802.719 7    840638.031 7    641277.41049  20975804.68849
  22270905.461 6  -1226369.789 6   -938119.24647  22270904.58247
  24271880.742 2   1609579.559 2   1223284.23445  24271880.19545
  21846184.578 6    587078.418 6    447591.10548  21846182.51648
  23321576.359 7   1842988.234 7   1419869.42248  23321577.78148
 18  5 30  0 41  0.0000000  0 10G03G14G16G22G23G26G27G29G31G32       0.000363758
  23999838.992 6    641223.660 6    460679.68446  23999838.44946
  21053200.891 6   1143706.332 6    875098.83648  21053199.50448
  20683298.125 6    122054.238 6     93210.80148  20683294.87148
  24015843.352 5    920789.824 5    708012.60946  24015839.44146
  23970290.039 6  -1184420.711 6   -806862.15246  23970286.56346
  20977458.008 7    849335.770 7    648054.87549  20977459.87149
  22268190.664 6  -1240636.715 6   -949236.34047  22268189.98847
  24275127.617 2   1626643.621 2   1236580.85545  24275127.43445
  21847305.492 6    592969.320 6    452181.42248  21847303.50448
  23325269.992 7   1862396.703 7   1434992.89148  23325271.21548
 18  5 30  0 41  5.0000000  0 10G03G14G16G22G23G26G27G29G31G32       0.000365408
  24001123.594 6    647978.277 6    465943.00446  24001123.95746
  21055511.680 6   1155846.672 6    884558.84048  21055509.42648
  20683557.039 7    123413.652 7     94270.07848  20683553.52048
  24017648.734 5    930275.582 5    715404.09446  24017644.15246
  23967681.688 6  -1198127.277 6   -817542.60246  23967678.14546
  20979112.828 7    858032.520 7    654831.56648  20979114.58648
  22265475.406 6  -1254903.840 6   -960353.57447  22265474.83647
  24278375.555 2   1643709.504 2   1249878.93445  24278375.12545
  21848425.969 7    598856.656 7    456768.95348  21848423.45348
  23328963.250 7   1881804.285 7   1450115.65648  23328964.62548
 18  5 30  0 41 10.0000000  0 10G03G14G16G22G23G26G27G29G31G32       0.000367052
  24002409.609 6    654735.836 6    471208.63746  24002410.14146
  21057822.250 6   1167993.207 6    894023.66848  21057821.09448
  20683816.016 6    124776.953 6     95332.39848  20683812.98848
  24019453.109 5    939759.547 5    722794.20346  24019449.54346
  23965073.211 6  -1211835.941 6   -828224.66046  23965069.63346
  20980767.930 7    866728.188 7    661607.40648  20980769.19548
  22262760.563 6  -1269171.156 6   -971470.96947  22262759.91847
  24281623.992 3   1660777.172 3   1263178.44545  24281622.80545
  21849545.773 7    604740.484 7    461353.74248  21849543.12548
  23332655.836 6   1901210.914 6   1465237.66848  23332657.41448
 18  5 30  0 41 15.0000000  0 10G03G14G16G22G23G26G27G29G31G32       0.000368690
  24003695.039 6    661495.594 6    476475.97746  24003695.87546
  21060134.758 6   1180145.168 6    903492.72748  21060133.26648
  20684076.375 6    126143.336 6     96397.10248  20684072.68448
  24021257.680 5    949240.934 5    730182.25846  24021253.58646
  23962463.469 5  -1225547.500 5   -838909.00846  23962460.41846
  20982422.031 7    875422.031 7    668381.82449  20982423.37949
  22260045.625 6  -1283439.434 6   -982589.09047  22260044.57847
  24284870.375 2   1677845.922 2   1276478.72345  24284871.20745
  21850664.688 7    610619.984 7    465935.16848  21850662.13748
  23336348.734 6   1920615.852 6   1480358.38348  23336350.40248
 18  5 30  0 41 20.0000000  0 10G03G14G16G22G23G26G27G29G31G32       0.000370325
  24004982.211 5    668258.875 5    481746.09046  24004982.87546
  21062448.758 6   1192303.938 6    912967.08648  21062447.30548
  20684336.883 6    127514.164 6     97465.28148  20684333.46548
  24023061.789 5    958721.063 5    737569.36346  24023056.91046
  23959854.078 5  -1239260.555 5   -849594.52746  23959850.80146
  20984076.570 7    884115.375 7    675155.85548  20984077.94948
  22257330.289 6  -1297707.281 6   -993706.89147  22257329.87947
  24288120.094 2   1694917.031 2   1289780.85245  24288120.12545
  21851782.875 6    616496.578 6    470514.32048  21851780.59848
  23340040.977 6   1940020.391 6   1495478.78148  23340042.87148
 18  5 30  0 41 25.0000000  0 10G03G14G16G22G23G26G27G29G31G32       0.000371954
  24006270.242 5    675025.559 5    487018.84046  24006270.31346
  21064764.039 6   1204469.332 6    922446.60948  21064762.04348
  20684598.992 6    128889.324 6     98536.82448  20684595.46148
  24024864.914 5    968199.844 5    744955.44146  24024860.37546
  23957244.313 6  -1252975.332 6   -860281.37146  23957241.13346
  20985730.328 7    892808.063 7    681929.36749  20985732.03549
  22254615.352 6  -1311974.859 6  -1004824.47347  22254614.55147
  24291368.773 2   1711990.305 2   1303084.73045  24291368.28945
  21852900.320 7    622370.051 7    475091.05548  21852898.26248
  23343733.453 6   1959424.430 6   1510598.78948  23343734.93048
 18  5 30  0 41 30.0000000  0 10G03G14G16G22G23G26G27G29G31G32       0.000373581
  24007558.320 6    681795.504 6    492294.14846  24007558.71946
  21067080.430 6   1216641.219 6    931931.18848  21067078.67248
  20684861.352 6    130268.664 6     99611.62548  20684857.74648
  24026668.273 4    977677.086 4    752340.32846  24026663.60546
  23954633.945 5  -1266691.828 5   -870969.55146  23954630.58646
  20987384.086 7    901500.027 7    688702.32449  20987386.32049
  22251900.563 6  -1326242.211 6  -1015941.87947  22251899.89547
  24294616.820 2   1729065.742 2   1316390.21145  24294617.90645
  21854017.711 6    628240.367 6    479665.32048  21854015.57048
  23347425.766 7   1978827.836 7   1525718.30148  23347427.32848
 18  5 30  0 41 35.0000000  0 10G03G14G16G22G23G26G27G29G31G32       0.000375202
  24008847.375 6    688568.314 6    497571.63646  24008848.23046
  21069397.820 6   1228819.129 6    941420.46948  21069395.55148
  20685124.438 6    131651.715 6    100689.32848  20685120.82048
  24028472.805 5    987152.293 5    759723.60246  24028467.13746
  23952024.406 6  -1280410.504 6   -881659.43046  23952020.04746
  20989038.180 7    910190.727 7    695474.29749  20989040.20349
  22249184.750 6  -1340509.805 6  -1027059.47347  22249184.84447
  24297867.125 2   1746142.723 2   1329696.96545  24297867.33245
  21855134.047 6    634106.949 6    484236.68848  21855131.82848
  23351117.258 6   1998230.117 6   1540836.93848  23351119.54348
 18  5 30  0 41 40.0000000  0 10G03G14G16G22G23G26G27G29G31G32       0.000376818
  24010136.266 5    695343.941 5    502851.33646  24010138.06646
  21071715.516 6   1241003.219 6    950914.56648  21071714.44148
  20685388.047 6    133038.633 6    101770.03548  20685384.78548
  24030274.648 5    996625.723 5    767105.48046  24030269.77046
  23949412.508 5  -1294131.191 5   -892350.85946  23949409.29746
  20990692.313 7    918880.344 7    702245.41449  20990693.67649
  22246470.102 6  -1354777.496 6  -1038177.16047  22246469.11747
  24301117.289 2   1763221.535 2   1343005.06345  24301117.83645
  21856249.945 6    639970.059 6    488805.34048  21856247.41448
  23354809.875 7   2017631.434 7   1555954.83647  23354811.46147
 18  5 30  0 41 45.0000000  0 10G03G14G16G22G23G26G27G29G31G32       0.000378431
  24011426.563 5    702122.984 5    508133.69146  24011428.10246
  21074035.727 6   1253193.934 6    960413.81648  21074033.87948
  20685652.609 6    134429.871 6    102854.11748  20685649.86748
  24032077.977 5   1006097.742 5    774486.27346  24032072.40646
  23946802.180 5  -1307853.429 5   -903043.52446  23946798.12546
  20992345.180 7    927569.313 7    709016.04349  20992347.18849
  22243755.031 6  -1369044.773 6  -1049294.52347  22243754.36347
  24304367.891 3   1780302.598 3   1356315.02345  24304367.89845
  21857365.008 6    645830.137 6    493371.62548  21857362.60548
  23358501.320 6   2037032.219 6   1571072.29747  23358503.33647
 18  5 30  0 41 50.0000000  0 10G03G14G16G22G23G26G27G29G31G32       0.000380039
  24012716.695 5    708904.547 5    513418.06346  24012718.35946
  21076356.641 6   1265390.391 6    969917.54348  21076354.86348
  20685918.336 6    135824.535 6    103940.85248  20685914.91048
  24033879.984 5   1015567.488 5    781865.27046  24033874.09046
  23944190.250 5  -1321578.109 5   -913738.06646  23944186.18046
  20993998.773 7    936256.762 7    715785.48049  20993999.99649
  22241040.383 6  -1383312.563 6  -1060412.26647  22241039.39547
  24307619.203 3   1797384.895 3   1369625.88345  24307618.52745
  21858479.352 6    651686.305 6    497934.88348  21858476.56648
  23362193.039 6   2056431.598 6   1586188.68047  23362194.94947
 18  5 30  0 41 55.0000000  0 10G03G14G16G22G23G26G27G29G31G32       0.000381641
  24014006.141 4    715688.938 4    518704.57846  24014008.69146
  21078678.945 6   1277592.859 6    979425.95348  21078677.62148
  20686184.750 6    137222.934 6    105030.52048  20686181.35548
  24035681.875 6   1025035.160 6    789242.65646  24035676.25846
  23941577.313 5  -1335304.930 5   -924434.28147  23941573.92647
  20995651.430 7    944942.961 7    722553.94149  20995652.75449
  22238324.914 6  -1397580.543 6  -1071530.18847  22238324.53547
  24310870.055 3   1814468.754 3   1382937.98845  24310869.51645
  21859593.422 6    657538.828 6    502495.28148  21859590.62148
  23365884.602 6   2075829.816 6   1601304.14147  23365886.64547
 18  5 30  0 42  0.0000000  0 10G03G14G16G22G23G26G27G29G31G32       0.000383240
  24015298.891 4    722475.730 4    523992.98446  24015301.20746
  21081002.359 6   1289801.078 6    988938.84448  21081000.50048
  20686450.883 6    138624.684 6    106122.78148  20686447.57048
  24037481.875 6   1034500.523 6    796618.27746  24037477.27746
  23938965.055 5  -1349034.191 5   -935132.41046  23938961.49646
  20997304.305 7    953627.582 7    729321.18448  20997305.39148
  22235609.852 6  -1411848.988 6  -1082648.44147  22235609.58647
  24314121.570 3   1831553.871 3   1396251.05945  24314120.82445
  21860706.070 6    663387.422 6    507052.64147  21860703.53947
  23369575.719 6   2095226.621 6   1616418.52047  23369577.78147
 18  5 30  0 42  5.0000000  0 10G03G14G16G22G23G26G27G29G31G32       0.000384832
  24016591.836 4    729265.348 4    529283.62146  24016593.61346
  21083326.094 6   1302015.445 6    998456.52748  21083324.64548
  20686718.516 6    140030.293 6    107218.08648  20686715.29348
  24039283.063 5   1043963.914 5    803992.33246  24039278.28946
  23936352.148 5  -1362765.422 5   -945832.07046  23936348.23846
  20998956.859 7    962311.055 7    736087.52348  20998957.88748
  22232894.609 6  -1426117.453 6  -1093766.71947  22232894.30547
  24317372.156 3   1848640.703 3   1409565.50845  24317371.60545
  21861818.180 6    669232.570 6    511607.29347  21861815.58247
  23373266.297 6   2114622.352 6   1631532.05147  23373268.54347
 18  5 30  0 42 10.0000000  0 10G03G14G16G22G23G26G27G29G31G32       0.000386421
  24017884.305 4    736058.355 4    534576.84446  24017886.90246
  21085651.703 6   1314236.414 6   1007979.35248  21085650.63348
  20686987.227 6    141440.195 6    108316.69548  20686983.62548
  24041082.906 5   1053425.930 5    811365.33646  24041078.80946
  23933739.461 5  -1376498.160 5   -956532.89846  23933734.44546
  21000608.914 7    970993.859 7    742853.34449  21000609.89549
  22230179.227 6  -1440385.465 6  -1104884.64547  22230179.11347
  24320623.641 3   1865729.711 3   1422881.52745  24320623.35945
  21862930.148 6    675074.703 6    516159.59848  21862926.69948
  23376957.148 6   2134017.508 6   1646645.13347  23376959.14147
 18  5 30  0 42 15.0000000  0 10G03G14G16G22G23G26G27G29G31G32       0.000388008
  24019177.078 4    742854.770 4    539872.73846  24019179.96546
  21087978.758 6   1326464.023 6   1017507.34848  21087977.50448
  20687256.516 6    142854.402 6    109418.66848  20687252.86748
  24042883.352 5   1062886.375 5    818737.12546  24042878.87546
  23931125.391 5  -1390232.430 5   -967234.91846  23931121.05546
  21002261.336 7    979675.941 7    749618.60549  21002262.28949
  22227464.258 6  -1454652.996 6  -1116002.21147  22227464.14547
  24323876.109 3   1882820.813 3   1436199.29745  24323875.58645
  21864040.945 6    680913.836 6    520709.57448  21864038.44148
  23380647.609 6   2153412.059 6   1661757.75047  23380650.28147
 18  5 30  0 42 20.0000000  0 10G03G14G16G22G23G26G27G29G31G32       0.000389587
  24020470.945 2    749655.035 2    545171.60246  24020473.52746
  21090306.938 6   1338698.801 6   1027040.93848  21090305.83648
  20687526.297 6    144273.438 6    110524.40648  20687523.05548
  24044683.773 5   1072345.973 5    826108.24646  24044678.81346
  23928511.828 5  -1403967.578 5   -977937.64546  23928507.24246
  21003913.203 7    988357.965 7    756383.81649  21003914.91849
  22224749.422 6  -1468919.434 6  -1127118.91447  22224749.49247
  24327129.000 3   1899914.680 3   1449519.20745  24327128.80145
  21865151.836 7    686750.570 7    525257.67247  21865148.30547
  23384338.328 6   2172806.625 6   1676870.37147  23384340.40247
 18  5 30  0 42 25.0000000  0 10G03G14G16G22G23G26G27G29G31G32       0.000391165
  24021765.852 2    756459.047 2    550473.43846  24021768.65646
  21092636.555 6   1350940.625 6   1036580.00448  21092634.98048
  20687797.023 7    145697.199 7    111633.83648  20687794.01248
  24046483.719 5   1081804.523 5    833478.55546  24046478.79346
  23925898.172 5  -1417703.699 5   -988641.10246  23925892.73046
  21005565.414 7    997039.699 7    763148.80149  21005566.80549
  22222035.313 6  -1483184.906 6  -1138234.87547  22222034.58247
  24330381.445 3   1917011.047 3   1462841.06345  24330381.78145
  21866262.203 7    692584.707 7    529803.75447  21866258.93847
  23388029.047 6   2192201.027 6   1691982.87147  23388031.40247
 18  5 30  0 42 30.0000000  0 10G03G14G16G22G23G26G27G29G31G32       0.000392738
  24023061.992 1    763266.887 1    555778.21546  24023063.90246
  21094967.180 7   1363189.563 7   1046124.62948  21094965.80948
  20688068.805 6    147125.699 6    112746.94548  20688065.68448
  24048283.555 5   1091262.074 5    840848.05946  24048278.85246
  23923283.516 5  -1431440.813 5   -999345.34046  23923278.76246
  21007217.742 7   1005721.215 7    769913.61749  21007219.07049
  22219320.859 6  -1497449.395 6  -1149350.06347  22219320.43047
  24333635.398 3   1934110.039 3   1476164.94945  24333635.45745
  21867372.039 7    698416.340 7    534347.88347  21867368.68847
  23391719.609 6   2211595.293 6   1707095.25447  23391721.66047
 18  5 30  0 42 35.0000000  0 10G03G14G16G22G23G26G27G29G31G32       0.000394306
  24024355.773 1    770078.242 1    561085.72346  24024360.51246
  21097299.320 6   1375445.199 6   1055674.46148  21097298.02348
  20688341.633 6    148558.605 6    113863.49648  20688338.87548
  24050082.328 5   1100718.234 5    848216.49246  24050078.20746
  23920668.844 5  -1445179.285 5  -1010050.64146  23920664.22746
  21008869.555 7   1014402.121 7    776677.96149  21008871.04349
  22216606.477 6  -1511713.223 6  -1160464.71947  22216606.53147
  24336889.531 3   1951211.230 3   1489490.51245  24336889.27345
  21868481.031 7    704245.086 7    538889.75047  21868478.23447
  23395410.414 6   2230989.055 6   1722207.24647  23395412.56347
 18  5 30  0 42 40.0000000  0 10G03G14G16G22G23G26G27G29G31G32       0.000395872
  24025654.031 1    776892.836 1    566395.73446  24025657.02346
  21099633.141 7   1387707.449 7   1065229.46148  21099631.48048
  20688615.141 6    149995.816 6    114983.39548  20688612.07848
  24051881.641 5   1110172.934 5    855583.77746  24051877.35546
  23918053.766 5  -1458919.063 5  -1020756.95346  23918049.96146
  21010521.141 7   1023082.375 7    783441.78549  21010522.65249
  22213891.234 6  -1525976.438 6  -1171578.91047  22213892.10247
  24340144.289 3   1968314.531 3   1502817.81645  24340144.14145
  21869589.750 7    710070.898 7    543429.34447  21869587.23047
  23399100.219 6   2250382.227 6   1737318.79347  23399102.75447
 18  5 30  0 42 45.0000000  0 10G03G14G16G22G23G26G27G29G31G32       0.000397432
  24026953.289 1    783711.082 1    571708.62546  24026954.32846
  21101968.094 7   1399976.602 7   1074789.82848  21101965.84048
  20688889.797 6    151437.574 6    116106.84448  20688886.59448
  24053680.094 5   1119626.410 5    862950.08646  24053675.69146
  23915439.383 5  -1472660.012 5  -1031464.19146  23915435.10246
  21012173.156 7   1031762.164 7    790205.25049  21012174.25849
  22211177.969 6  -1540238.805 6  -1182692.43447  22211177.81347
  24343399.555 3   1985420.238 3   1516146.87945  24343399.42245
  21870697.430 7    715894.070 7    547966.88747  21870694.87947
  23402790.859 6   2269775.070 6   1752430.07047  23402793.14547
 18  5 30  0 42 50.0000000  0 10G03G14G16G22G23G26G27G29G31G32       0.000398989
  24028249.875 1    790532.676 1    577024.14546  24028252.93846
  21104304.289 7   1412252.539 7   1084355.48848  21104302.21948
  20689164.672 6    152883.789 6    117233.76648  20689161.76248
  24055478.664 5   1129078.516 5    870315.36346  24055474.62546
  23912824.703 5  -1486402.066 5  -1042172.25846  23912819.85246
  21013824.688 7   1040441.488 7    796968.35248  21013825.98048
  22208464.367 6  -1554500.340 6  -1193805.30947  22208464.18047
  24346655.000 3   2002528.223 3   1529477.82045  24346654.25845
  21871805.492 7    721714.500 7    552502.28548  21871802.41448
  23406481.414 6   2289167.477 6   1767541.00447  23406483.35947
 18  5 30  0 42 55.0000000  0 10G03G14G16G22G23G26G27G29G31G32       0.000400541
  24029548.938 3    797357.832 3    582342.45746  24029551.30946
  21106641.219 6   1424535.316 6   1093926.47348  21106639.12548
  20689440.828 6    154334.543 6    118364.22348  20689438.12148
  24057277.172 5   1138529.332 5    877679.64146  24057273.14846
  23910209.195 5  -1500145.199 5  -1052881.20746  23910204.46946
  21015475.906 7   1049120.301 7    803731.06348  21015477.34048
  22205749.914 6  -1568761.047 6  -1204917.54747  22205750.03547
  24349911.391 3   2019638.594 3   1542810.53145  24349910.77045
  21872912.594 7    727532.238 7    557035.57848  21872909.50048
  23410171.063 6   2308559.473 6   1782651.63347  23410173.71147
 18  5 30  0 43  0.0000000  0 10G03G14G16G22G23G26G27G29G31G32       0.000402090
  24030849.984 4    804187.055 4    587663.91046  24030850.89846
  21108979.992 6   1436825.434 6   1103503.19148  21108977.85948
  20689717.508 6    155790.289 6    119498.57048  20689715.53548
  24059075.586 5   1147979.410 5    885043.32846  24059071.72746
  23907593.422 5  -1513888.973 5  -1063590.62546  23907588.73446
  21017127.680 7   1057799.148 7    810493.79348  21017128.62548
  22203036.563 6  -1583020.313 6  -1216028.66047  22203036.99247
  24353168.219 2   2036751.781 2   1556145.43045  24353166.85545
  21874019.070 7    733347.770 7    561567.15647  21874016.37547
  23413861.570 6   2327951.570 6   1797762.34447  23413864.43847
 18  5 30  0 43  5.0000000  0 10G03G14G16G22G23G26G27G29G31G32       0.000403633
  24032149.305 4    811019.852 4    592988.13346  24032151.23046
  21111319.875 6   1449122.395 6   1113085.24248  21111317.87548
  20689995.625 6    157250.578 6    120636.44548  20689992.99648
  24060873.523 5   1157428.191 5    892406.01646  24060869.91446
  23904977.883 4  -1527633.836 4  -1074300.89546  23904973.84846
  21018779.172 7   1066477.523 7    817256.15649  21018779.91049
  22200323.289 6  -1597278.660 6  -1227139.06647  22200323.94547
  24356425.320 4   2053867.277 4   1569482.26245  24356424.16845
  21875125.172 7    739160.688 7    566096.71148  21875122.25448
  23417551.508 6   2347343.270 6   1812872.73047  23417554.66847
 18  5 30  0 43 10.0000000  0 10G03G14G16G22G23G26G27G29G31G32       0.000405174
  24033450.914 4    817856.359 4    598315.24246  24033452.58246
  21113661.297 6   1461426.387 6   1122672.75048  21113659.32048
  20690274.242 6    158715.594 6    121778.01648  20690272.34048
  24062671.016 5   1166875.914 5    899767.87146  24062667.73446
  23902361.891 5  -1541379.500 5  -1085011.82446  23902357.94946
  21020430.617 7   1075155.645 7    824018.33249  21020431.35249
  22197610.633 6  -1611535.820 6  -1238248.54347  22197610.66847
  24359683.117 3   2070985.324 3                
  21876231.086 6    744971.168 6    570624.34448  21876228.36348
  23421241.742 6   2366734.816 6   1827983.00047  23421244.75047
 18  5 30  0 43 15.0000000  0 10G03G14G16G22G23G26G27G29G31G32       0.000406712
  24034751.148 4    824696.254 4    603645.04346  24034754.66046
  21116004.438 6   1473737.105 6   1132265.52048  21116001.78548
  20690554.219 6    160184.980 6    122922.99248  20690551.39148
  24064469.164 5   1176322.211 5    907128.61346  24064464.78146
  23899745.953 4  -1555126.344 4  -1095723.61346  23899741.51246
  21022081.703 7   1083833.148 7    830780.01249  21022082.92649
  22194897.156 6  -1625792.176 6  -1249357.38347  22194897.78947
  24362940.586 4   2088105.496 4                
  21877336.586 7    750778.875 7    575149.83248  21877333.60248
  23424932.023 6   2386125.809 6   1843092.83647  23424934.59447
 18  5 30  0 43 20.0000000  0 10G03G14G16G22G23G26G27G29G31G32       0.000408243
  24036053.992 4    831539.773 4    608977.66846  24036056.94946
  21118347.781 6   1486054.781 6   1141863.69548  21118345.93448
  20690834.508 6    161659.039 6    124071.61348  20690831.98448
  24066265.898 5   1185767.305 5    914488.41446  24066262.37946
  23897129.563 4  -1568874.066 4  -1106436.13346  23897125.25446
  21023732.656 7   1092510.285 7    837541.41049  21023733.78149
  22192184.789 6  -1640047.441 6  -1260465.37947  22192185.41047
  24366198.383 3   2105228.117 3                
  21878440.734 7    756584.078 7    579673.35548  21878438.02048
  23428621.719 6   2405516.516 6   1858202.46147  23428624.42247
 18  5 30  0 43 25.0000000  0 10G03G14G16G22G23G26G27G29G31G32       0.000409771
  24037357.758 5    838386.574 5    614312.85946  24037359.89146
  21120692.758 6   1498379.094 6   1151467.05148  21120691.07848
  20691115.953 6    163137.395 6    125223.57448  20691113.27048
  24068062.422 5   1195210.891 5    921847.04746  24068059.59046
  23894513.555 4  -1582622.996 4  -1117149.58646  23894508.85946
  21025383.602 7   1101186.715 7    844302.25449  21025385.20349
  22189472.164 6  -1654301.930 6  -1271572.76647  22189473.00047
  24369456.727 3   2122352.781 3                
  21879544.805 7    762386.445 7    584194.67248  21879542.51648
  23432312.039 6   2424906.590 6   1873311.58247  23432314.71947
 18  5 30  0 43 30.0000000  0 10G03G14G16G22G23G26G27G29G31G32       0.000411295
  24038661.461 5    845237.102 5    619650.91846  24038663.73446
  21123039.492 6   1510710.480 6   1161075.92248  21123037.39548
  20691397.859 6    164620.441 6    126379.19948  20691395.73448
  24069859.734 5   1204653.355 5    929204.78946  24069856.57046
  23891897.492 4  -1596372.738 4  -1127863.68446  23891892.69146
  21027035.156 7   1109862.871 7    851062.89149  21027036.41849
  22186759.883 6  -1668555.168 6  -1282679.18847  22186760.89847
  24372716.758 4   2139479.949 4                
  21880648.328 7    768186.363 7    588714.08248  21880645.82048
  23436001.594 6   2444296.418 6   1888420.51647  23436004.48447
 18  5 30  0 43 35.0000000  0 10G03G14G16G22G23G26G27G29G31G32       0.000412817
  24039965.320 5    852091.160 5    624991.77046  24039968.16446
  21125387.531 6   1523048.750 6   1170690.15648  21125385.63348
  20691680.828 6    166108.027 6    127538.35948  20691678.53548
  24071655.953 5   1214094.582 5    936561.55946  24071653.26246
  23889280.906 4  -1610123.313 4  -1138578.46546  23889275.87946
  21028685.828 7   1118538.551 7    857823.15249  21028687.38749
  22184047.734 6  -1682807.379 6  -1293784.80147  22184049.07447
  24375976.406 4   2156609.402 4                
  21881751.617 7    773983.734 7    593231.51648  21881749.31348
  23439691.391 6   2463685.855 6   1903529.15647  23439694.14547
 18  5 30  0 43 40.0000000  0 10G03G14G16G22G23G26G27G29G31G32       0.000414333
  24041271.203 5    858948.723 5    630335.29746  24041273.09046
  21127736.680 6   1535393.793 6   1180309.66048  21127734.60548
  20691964.891 6    167600.094 6    128701.00848  20691962.57048
  24073452.953 4   1223534.418 4    943917.26646  24073449.44546
  23886663.656 4  -1623874.961 4  -1149294.00446  23886658.48046
  21030336.898 7   1127213.684 7    864582.98848  21030337.66848
  22181335.984 6  -1697058.527 6  -1304889.60247  22181337.04747
  24379236.523 3   2173741.117 3                
  21882854.625 7    779778.480 7    597746.90648  21882852.30548
  23443381.563 6   2483074.820 6   1918637.41447  23443383.55547
 18  5 30  0 43 45.0000000  0 10G03G14G16G22G23G26G27G29G31G32       0.000415846
  24042575.750 5    865810.188 5    635681.87546  24042578.82846
  21130087.039 6   1547746.113 6   1189934.84048  21130085.63348
  20692250.109 6    169097.070 6    129867.47748  20692247.66448
  24075249.250 5   1232973.313 5    951272.24646  24075245.50446
  23884047.516 5  -1637627.059 5  -1160009.91446  23884041.73446
  21031987.781 7   1135888.730 7    871342.76648  21031988.27748
  22178625.086 6  -1711308.211 6  -1315993.25447  22178625.60947
  24382495.953 3   2190875.539 3                
  21883956.898 7    785571.035 7    602260.57448  21883954.26248
  23447071.328 6   2502463.734 6   1933745.63747  23447073.44147
 18  5 30  0 43 50.0000000  0 10G03G14G16G22G23G26G27G29G31G32       0.000417353
  24043881.211 5    872675.242 5    641031.25846  24043885.09846
  21132439.047 6   1560105.395 6   1199565.44148  21132437.40248
  20692535.805 6    170598.660 6    131037.54748  20692533.25448
  24077044.820 5   1242410.973 5    958626.24646  24077041.59046
  23881429.938 5  -1651379.910 5  -1170726.43446  23881424.39146
  21033638.164 7   1144563.379 7    878102.23048  21033639.03948
  22175912.859 6  -1725556.707 6  -1327095.98447  22175914.32047
  24385758.570 4   2208012.289 4                
  21885058.633 7    791361.164 7    606772.37148  21885055.75848
  23450760.570 6   2521852.320 6   1948853.60547  23450762.85547
 18  5 30  0 43 55.0000000  0 10G03G14G16G22G23G26G27G29G31G32       0.000418859
  24045188.242 5    879544.539 5    646383.97747  24045192.09847
  21134792.430 6   1572472.316 6   1209202.00048  21134790.69148
  20692822.508 6    172105.570 6    132211.76648  20692819.77348
  24078840.766 5   1251848.117 5    965979.86746  24078837.93446
  23878812.586 5  -1665132.922 5  -1181443.04345  23878807.37145
  21035288.672 7   1153238.328 7    884861.94148  21035289.73848
  22173202.703 6  -1739803.301 6  -1338197.21547  22173203.63747
  24389019.727 3   2225152.098 3                
  21886159.992 7    797149.520 7    611282.76648  21886156.92248
  23454449.781 6   2541241.250 6   1963961.84447  23454452.43447
 18  5 30  0 44  0.0000000  0 10G03G14G16G22G23G26G27G29G31G32       0.000420359
  24046497.898 5    886417.039 5    651739.17647  24046499.96547
  21137147.375 6   1584845.809 6   1218843.67648  21137145.25048
  20693109.758 6    173616.695 6    133389.26248  20693107.73848
  24080637.180 5   1261283.578 5    973332.14847  24080633.05147
  23876195.789 5  -1678887.052 5  -1192160.59946  23876189.58246
  21036939.539 7   1161912.461 7    891621.00448  21036940.48448
  22170491.078 6  -1754049.004 6  -1349297.74647  22170492.72747
  24392281.344 3   2242293.840 3                
  21887260.367 7    802935.031 7    615790.94948  21887258.33648
  23458139.047 6   2560629.430 6   1979069.49647  23458142.39847
 18  5 30  0 44  5.0000000  0 10G03G14G16G22G23G26G27G29G31G32       0.000421856
  24047806.148 5    893292.992 5    657097.04747  24047808.27347
  21139503.211 6   1597226.031 6   1228490.59848  21139501.41448
  20693398.219 6    175132.273 6    134570.23048  20693396.08648
  24082432.625 5   1270717.617 5    980683.35247  24082429.10947
  23873578.570 5  -1692642.164 5  -1202878.84846  23873572.07046
  21038589.914 7   1170586.039 7    898379.63748  21038590.75848
  22167780.594 6  -1768293.637 6  -1360397.46147  22167781.77747
  24395544.211 3   2259437.773 3                
  21888361.734 7    808717.941 7    620297.10948  21888358.34848
  23461828.680 6   2580017.086 6   1994176.75047  23461831.47347
 18  5 30  0 44 10.0000000  0 10G03G14G16G22G23G26G27G29G31G32       0.000423349
  24049114.125 5    900172.148 5    662457.41047  24049117.07447
  21141859.852 6   1609612.813 6   1238142.62148  21141858.28548
  20693687.203 6    176652.059 6    135754.47348  20693685.32448
  24084227.078 5   1280150.039 5    988033.27346  24084224.16046
  23870960.289 5  -1706398.410 5  -1213598.04346  23870954.29346
  21040240.594 7   1179258.805 7    905137.62548  21040241.74248
  22165070.055 6  -1782537.375 6  -1371496.47347  22165071.56647
  24398807.859 3   2276583.629 3                
  21889461.344 7    814498.012 7    624801.05948  21889458.05548
  23465517.383 6   2599403.980 6   2009283.39847  23465520.80147
 18  5 30  0 44 15.0000000  0 10G03G14G16G22G23G26G27G29G31G32       0.000424837
  24050423.961 5    907055.539 5    667821.09046  24050426.84046
  21144218.633 6   1622007.207 6   1247800.59048  21144216.89848
  20693977.734 6    178177.160 6    136942.86348  20693975.66448
  24086022.047 5   1289581.898 5    995382.74646  24086018.52746
  23868343.734 5  -1720154.660 5  -1224317.19146  23868336.40246
  21041890.477 7   1187931.867 7    911895.85248  21041891.67248
  22162359.563 6  -1796779.141 6  -1382593.94947  22162361.27047
  24402069.664 3   2293732.574 3                
  21890561.445 7    820276.363 7    629303.65648  21890557.93848
  23469206.898 6   2618791.176 6   2024390.29747  23469209.72347
 18  5 30  0 44 20.0000000  0 10G03G14G16G22G23G26G27G29G31G32       0.000426323
  24051734.789 4    913943.264 4    673188.14847  24051737.40247
  21146578.813 6   1634409.410 6   1257464.64148  21146577.25048
  20694269.164 6    179707.723 6    138135.50848  20694266.69148
  24087817.719 5   1299013.336 5   1002731.89146  24087813.70346
  23865724.984 6  -1733910.742 6  -1235036.24646  23865718.98846
  21043541.336 7   1196605.340 7    918654.40248  21043542.55148
  22159650.266 6  -1811018.723 6  -1393689.71947  22159651.81347
  24405334.359 3   2310884.660 3                
  21891660.961 7    826053.184 7    633805.06647  21891657.68047
  23472896.258 6   2638178.879 6   2039497.57047  23472899.40647
 18  5 30  0 44 25.0000000  0 10G03G14G16G22G23G26G27G29G31G32       0.000427805
  24053046.477 4    920834.855 4    678558.21147  24053048.79747
  21148940.344 6   1646818.660 6   1267134.18048  21148938.27348
  20694560.969 7    181242.996 7    139331.82448  20694558.69548
  24089612.172 6   1308443.570 6   1010080.12947  24089608.07447
  23863108.172 5  -1747667.406 5  -1245755.72746  23863101.31646
  21045192.039 7   1205278.535 7    925412.73449  21045193.32449
  22156940.391 6  -1825256.816 6  -1404784.33647  22156942.02047
  24408598.508 3   2328039.203 3                
  21892759.109 7    831827.734 7    638304.70748  21892756.21148
  23476585.172 6   2657566.313 6   2054604.64147  23476588.11347
 18  5 30  0 44 30.0000000  0 10G03G14G16G22G23G26G27G29G31G32       0.000429283
  24054358.656 5    927730.242 5    683931.19547  24054360.41447
  21151302.992 6   1659235.102 6   1276809.32448  21151301.18448
  20694854.469 6    182783.188 6    140531.96948  20694851.81348
  24091406.727 5   1317872.801 5   1017427.57047  24091402.07847
  23860490.141 6  -1761424.352 6  -1256475.41846  23860484.14846
  21046842.156 7   1213951.570 7    932170.93849  21046843.55549
  22154231.398 6  -1839493.293 6  -1415877.70747  22154233.20347
  24411863.578 3   2345196.293 3                
  21893857.844 7    837600.133 7    642802.68448  21893855.37148
  23480274.859 6   2676953.633 6   2069711.62947  23480277.49647
 18  5 30  0 44 35.0000000  0 10G03G14G16G22G23G26G27G29G31G32       0.000430758
  24055671.594 4    934629.195 4    689307.02346  24055673.30546
  21153667.031 6   1671658.613 6   1286489.97348  21153665.28948
  20695148.266 6    184328.102 6    141735.79748  20695145.35248
  24093200.211 5   1327300.867 5   1024774.12147  24093196.68847
  23857872.508 6  -1775181.785 6  -1267195.44946  23857866.78546
  21048492.820 7   1222624.313 7    938928.91448  21048493.54748
  22151523.344 6  -1853728.242 6  -1426969.88347  22151523.53947
  24415128.516 3   2362355.859 3                
  21894955.906 7    843370.273 7    647298.89148  21894953.18048
  23483964.094 6   2696340.707 6   2084818.42247  23483966.68047
 18  5 30  0 44 40.0000000  0 10G03G14G16G22G23G26G27G29G31G32       0.000432228
  24056985.398 4    941532.602 4    694686.30546  24056986.63346
  21156032.539 6   1684089.855 6   1296176.65648  21156031.00848
  20695443.625 6    185878.438 6    142943.83648  20695440.58648
  24094994.836 5   1336728.414 5   1032120.25447  24094990.08247
  23855254.734 6  -1788939.094 6  -1277915.44546  23855249.40646
  21050143.141 7   1231297.426 7    945687.18049  21050144.09849
  22148814.828 6  -1867961.004 6  -1438060.34847  22148815.00447
  24418394.625 4   2379518.527 4                
  21896053.820 7    849138.875 7    651793.90248  21896051.37548
  23487653.109 6   2715728.156 6   2099925.51647  23487655.94147
 18  5 30  0 44 45.0000000  0 10G03G14G16G22G23G26G27G29G31G32       0.000433695
  24058299.938 4    948439.902 4    700068.61746  24058300.69946
  21158399.625 6   1696528.441 6   1305869.06348  21158398.17248
  20695739.359 6    187433.805 6    144155.81348  20695736.30548
  24096787.961 6   1346155.047 6   1039465.69147  24096783.95747
  23852637.023 6  -1802696.594 6  -1288635.57846  23852631.34846
  21051793.422 7   1239970.516 7    952445.42249  21051794.62549
  22146105.820 6  -1882191.934 6  -1449149.37547  22146107.38347
  24421660.742 3   2396683.938 3                
  21897150.867 7    854905.539 7    656287.39548  21897148.30948
  23491342.531 6   2735115.637 6   2115032.62947  23491345.15647
 18  5 30  0 44 50.0000000  0 10G03G14G16G22G23G26G27G29G31G32       0.000435158
  24059614.680 4    955351.270 4    705454.08646  24059615.97346
  21160768.055 6   1708974.359 6   1315567.17248  21160766.18448
  20696036.461 6    188994.184 6    145371.69548  20696033.48848
  24098582.484 6   1355580.840 6   1046810.44947  24098577.14547
  23850019.320 6  -1816454.258 6  -1299355.83647  23850013.89847
  21053443.906 7   1248643.629 7    959203.68049  21053444.95349
  22143398.633 6  -1896421.000 6  -1460236.95747  22143399.59047
  24424928.219 4   2413852.000 4                
  21898247.555 7    860670.289 7    660779.41048  21898245.71548
  23495031.813 6   2754503.098 6   2130139.73047  23495034.53147
 18  5 30  0 44 55.0000000  0 10G03G14G16G22G23G26G27G29G31G32       0.000436619
  24060931.813 4    962266.805 4    710842.79747  24060932.12547
  21163137.578 6   1721427.926 6   1325271.24248  21163136.18048
  20696334.195 6    190559.848 6    146591.69948  20696331.32048
  24100375.836 6   1365005.957 6   1054154.69147  24100370.91847
  23847400.672 6  -1830211.754 6  -1310075.95747  23847396.18047
  21055094.492 7   1257316.980 7    965962.13749  21055096.11749
  22140691.188 6  -1910647.926 6  -1471322.88747  22140692.21547
  24428195.625 4   2431023.055 4                
  21899344.422 7    866433.445 7    665270.18048  21899342.10948
  23498721.547 6   2773890.871 6   2145247.07847  23498723.48047
 18  5 30  0 45  0.0000000  0 10G03G14G16G22G23G26G27G29G31G32       0.000438074
  24062248.563 4    969186.344 4    716234.62947  24062249.00447
  21165509.203 6   1733888.859 6   1334981.06348  21165507.30148
  20696633.078 6    192130.563 6    147815.62948  20696630.08248
  24102169.609 6   1374430.270 6   1061498.29747  24102164.04347
  23844782.656 6  -1843969.391 6  -1320796.19947  23844777.66047
  21056745.180 7   1265990.328 7    972720.58249  21056746.98449
  22137984.422 6  -1924872.910 6  -1482407.27747  22137985.04747
  24431463.563 4   2448196.840 4                
  21900440.891 7    872194.676 7    669759.44548  21900438.66048
  23502411.000 6   2793278.684 6   2160354.44547  23502413.10247
 18  5 30  0 45  5.0000000  0 10G03G14G16G22G23G26G27G29G31G32       0.000439528
  24063565.602 4    976109.727 4    721629.47747  24063566.63347
  21167881.281 6   1746357.074 6   1344696.55148  21167879.83648
  20696933.086 6    193706.211 6    149043.39548  20696929.89148
  24103962.445 6   1383853.523 6   1068841.09047  24103957.69547
  23842164.906 6  -1857727.223 6  -1331516.60247  23842160.07847
  21058395.500 7   1274663.570 7    979478.94549  21058397.27049
  22135277.508 6  -1939096.082 6  -1493490.27747  22135278.58247
  24434731.836 4   2465373.195 4                
  21901536.500 7    877953.902 7    674247.14848  21901534.42648
  23506100.125 6   2812666.395 6   2175461.73447  23506102.01247
 18  5 30  0 45 10.0000000  0 10G03G14G16G22G23G26G27G29G31G32       0.000440975
  24064884.094 4    983037.164 4    727027.49247  24064885.12947
  21170255.523 6   1758832.777 6   1354417.87148  21170253.71548
  20697234.109 6    195287.035 6    150275.20748  20697230.60548
  24105755.750 6   1393276.031 6   1076183.29347  24105750.56347
  23839547.141 6  -1871484.973 6  -1342236.92247  23839542.65247
  21060045.945 7   1283336.938 7    986237.41049  21060047.92649
  22132571.367 6  -1953317.145 6  -1504571.61347  22132572.61747
  24438001.078 4   2482552.391 4                
  21902632.023 7    883711.457 7    678733.53948  21902629.66048
  23509789.906 6   2832054.207 6   2190569.10247  23509791.41047
 18  5 30  0 45 15.0000000  0 10G03G14G16G22G23G26G27G29G31G32       0.000442421
  24066202.766 5    989968.867 5    732428.80547  24066204.27347
  21172631.141 6   1771316.094 6   1364145.13348  21172629.52048
  20697535.516 6    196873.160 6    151511.15248  20697532.65648
  24107548.336 6   1402697.867 6   1083524.97747  24107543.60547
  23836928.563 6  -1885242.578 6  -1352957.14547  23836924.06647
  21061696.539 7   1292010.559 7    992996.07049  21061698.45349
  22129865.492 6  -1967535.969 6  -1515651.22347  22129866.83647
  24441270.859 4   2499734.582 4                
  21903727.648 6    889467.363 6    683218.66448  21903725.61748
  23513479.172 6   2851442.336 6   2205676.71547  23513481.32047
 18  5 30  0 45 20.0000000  0 10G03G14G16G22G23G26G27G29G31G32       0.000443863
  24067522.930 5    996904.875 5    737833.47347  24067523.81347
  21175008.414 6   1783807.168 6   1373878.42648  21175006.23848
  20697838.586 6    198464.645 6    152751.28148  20697835.26248
  24109341.297 6   1412119.168 6   1090866.25847  24109336.37947
  23834311.094 6  -1898999.785 6  -1363677.04747  23834306.36747
  21063347.023 7   1300684.516 7    999754.99649  21063348.54749
  22127160.523 6  -1981752.488 6  -1526729.02047  22127161.17647
  24444540.680 4   2516919.781 4                
  21904822.555 6    895221.836 6    687702.65648  21904820.56648
  23517169.047 6   2870830.805 6   2220784.59047  23517170.87947
 18  5 30  0 45 25.0000000  0 10G03G14G16G22G23G26G27G29G31G32       0.000445301
  24068844.203 6   1003845.027 6    743241.37546  24068844.61346
  21177386.289 6   1796305.738 6   1383617.57048  21177384.72748
  20698142.133 6    200061.336 6    153995.45348  20698139.07048
  24111133.445 6   1421539.734 6   1098206.94947  24111128.85947
  23831692.742 6  -1912756.887 6  -1374396.86747  23831688.93847
  21064997.734 7   1309358.613 7   1006514.02349  21064999.42649
  22124455.180 6  -1995966.762 6  -1537805.07847  22124456.41447
  24447811.234 4   2534107.828 4                
  21905917.328 7    900974.574 7    692185.30548  21905915.21548
  23520857.703 6   2890219.402 6   2235892.56347  23520860.42247
 18  5 30  0 45 30.0000000  0 10G03G14G16G22G23G26G27G29G31G32       0.000446737
  24070165.047 6   1010789.195 6    748652.41047  24070165.60247
  21179766.375 6   1808811.844 6   1393362.58648  21179764.98048
  20698447.273 6    201663.184 6    155243.63348  20698443.80948
  24112926.547 6   1430959.484 6   1105547.02347  24112920.83247
  23829074.828 6  -1926513.801 6  -1385116.52047  23829071.30947
  21066648.383 7   1318032.832 7   1013273.15248  21066650.03148
  22121751.078 6  -2010178.922 6  -1548879.49247  22121751.88747
  24451082.828 4   2551298.719 4                
  21907011.625 7    906725.637 7    696666.63748  21907009.41048
  23524547.125 5   2909608.145 5   2251000.65647  23524550.17247
 18  5 30  0 45 35.0000000  0 10G03G14G16G22G23G26G27G29G31G32       0.000448168
  24071487.406 6   1017737.715 6    754066.83646  24071488.00446
  21182147.406 6   1821325.664 6   1403113.59848  21182146.31648
  20698753.383 6    203270.406 6    156496.02348  20698749.74648
  24114718.836 6   1440378.699 6   1112886.66847  24114713.68447
  23826457.203 6  -1940270.332 6  -1395835.89847  23826453.26647
  21068298.891 7   1326707.379 7   1020032.52748  21068300.51248
  22119046.711 6  -2024388.641 6  -1559951.99247  22119047.94147
  24454354.844 4   2568492.598 4                
  21908105.992 7    912475.230 7    701146.83648  21908103.78548
  23528237.180 6   2928997.211 6   2266109.00447  23528239.21547
 18  5 30  0 45 40.0000000  0 10G03G14G16G22G23G26G27G29G31G32       0.000449596
  24072810.492 6   1024690.609 6    759484.66847  24072810.79347
  21184530.406 6   1833847.332 6   1412870.73448  21184528.67248
  20699060.094 6    204883.176 6    157752.71948  20699056.87948
  24116510.242 6   1449797.410 6   1120225.91047  24116505.75047
  23823839.492 6  -1954026.352 6  -1406554.87547  23823835.97747
  21069949.391 7   1335382.398 7   1026792.28148  21069951.12548
  22116343.438 6  -2038595.758 6  -1571022.48048  22116344.51648
  24457627.789 4   2585689.707 4                
  21909199.633 7    918223.563 7    705626.05948  21909198.04348
  23531926.906 6   2948386.746 6   2281217.71947  23531929.51247
 18  5 30  0 45 45.0000000  0 10G03G14G16G22G23G26G27G29G31G32       0.000451021
  24074134.188 6   1031647.895 6    764905.96947  24074134.66047
  21186914.477 6   1846376.715 6   1422633.88348  21186912.71148
  20699367.453 6    206501.387 6    159013.66448  20699364.60548
  24118302.547 6   1459215.574 6   1127564.72747  24118298.16847
  23821221.539 6  -1967781.922 6  -1417273.52047  23821218.22747
  21071600.922 7   1344057.789 7   1033552.32048  21071602.00048
  22113639.750 6  -2052800.422 6  -1582091.04347  22113641.48847
  24460900.297 4   2602889.801 4                
  21910293.438 7    923970.480 7    710104.17248  21910291.33248
  23535616.422 5   2967776.652 5   2296326.70747  23535619.10547
 18  5 30  0 45 50.0000000  0 10G03G14G16G22G23G26G27G29G31G32       0.000452442
  24075459.688 6   1038609.672 6    770330.70347  24075460.00447
  21189300.477 6   1858914.098 6   1432403.27048  21189299.03948
  20699676.438 6    208125.277 6    160279.03548  20699673.97748
  24120094.828 6   1468633.516 6   1134903.36747  24120090.80547
  23818604.313 6  -1981536.848 6  -1427991.63747  23818601.28947
  21073251.531 7   1352733.832 7   1040312.86748  21073252.96548
  22110937.703 6  -2067002.301 6  -1593157.44547  22110939.43847
  24464174.703 4   2620093.258 4                
  21911386.438 6    929716.277 6    714581.41048  21911384.68048
  23539306.336 5   2987167.223 5   2311436.22347  23539309.19547
 18  5 30  0 45 55.0000000  0 10G03G14G16G22G23G26G27G29G31G32       0.000453861
  24076785.031 6   1045575.582 6    775758.68846  24076785.45346
  21191688.570 6   1871458.988 6   1442178.50448  21191686.34448
  20699986.492 6    209754.309 6    161548.40248  20699983.68848
  24121886.805 6   1478050.605 6   1142241.34847  24121882.46947
  23815987.156 6  -1995291.531 6  -1438709.56647  23815983.90647
  21074902.320 7   1361409.934 7   1047073.46548  21074904.22348
  22108235.148 6  -2081201.910 6  -1604222.05948  22108237.51248
  24467449.039 4   2637299.465 4                
  21912479.867 6    935460.430 6    719057.36348  21912477.47348
  23542996.836 6   3006557.855 6   2326545.78547  23542998.91447
 18  5 30  0 46  0.0000000  0 10G03G14G16G22G23G26G27G29G31G32       0.000455276
  24078110.867 6   1052545.574 6    781189.84046  24078112.02346
  21194076.891 6   1884011.461 6   1451959.65248  21194075.07048
  20700297.758 6    211388.598 6    162821.87148  20700294.87548
  24123678.430 6   1487466.926 6   1149578.73047  24123674.21147
  23813369.172 6  -2009045.934 6  -1449427.30547  23813366.04347
  21076553.414 7   1370086.207 7   1053834.19548  21076555.35248
  22105534.164 6  -2095399.203 6  -1615284.89848  22105535.66448
  24470724.461 4   2654508.551 4                
  21913572.547 7    941202.965 7    723532.06348  21913570.24648
  23546686.445 5   3025948.609 5   2341655.45747  23546688.95747
 18  5 30  0 46  5.0000000  0 10G03G14G16G22G23G26G27G29G31G32       0.000456688
  24079437.656 6   1059520.180 6    786624.58247  24079439.53547
  21196466.914 6   1896572.012 6   1461747.08248  21196465.36348
  20700609.906 6    213028.648 6    164099.84048  20700606.66048
  24125470.344 6   1496883.051 6   1156915.94947  24125465.80547
  23810751.836 6  -2022799.480 6  -1460144.35947  23810749.53147
  21078204.492 7   1378763.188 7   1060595.48448  21078206.73448
  22102832.859 6  -2109593.539 6  -1626345.41448  22102834.14848
  24473999.391 5   2671720.992 5                
  21914665.469 7    946944.469 7    728005.95348  21914662.94548
  23550376.781 5   3045340.070 5   2356765.65247  23550378.59047
 18  5 30  0 46 10.0000000  0 10G03G14G16G22G23G26G27G29G31G32       0.000458096
  24080765.875 6   1066499.574 6    792063.09046  24080767.33646
  21198858.859 6   1909140.773 6   1471540.91448  21198857.02748
  20700922.914 6    214674.598 6    165382.40648  20700920.14148
  24127262.172 5   1506299.066 5   1164253.08647  24127257.78147
  23808135.188 6  -2036552.012 6  -1470860.61347  23808132.51647
  21079856.023 7   1387440.992 7   1067357.41048  21079858.12948
  22100132.508 6  -2123784.855 6  -1637403.57448  22100134.00448
  24477275.141 4   2688936.898 4                
  21915757.539 6    952685.121 6    732479.18048  21915755.49648
  23554066.906 6   3064732.340 6   2371876.49247  23554069.14547
 18  5 30  0 46 15.0000000  0 10G03G14G16G22G23G26G27G29G31G32       0.000459501
  24082095.594 6   1073483.488 6    797505.09046  24082096.38346
  21201251.719 6   1921717.504 6   1481340.96948  21201249.96948
  20701237.672 6    216326.113 6    166669.29348  20701234.59848
  24129053.930 5   1515714.664 5   1171589.93047  24129049.87147
  23805518.430 6  -2050303.746 6  -1481576.25847  23805515.32047
  21081507.219 7   1396119.352 7   1074119.75848  21081509.46148
  22097432.914 6  -2137973.336 6  -1648459.54348  22097434.02748
  24480552.688 4   2706156.098 4                
  21916849.750 6    958424.645 6    736951.52348  21916847.79748
  23557756.977 5   3084125.145 5   2386987.74247  23557759.02047
 18  5 30  0 46 20.0000000  0 10G03G14G16G22G23G26G27G29G31G32       0.000460903
  24083425.180 6   1080471.602 6    802950.36346  24083426.19946
  21203646.945 6   1934301.836 6   1491146.94148  21203644.74648
  20701552.805 6    217982.945 6    167960.32048  20701549.43048
  24130845.141 5   1525129.633 5   1178926.26247  24130841.56647
  23802901.641 6  -2064055.051 6  -1492291.55947  23802898.32047
  21083158.602 7   1404797.941 7   1080882.28548  21083160.52048
  22094732.422 6  -2152159.336 6  -1659513.55148  22094734.56348
  24483830.367 4   2723378.191 4   1575913.61755  24483828.27755
  21917941.680 7    964162.664 7    741422.69948  21917939.25448
  23561447.367 6   3103518.109 6   2402099.12947  23561449.75447
 18  5 30  0 46 25.0000000  0 10G03G14G16G22G23G26G27G29G31G32       0.000462301
  24084755.461 6   1087464.395 6    808399.29346  24084756.48046
  21206043.000 6   1946894.395 6   1500959.32448  21206041.07448
  20701869.477 6    219645.629 6    169255.91848  20701866.24648
  24132637.055 5   1534544.375 5   1186262.43447  24132633.30947
  23800285.422 6  -2077805.297 6  -1503006.02347  23800282.13747
  21084810.352 7   1413477.293 7   1087645.42248  21084811.77048
  22092034.227 6  -2166342.215 6  -1670565.15648  22092035.59048
  24487108.500 4   2740603.672 4   1589336.06345  24487106.89845
  21919033.281 7    969899.809 7    745893.20748  21919031.60948
  23565138.328 6   3122911.891 6   2417211.14147  23565140.57047
 18  5 30  0 46 30.0000000  0 10G03G14G16G22G23G26G27G29G31G32       0.000463697
  24086087.078 6   1094461.754 6    813851.77747  24086087.98447
  21208440.961 6   1959494.953 6   1510777.93848  21208438.89548
  20702186.836 6    221314.012 6    170555.95348  20702183.26648
  24134428.914 6   1543958.949 6   1193598.44946  24134424.61746
  23797668.438 6  -2091554.719 6  -1513719.85547  23797665.56647
  21086462.422 7   1422157.270 7   1094409.04348  21086463.47348
  22089335.766 6  -2180522.148 6  -1681614.44548  22089336.93048
  24490386.773 4   2757832.461 4   1602761.09845  24490385.75045
  21920124.656 6    975635.953 6    750362.93848  21920123.14548
  23568828.977 6   3142306.207 6   2432323.58247  23568831.40647
 18  5 30  0 46 35.0000000  0 10G03G14G16G22G23G26G27G29G31G32       0.000465090
  24087419.813 6   1101463.844 6    819307.97746  24087421.04746
  21210839.906 6   1972103.723 6   1520602.94948  21210838.71148
  20702505.391 6    222988.230 6    171860.54348  20702502.30948
  24136219.648 6   1553373.352 6   1200934.34046  24136216.21146
  23795052.734 6  -2105303.043 6  -1524432.84847  23795049.72347
  21088114.195 7   1430838.031 7   1101173.27048  21088115.77048
  22086637.930 6  -2194698.977 6  -1692661.32448  22086639.18448
  24493665.711 3   2775064.668 3   1616188.78545  24493665.17645
  21921216.586 6    981371.242 6    754831.98848  21921214.57048
  23572519.742 6   3161701.344 6   2447436.64147  23572521.98847
 18  5 30  0 46 40.0000000  0 10G03G14G16G22G23G26G27G29G31G32       0.000466480
  24088752.977 5   1108470.762 5    824767.88746  24088754.33246
  21213240.742 6   1984720.797 6   1530434.43448  21213239.08248
  20702825.008 6    224668.410 6    173169.77348  20702822.03948
  24138011.070 6   1562787.688 6   1208270.15646  24138007.21546
  23792436.281 6  -2119050.238 6  -1535144.95347  23792433.39147
  21089766.375 7   1439519.668 7   1107938.18848  21089767.80148
  22083941.141 6  -2208872.520 6  -1703705.64848  22083942.05148
  24496945.930 4   2792300.336 4   1629619.16045  24496946.07845
  21922307.453 6    987105.785 6    759300.46148  21922305.28148
  23576210.422 5   3181097.324 5   2462550.38747  23576212.97347
 18  5 30  0 46 45.0000000  0 10G03G14G16G22G23G26G27G29G31G32       0.000467867
  24090087.055 5   1115483.031 5    830232.00046  24090088.55946
  21215643.398 6   1997346.703 6   1540272.80548  21215641.63348
  20703145.969 7    226355.078 7    174484.05548  20703142.84448
  24139802.055 5   1572202.430 5   1215606.30146  24139798.99646
  23789820.398 6  -2132795.680 6  -1545855.69547  23789817.35247
  21091418.461 7   1448202.730 7   1114704.20748  21091420.27348
  22081244.930 6  -2223042.262 6  -1714747.00448  22081245.60548
  24500225.602 3   2809540.195 3   1643052.80945  24500226.62945
  21923398.836 6    992840.137 6    763768.78548  21923396.51648
  23579902.109 5   3200494.652 5   2477665.16047  23579904.16847
 18  5 30  0 46 50.0000000  0 10G03G14G16G22G23G26G27G29G31G32       0.000469250
  24091422.016 5   1122499.641 5    835699.48046  24091423.81346
  21218047.453 6   2009980.410 6   1550117.23848  21218046.02748
  20703467.836 7    228047.195 7    175802.58648  20703464.90648
  24141594.117 5   1581616.555 5   1222941.98046  24141590.34446
  23787204.953 6  -2146540.363 6  -1556565.83647  23787201.96947
  21093070.953 7   1456886.191 7   1121470.54348  21093072.44948
  22078548.781 6  -2237209.184 6  -1725786.16448  22078549.47748
  24503506.273 3   2826783.035 3   1656488.74245  24503508.41445
  21924489.961 7    998573.262 7    768236.14548  21924487.46948
  23583593.148 6   3219892.332 6   2492780.21947  23583595.75847
 18  5 30  0 46 55.0000000  0 10G03G14G16G22G23G26G27G29G31G32       0.000470631
  24092757.781 5   1129520.641 5    841170.37546  24092759.85946
  21220453.188 6   2022621.977 6   1559967.80548  21220451.26248
  20703790.984 6    229744.895 6    177125.46548  20703788.16048
  24143385.977 5   1591030.172 5   1230277.25846  24143381.33646
  23784589.602 6  -2160284.199 6  -1567275.33647  23784586.63347
  21094723.336 7   1465570.125 7   1128237.22748  21094725.35248
  22075853.383 6  -2251373.227 6  -1736823.07848  22075854.27348
  24506788.922 3   2844028.926 3   1669927.10945  24506790.06345
  21925580.336 7   1004305.305 7    772702.67248  21925578.16848
  23587284.578 6   3239290.430 6   2507895.59847  23587288.02747
 18  5 30  0 47  0.0000000  0 10G03G14G16G22G23G26G27G29G31G32       0.000472008
  24094093.391 4   1136546.395 4    846645.04746  24094097.28946
  21222860.281 6   2035271.816 6   1569824.81648  21222858.57048
  20704115.086 6    231448.523 6    178452.95748  20704111.82848
  24145177.586 6   1600443.688 6   1237612.47746  24145172.50846
  23781974.656 6  -2174026.738 6  -1577983.79347  23781971.91047
  21096375.930 7   1474254.887 7   1135004.55948  21096378.05548
  22073158.797 6  -2265533.918 6  -1747857.37548  22073159.53148
  24510070.852 2   2861278.309 2   1683368.14845  24510073.30945
  21926670.922 7   1010036.633 7    777168.62948  21926668.88348
  23590976.242 5   3258689.395 5   2523011.66047  23590979.03947
 18  5 30  0 47  5.0000000  0 10G03G14G16G22G23G26G27G29G31G32       0.000473383
  24095431.805 5   1143576.980 5    852123.34046  24095434.54346
  21225268.867 6   2047929.820 6   1579688.19148  21225267.34448
  20704439.961 6    233158.020 6    179785.03148  20704437.03548
  24146968.813 6   1609857.016 6   1244947.53546  24146964.21546
  23779359.977 6  -2187768.125 6  -1588691.38347  23779356.73847
  21098028.914 7   1482940.434 7   1141772.50448  21098031.15248
  22070464.852 6  -2279691.359 6  -1758889.14848  22070465.56348
  24513355.102 2   2878531.195 2   1696811.93445  24513355.85245
  21927761.578 7   1015767.188 7    781633.99248  21927759.13748
  23594667.633 6   3278089.066 6   2538128.25047  23594670.43847
 18  5 30  0 47 10.0000000  0 10G03G14G16G22G23G26G27G29G31G32       0.000474754
  24096771.406 4   1150612.465 4    857605.54346  24096773.25046
  21227679.664 6   2060596.316 6   1589558.18848  21227677.54748
  20704766.484 6    234873.684 6    181121.91848  20704763.55148
  24148760.078 6   1619270.484 6   1252282.69147  24148755.69547
  23776744.945 6  -2201508.027 6  -1599397.80947  23776741.36747
  21099682.086 7   1491627.066 7   1148541.29348  21099683.75848
  22067771.203 6  -2293845.242 6  -1769918.14148  22067771.89148
  24516638.383 2   2895787.688 2   1710258.56345  24516640.12545
  21928852.195 7   1021497.254 7    786098.96947  21928849.82447
  23598359.758 6   3297489.730 6   2553245.64147  23598362.33247
 18  5 30  0 47 15.0000000  0 10G03G14G16G22G23G26G27G29G31G32       0.000476126
  24098111.44515                    863092.21156  24098112.22356
  21230091.648 6   2073271.492 6   1599434.94548  21230089.78148
  20705094.266 6    236595.684 6    182463.72748  20705090.96948
  24150550.648 5   1628684.215 5   1259618.03547  24150547.54347
  23774130.656 5  -2215246.177 5  -1610102.84347  23774127.52047
  21101335.234 7   1500314.949 7   1155311.07048  21101336.55948
  22065078.430 6  -2307995.297 6  -1780944.16048  22065079.24248
  24519922.430 2   2913048.133 2   1723708.25845  24519925.41445
  21929942.344 6   1027227.074 6    790563.75848  21929940.02348
  23602051.852 6   3316891.636 6   2568363.98247  23602054.56647
 18  5 30  0 47 20.0000000  0 10G03G14G16G22G23G26G27G29G31G32       0.000477489
  24099452.586 5   1164700.227 5    868583.23046  24099453.01646
  21232505.391 6   2085955.488 6   1609318.57048  21232503.20348
  20705423.266 6    238324.148 6    183810.57448  20705420.44548
  24152342.578 6   1638098.387 6   1266953.75447  24152338.80147
  23771516.633 6  -2228982.469 6  -1620806.45347  23771513.50847
  21102988.625 7   1509004.281 7   1162081.98848  21102990.09448
  22062386.625 6  -2322141.391 6  -1791967.09448  22062386.98448
  24523209.266 2   2930312.551 2   1737161.01645  24523211.09045
  21931032.945 6   1032956.785 6    795028.46548  21931030.36748
  23605743.680 5   3336294.898 5   2583483.38747  23605746.30147
 18  5 30  0 47 25.0000000  0 10G03G14G16G22G23G26G27G29G31G32       0.000478853
  24100793.453 4   1171751.266 4    874077.51646  24100795.16446
  21234920.461 7   2098648.105 7   1619208.91448  21234918.66848
  20705753.391 6    240058.883 6    185162.31648  20705750.34848
  24154134.008 6   1647512.742 6   1274289.59447  24154130.70747
  23768903.203 6  -2242717.094 6  -1631508.74247  23768899.60247
  21104642.695 7   1517694.711 7   1168853.73848  21104643.80548
  22059695.703 6  -2336283.781 6  -1802987.13748  22059696.21948
  24526494.813 1   2947580.766 1   1750616.79345  24526496.71545
  21932123.359 6   1038686.250 6    799492.96948  21932120.83248
  23609436.078 5   3355699.242 5   2598603.62947  23609438.89847
 18  5 30  0 47 30.0000000  0 10G03G14G16G22G23G26G27G29G31G32       0.000480215
  24102135.609 4   1178807.648 4    879575.99646  24102137.05146
  21237337.422 6   2111349.523 6   1629106.10548  21237335.57448
  20706084.664 6    241800.074 6    186519.09048  20706081.62548
  24155925.414 6   1656927.438 6   1281625.71946  24155922.38746
  23766289.703 6  -2256449.852 6  -1642209.58247  23766285.97747
  21106296.422 7   1526386.551 7   1175626.59848  21106297.69948
  22057005.148 6  -2350422.223 6  -1814004.10548  22057005.97748
  24529781.633 1   2964852.941 1   1764075.54745  24529783.97745
  21933213.406 7   1044415.559 7    803957.36748  21933210.90648
  23613128.875 5   3375104.926 5   2613724.90647  23613131.83247
 18  5 30  0 47 35.0000000  0 10G03G14G16G22G23G26G27G29G31G32       0.000481573
  24103480.836 4   1185869.035 4    885078.39846  24103480.69946
  21239756.344 6   2124059.473 6   1639009.96148  21239754.30948
  20706417.156 6    243547.480 6    187880.69948  20706413.90648
  24157717.617 6   1666342.254 6   1288961.92646  24157713.87946
  23763676.469 6  -2270180.949 6  -1652909.14547  23763673.66447
  21107950.656 7   1535079.484 7   1182400.31648  21107951.80548
  22054315.148 6  -2364556.906 6  -1825018.13748  22054315.91848
  24533068.258 1   2982128.875 1   1777537.33645  24533072.14145
  21934303.547 7   1050144.465 7    808421.44148  21934300.59848
  23616821.891 5   3394511.652 5   2628847.00847  23616825.05147
 18  5 30  0 47 40.0000000  0 10G03G14G16G22G23G26G27G29G31G32       0.000482929
  24104825.977 5   1192935.555 5    890584.75846  24104824.80946
  21242176.680 7   2136778.012 7   1648920.51248  21242174.73848
  20706751.070 6    245301.152 6    189247.19548  20706747.60248
  24159508.961 6   1675757.301 6   1296298.33246  24159505.32446
  23761064.016 6  -2283910.336 6  -1663607.35547  23761060.81647
  21109605.500 7   1543773.578 7   1189174.91448  21109606.69948
  22051625.719 6  -2378687.801 6  -1836029.21148  22051626.61348
  24536358.086 1   2999408.613 1   1791002.11745  24536360.48845
  21935394.250 7   1055873.094 7    812885.30948  21935390.93048
  23620515.430 5   3413919.438 5   2643969.93847  23620518.03547
 18  5 30  0 47 45.0000000  0 10G03G14G16G22G23G26G27G29G31G32       0.000484282
  24106171.125 5   1200006.656 5    896094.71146  24106171.17646
  21244598.172 7   2149504.695 7   1658837.39548  21244596.35548
  20707086.000 6    247060.617 6    190618.19948  20707083.19948
  24161300.719 6   1685172.055 6   1303634.49246  24161297.08646
  23758451.797 6  -2297638.398 6  -1674304.53547  23758448.09447
  21111260.289 7   1552468.383 7   1195950.08248  21111261.48448
  22048937.852 6  -2392815.316 6  -1847037.66848  22048938.86348
  24539644.891 1   3016691.570 1                
  21936484.000 7   1061600.938 7    817348.55548  21936480.93448
  23624208.570 5   3433327.914 5   2659093.40247  23624211.81347
 18  5 30  0 47 50.0000000  0 10G03G14G16G22G23G26G27G29G31G32       0.000485632
  24107517.438 5   1207082.984 5    901608.75446  24107517.30946
  21247021.914 6   2162240.160 6   1668761.12548  21247019.94948
  20707422.031 6    248826.508 6    191994.21548  20707418.75448
  24163092.797 6   1694587.164 6   1310970.93846  24163088.67246
  23755839.344 6  -2311364.523 6  -1685000.21147  23755835.96147
  21112914.688 7   1561164.520 7   1202726.29748  21112915.94148
  22046250.039 6  -2406938.773 6  -1858042.95748  22046250.98048
  24542935.508 1   3033978.480 1                
  21937574.148 7   1067328.637 7    821811.69148  21937570.89848
  23627902.703 5   3452737.613 5   2674217.82847  23627904.74247
 18  5 30  0 47 55.0000000  0 10G03G14G16G22G23G26G27G29G31G32       0.000486979
  24108865.250 5   1214164.555 5    907126.85946  24108864.91446
  21249446.984 6   2174984.387 6   1678691.69148  21249445.27348
  20707759.336 6    250598.852 6    193375.26248  20707755.84048
  24164883.938 5   1704002.664 5   1318307.69546  24164879.98446
  23753227.414 6  -2325088.633 6  -1695694.30947  23753224.72747
  21114570.000 7   1569862.004 7   1209503.55148  21114571.50848
  22043563.500 6  -2421058.219 6  -1869045.11348  22043564.46148
  24546225.242 1   3051269.344 1                
  21938663.914 7   1073056.270 7    826274.77748  21938660.38748
  23631596.000 5   3472148.637 5   2689343.26647  23631598.77047
 18  5 30  0 48  0.0000000  0 10G03G14G16G22G23G26G27G29G31G32       0.000488323
  24110213.500 6   1221251.652 6    912649.26246  24110213.44946
  21251873.570 6   2187737.641 6   1688629.28548  21251871.63348
  20708097.758 6    252377.875 6    194761.52748  20708094.63748
  24166675.805 5   1713418.727 5   1325644.87546  24166672.28946
  23750616.469 6  -2338810.539 6  -1706386.67647  23750613.22747
  21116225.461 7   1578561.078 7   1216282.04748  21116227.15648
  22040878.016 6  -2435173.313 6  -1880043.89548  22040878.34448
  24549517.414 1   3068564.383 1                
  21939753.734 7   1078784.059 7    830737.98048  21939750.56648
  23635290.125 5   3491561.117 5   2704469.84847  23635292.92247
 18  5 30  0 48  5.0000000  0 10G03G14G16G22G23G26G27G29G31G32       0.000489666
  24111563.117 5   1228344.270 5    918176.00046  24111562.93846
  21254302.438 7   2200499.926 7   1698573.92648  21254300.19948
  20708437.414 6    254163.660 6    196153.03948  20708434.48448
  24168468.375 6   1722835.383 6   1332982.54746  24168463.55946
  23748005.156 6  -2352530.164 6  -1717077.28947  23748001.84047
  21117880.781 7   1587261.781 7   1223061.81348  21117883.05148
  22038192.625 6  -2449284.039 6  -1891039.26248  22038193.18048
  24552808.688 1   3085863.699 1                
  21940843.734 7   1084512.063 7    835201.36348  21940840.38348
  23638984.859 5   3510975.219 5   2719597.69547  23638987.81647
 18  5 30  0 48 10.0000000  0 10G03G14G16G22G23G26G27G29G31G32       0.000491005
  24112913.742 6   1235442.328 6    923706.96146  24112914.16446
  21256732.984 6   2213271.156 6   1708525.52048  21256730.64548
  20708778.516 6    255956.016 6    197549.68448  20708775.69948
  24170260.680 6   1732252.539 6   1340320.59847  24170255.62547
  23745395.492 6  -2366247.594 6  -1727766.19147  23745391.72347
  21119536.641 7   1595963.953 7   1229842.72748  21119538.40248
  22035507.875 6  -2463390.488 6  -1902031.30148  22035509.00448
  24556101.719 1   3103166.910 1                
  21941933.742 7   1090240.215 7    839664.85548  21941930.71948
  23642679.570 5   3530390.641 5   2734726.56347  23642681.52747
 18  5 30  0 48 15.0000000  0 10G03G14G16G22G23G26G27G29G31G32       0.000492344
  24114265.414 5   1242545.992 5    929242.27346  24114266.00846
  21259164.469 7   2226051.586 7   1718484.29348  21259162.39848
  20709120.914 6    257755.277 6    198951.70348  20709117.74248
  24172052.625 6   1741670.395 6   1347659.18046  24172048.04346
  23742785.336 6  -2379962.578 6  -1738453.19147  23742781.52047
  21121192.961 7   1604667.922 7   1236625.04349  21121195.11349
  22032824.547 6  -2477492.375 6  -1913019.77348  22032825.42248
  24559395.680 1   3120474.637 1                
  21943023.992 6   1095968.770 6    844128.66848  21943020.43448
  23646373.805 5   3549807.754 5   2749856.78147  23646376.53547
 18  5 30  0 48 20.0000000  0 10G03G14G16G22G23G26G27G29G31G32       0.000493679
  24115619.070 6   1249655.121 6    934781.83246  24115619.06646
  21261598.219 6   2238841.027 6   1728450.07448  21261596.37948
  20709464.695 6    259561.207 6    200358.92248  20709461.57848
  24173845.023 6   1751088.824 6   1354998.19546  24173840.21546
  23740176.766 6  -2393675.270 6  -1749138.39847  23740171.66447
  21122849.945 7   1613373.445 7   1243408.56348  21122851.31348
  22030141.680 6  -2491589.902 6  -1924004.86348  22030142.79748
  24562691.648 2   3137786.441 2                
  21944113.578 6   1101697.469 6    848592.58248  21944110.78148
  23650069.570 5   3569226.402 5   2764988.15647  23650072.18847
 18  5 30  0 48 25.0000000  0 10G03G14G16G22G23G26G27G29G31G32       0.000495010
  24116972.430 6   1256769.465 6    940325.48446  24116973.13746
  21264033.594 6   2251639.203 6   1738422.68048  21264031.71948
  20709809.313 6    261373.566 6    201771.15248  20709806.64548
  24175636.250 6   1760507.523 6   1362337.43846  24175632.90246
  23737566.727 6  -2407385.930 6  -1759822.03547  23737562.93847
  21124506.758 7   1622080.281 7   1250193.10948  21124508.12548
  22027460.078 6  -2505683.285 6  -1934986.71148  22027460.71148
  24565986.594 1   3155102.055 1                
  21945203.789 6   1107426.129 6    853056.47748  21945201.35248
  23653765.563 5   3588646.180 5   2780120.44147  23653767.38747
 18  5 30  0 48 30.0000000  0 10G03G14G16G22G23G26G27G29G31G32       0.000496342
  24118327.656 6   1263889.297 6    945873.37546  24118328.02046
  21266470.891 6   2264446.375 6   1748402.28548  21266469.35548
  20710155.883 6    263192.570 6    203188.56348  20710152.64848
  24177429.227 5   1769926.785 5   1369677.10546  24177424.67646
  23734958.242 6  -2421094.258 6  -1770503.84847  23734953.98847
  21126163.844 7   1630788.660 7   1256978.85949  21126165.50049
  22024778.680 6  -2519772.176 6  -1945965.07048  22024779.58648
  24569283.477 1   3172421.918 1                
  21946293.719 6   1113155.035 6    857520.54348  21946291.42248
  23657461.188 5   3608067.461 5   2795253.89847  23657463.18047
 18  5 30  0 48 35.0000000  0 10G03G14G16G22G23G26G27G29G31G32       0.000497669
  24119683.180 5   1271014.566 5    951425.53146  24119683.75446
  21268909.891 6   2277262.590 6   1758388.93448  21268907.57848
  20710503.117 6    265018.262 6    204611.17248  20710500.48848
  24179222.500 6   1779346.551 6   1377017.18846  24179217.68446
  23732350.203 6  -2434800.168 6  -1781183.78547  23732345.87947
  21127821.414 7   1639498.594 7   1263765.80949  21127822.84849
  22022099.063 6  -2533856.609 6  -1956939.95748  22022099.58648
  24572579.227 1   3189745.934 1                
  21947384.023 6   1118884.172 6    861984.81648  21947381.85548
  23661156.984 5   3627490.281 5   2810388.53547  23661158.43847
 18  5 30  0 48 40.0000000  0 10G03G14G16G22G23G26G27G29G31G32       0.000498995
  24121040.586 6   1278145.504 6    956982.09447  24121041.49647
  21271350.359 6   2290088.008 6   1768382.77048  21271347.91048
  20710851.992 6    266850.863 6    206039.17248  20710848.93448
  24181015.422 6   1788767.082 6   1384357.87546  24181010.71546
  23729742.367 6  -2448503.535 6  -1791861.72747  23729737.85947
  21129479.219 7   1648210.289 7   1270554.12149  21129480.42249
  22019419.750 6  -2547936.359 6  -1967911.19548  22019420.29748
  24575877.602 1   3207074.285 1                
  21948474.453 6   1124613.750 6    866449.42248  21948472.10248
  23664853.672 5   3646914.770 5   2825524.48847  23664855.68847
 18  5 30  0 48 45.0010000  0 10G03G14G16G22G23G26G27G29G31G32      -0.000499681
  24122398.372 6   1285282.934 6    962543.73847  24122399.52447
  21273792.841 6   2302924.605 6   1778385.30948  21273790.86848
  20711201.872 7    268690.078 7    207472.32448  20711199.36048
  24182807.856 6   1798189.633 6   1391700.10546  24182803.68546
  23727135.052 6  -2462207.660 6  -1802540.27047  23727129.90747
  21131137.630 7   1656924.902 7   1277344.71549  21131139.03249
  22016740.989 7  -2562014.828 7  -1978881.43448  22016740.93848
  24579176.567 1   3224409.785 1                
  21949564.786 6   1130344.375 6    870914.83247  21949562.41547
  23668550.849 5   3666344.164 5   2840664.25847  23668552.86047
 18  5 30  0 48 50.0010000  0 10G03G14G16G22G23G26G27G29G31G32      -0.000498362
  24123757.333 6   1292424.199 6    968108.35246  24123759.41946
  21276237.083 6   2315767.465 6   1788392.71948  21276234.80248
  20711553.396 7    270535.465 7    208910.29348  20711550.50148
  24184600.286 6   1807610.605 6   1399041.12546  24184596.36046
  23724527.989 6  -2475906.836 6  -1813214.94547  23724522.59147
  21132795.778 7   1665639.184 7   1284135.07049  21132797.85349
  22014062.716 7  -2576086.164 7  -1989846.10548  22014063.55648
  24582476.481 1   3241745.777 1                
  21950654.786 6   1136073.945 6    875379.42647  21950652.64647
  23672247.622 6   3685770.949 6   2855801.99247  23672249.47847
 18  5 30  0 48 55.0010000  0 10G03G14G16G22G23G26G27G29G31G32      -0.000497044
  24125117.810 5   1299570.582 5    973676.94547  24125118.99347
  21278682.825 6   2328619.035 6   1798406.93048  21278680.43848
  20711905.575 6    272387.191 6    210353.19148  20711903.23948
  24186393.177 6   1817031.785 6   1406382.28146  24186388.95046
  23721922.138 6  -2489603.898 6  -1823887.99247  23721916.07547
  21134454.239 7   1674354.676 7   1290926.35549  21134456.15749
  22011386.224 6  -2590153.281 6  -2000807.50048  22011386.38048
  24585776.747 1   3259085.551 1                
  21951745.419 6   1141803.512 6    879844.03147  21951742.92347
  23675945.114 6   3705198.883 6   2870940.60947  23675946.34547
 18  5 30  0 49  0.0010000  0 10G03G14G16G22G23G26G27G29G31G32      -0.000495728
  24126477.474 5   1306722.438 5    979249.83247  24126480.06047
  21281129.833 6   2341479.664 6   1808428.19948  21281127.54448
  20712259.239 7    274245.668 7    211801.35948  20712256.40748
  24188186.591 6   1826453.570 6   1413723.95346  24188181.64246
  23719315.411 6  -2503298.492 6  -1834559.08647  23719310.16547
  21136113.263 7   1683071.824 7   1297718.92249  21136114.92349
  22008709.872 7  -2604215.750 7  -2011765.26248  22008710.66548
  24589076.349 1   3276429.504 1                
  21952835.903 6   1147533.418 6    884308.87947  21952833.53647
  23679642.333 5   3724628.332 5   2886080.43847  23679643.75947
 18  5 30  0 49  5.0010000  0 10G03G14G16G22G23G26G27G29G31G32      -0.000494415
  24127840.739 6   1313879.883 6    984827.07847  24127842.63047
  21283578.763 6   2354349.387 6   1818456.54347  21283576.72847
  20712614.146 6    276110.930 6    213254.80548  20712611.81048
  24189979.622 6   1835875.965 6   1421066.07046  24189974.92346
  23716709.864 6  -2516990.453 6  -1845228.15247  23716705.27847
  21137772.052 7   1691790.648 7   1304512.80949  21137774.45049
  22006034.747 7  -2618273.516 7  -2022719.37148  22006035.19648
  24592379.536 1   3293777.695 1                
  21953925.888 6   1153263.793 6    888774.10247  21953924.36847
  23683339.989 6   3744059.352 6   2901221.46547  23683340.80647
 18  5 30  0 49 10.0010000  0 10G03G14G16G22G23G26G27G29G31G32      -0.000493105
  24129204.083 6   1321042.438 6    990408.25447  24129205.34147
  21286029.700 6   2367227.828 6   1828491.69148  21286027.36448
  20712970.591 6    277982.574 6    214713.23448  20712967.58348
  24191772.247 6   1845298.555 6   1428408.32846  24191767.52446
  23714105.278 6  -2530680.266 6  -1855895.54347  23714099.77847
  21139431.255 7   1700510.707 7   1311307.67249  21139433.06749
  22003360.614 6  -2632327.020 6  -2033670.15648  22003360.66548
  24595682.106 1   3311129.672 1                
  21955016.380 6   1158994.137 6    893239.28548  21955014.44648
  23687037.341 6   3763491.500 6   2916363.38347  23687038.75547
 18  5 30  0 49 15.0010000  0 10G03G14G16G22G23G26G27G29G31G32      -0.000491796
  24130568.247 6   1328209.957 6    995993.32847  24130569.47047
  21288481.919 6   2380114.730 6   1838533.42647  21288479.56747
  20713327.567 6    279860.383 6    216176.46148  20713325.42748
  24193564.646 6   1854721.156 6   1435750.62546  24193560.54846
  23711500.278 6  -2544368.070 6  -1866561.34847  23711495.34147
  21141090.950 7   1709231.813 7   1318103.33248  21141092.96248
  22000687.091 6  -2646376.359 6  -2044617.69148  22000686.82948
  24598983.239 1   3328485.152 1                
  21956107.075 6   1164724.355 6    897704.39148  21956105.04048
  23690736.271 6   3782924.590 6   2931506.03146  23690736.81346
 18  5 30  0 49 20.0010000  0 10G03G14G16G22G23G26G27G29G31G32      -0.000490494
  24131932.685 6   1335383.113 6   1001582.79347  24131934.95847
  21290936.060 6   2393010.883 6   1848582.38347  21290933.59947
  20713686.622 6    281745.078 6    217645.05548  20713683.87648
  24195357.731 5   1864144.492 5   1443093.46546  24195354.25946
  23708896.122 6  -2558053.102 6  -1877225.00046  23708891.53646
  21142751.247 7   1717954.750 7   1324900.43048  21142752.63048
  21998014.739 7  -2660420.848 7  -2055561.44948  21998014.69648
  24602287.11411                                
  21957197.716 6   1170455.117 6    902169.91848  21957195.90748
  23694433.786 5   3802359.316 5   2946649.96947  23694435.15347
 18  5 30  0 49 25.0010000  0 10G03G14G16G22G23G26G27G29G31G32      -0.000489187
  24133298.560 6   1342561.543 6   1007176.36347  24133301.18547
  21293391.833 6   2405915.922 6   1858638.25047  21293389.19247
  20714046.466 7    283636.355 7    219118.78148  20714043.93148
  24197151.325 6   1873568.188 6   1450436.58246  24197147.70446
  23706292.435 6  -2571735.703 6  -1887886.75447  23706287.54847
  21144411.349 7   1726679.059 7   1331698.59848  21144412.84948
  21995342.771 6  -2674460.773 6  -2066501.66048  21995342.57148
  24605592.349 1   3363208.922 1                
  21958288.356 6   1176186.078 6    906635.60248  21958286.34548
  23698132.700 5   3821795.367 5   2961794.91446  23698133.31346
 18  5 30  0 49 30.0010000  0 10G03G14G16G22G23G26G27G29G31G32      -0.000487892
  24134665.505 6   1349745.043 6   1012773.91447  24134667.61047
  21295849.458 6   2418829.621 6   1868700.87547  21295846.63447
  20714407.341 6    285533.961 6    220597.42648  20714404.74348
  24198943.927 6   1882992.020 6   1457779.82446  24198941.02146
  23703689.114 6  -2585416.141 6  -1898546.82447  23703684.34947
  21146071.606 7   1735404.594 7   1338497.71548  21146073.13848
  21992671.653 6  -2688496.395 6  -2077438.50048  21992671.84948
  24608896.95811   3380576.46511                
  21959378.841 6   1181917.027 6    911101.26648  21959377.00948
  23701831.255 6   3841232.496 6   2976940.70746  23701832.75946
 18  5 30  0 49 35.0010000  0 10G03G14G16G22G23G26G27G29G31G32      -0.000486593
  24136033.896 6   1356933.715 6   1018375.46947  24136035.29047
  21298308.974 6   2431752.070 6   1878770.31347  21298306.11047
  20714769.435 7    287437.965 7    222081.06648  20714767.04848
  24200736.927 6   1892416.074 6   1465123.24246  24200734.36446
  23701086.294 6  -2599094.230 6  -1909205.07447  23701081.05647
  21147732.083 7   1744131.449 7   1345297.86749  21147733.81749
  21990001.646 6  -2702527.512 6  -2088371.84048  21990002.02448
  24612205.76311                                
  21960469.224 6   1187648.133 6    915567.05548  21960467.37648
  23705530.583 6   3860670.801 6   2992087.43047  23705531.82547
 18  5 30  0 49 40.0010000  0  9G03G14G16G22G23G26G27G31G32         -0.000485298
  24137402.786 6   1364127.055 6   1023980.65247  24137404.09547
  21300769.208 6   2444682.801 6   1888846.19147  21300766.36847
  20715133.153 7    289347.902 7    223569.32848  20715130.51748
  24202530.646 5   1901839.871 5   1472466.44146  24202527.13446
  23698483.849 6  -2612770.402 6  -1919861.80946  23698479.04846
  21149392.872 7   1752859.090 7   1352098.64149  21149395.11049
  21987332.380 6  -2716554.703 6  -2099302.10948  21987332.63448
  21961559.755 6   1193378.863 6    920032.52047  21961557.75947
  23709230.169 6   3880109.781 6   3007234.66046  23709230.56046
 18  5 30  0 49 45.0010000  0  9G03G14G16G22G23G26G27G31G32         -0.000484005
  24138772.325 6   1371325.922 6   1029590.15647  24138773.87247
  21303231.325 6   2457622.633 6   1898929.18047  21303228.54847
  20715497.817 7    291264.664 7    225062.91048  20715495.08348
  24204324.817 5   1911264.285 5   1479810.12546  24204320.85646
  23695881.481 6  -2626443.836 6  -1930516.41046  23695877.35646
  21151054.130 7   1761588.410 7   1358900.71549  21151056.04849
  21984663.692 6  -2730576.961 6  -2110228.54748  21984664.57948
  21962650.388 6   1199110.211 6    924498.50447  21962648.69647
  23712929.771 6   3899550.262 6   3022383.08646  23712929.94246
 18  5 30  0 49 50.0010000  0  9G03G14G16G22G23G26G27G31G32         -0.000482716
  24140142.614 5   1378530.113 5   1035203.79347  24140144.72047
  21305695.052 6   2470571.363 6   1909019.09047  21305692.66147
  20715863.755 7    293188.023 7    226561.63348  20715860.66548
  24206117.942 5   1920688.977 5   1487154.02746  24206113.76746
  23693280.067 6  -2640114.730 6  -1941169.03946  23693275.54446
  21152715.708 7   1770319.117 7   1365703.85549  21152717.52849
  21981996.653 6  -2744594.602 6  -2121151.37548  21981997.12248
  21963741.333 6   1204841.859 6    928964.71948  21963739.14648
  23716628.231 5   3918992.078 5   3037532.53546  23716629.55246
 18  5 30  0 49 55.0010000  0  9G03G14G16G22G23G26G27G31G32         -0.000481428
  24141514.622 5   1385739.504 5   1040821.50047  24141516.24747
  21308160.919 6   2483528.949 6   1919115.91447  21308158.45847
  20716231.067 7    295117.906 7    228065.43848  20716228.26748
  24207911.263 4   1930114.027 4   1494498.22746  24207907.59546
  23690678.653 6  -2653783.129 6  -1951819.70746  23690674.56046
  21154377.271 7   1779051.266 7   1372508.11748  21154379.27848
  21979330.396 6  -2758607.594 6  -2132070.59848  21979330.43848
  21964832.216 6   1210573.789 6    933431.13348  21964830.22448
  23720328.380 5   3938435.117 5   3052682.91046  23720329.73146
 18  5 30  0 50  0.0010000  0  9G03G14G16G22G23G26G27G31G32         -0.000480143
  24142887.911 5   1392953.387 5   1046442.69547  24142888.97447
  21310628.513 6   2496494.641 6   1929219.04347  21310625.83747
  20716599.317 7    297053.570 7    229573.74648  20716596.76748
  24209704.669 4   1939538.641 4   1501842.06646  24209700.87246
  23688078.302 6  -2667449.785 6  -1962469.05146  23688074.07546
  21156038.989 7   1787783.984 7   1379312.81648  21156040.77848
  21976664.372 6  -2772616.664 6  -2142986.75048  21976664.37648
  21965922.372 6   1216305.215 6    937897.18048  21965920.69648
  23724028.481 5   3957878.625 5   3067833.68447  23724029.65347
 18  5 30  0 50  5.0010000  0  9G03G14G16G22G23G26G27G31G32         -0.000478859
  24144261.903 6   1400172.320 6   1052067.84847  24144262.45847
  21313097.044 6   2509468.996 6   1939328.93047  21313094.82147
  20716968.927 7    298995.586 7    231087.00448  20716966.15748
  24211497.864 4   1948963.375 4   1509186.01246  24211494.51746
  23685477.458 5  -2681114.047 5  -1973116.53546  23685473.94646
  21157701.333 7   1796517.977 7   1386118.52048  21157702.78648
  21973999.364 7  -2786621.234 7  -2153899.41048  21973999.38048
  21967013.028 6   1222036.828 6    942363.37148  21967011.17348
  23727728.700 5   3977323.199 5   3082985.30146  23727729.98146
 18  5 30  0 50 10.0010000  0  9G03G14G16G22G23G26G27G31G32         -0.000477579
  24145636.575 6   1407396.625 6   1057697.15647  24145637.12247
  21315567.513 6   2522452.262 6   1949445.76647  21315565.39647
  20717339.778 7    300944.211 7    232605.40648  20717336.94648
  24213291.513 4   1958388.488 4   1516530.24646  24213287.93146
  23682878.302 6  -2694775.633 6  -1983761.92646  23682874.13846
  21159363.552 7   1805253.410 7   1392925.34048  21159364.72048
  21971335.349 6  -2800621.016 6  -2164808.32048  21971335.81748
  21968104.052 6   1227768.801 6    946829.84048  21968102.37248
  23731428.981 5   3996769.152 5   3098137.94946  23731430.32146
 18  5 30  0 50 15.0010000  0  9G03G14G16G22G23G26G27G31G32         -0.000476303
  24147012.310 6   1414626.078 6   1063330.49247  24147013.29447
  21318040.130 6   2535444.363 6   1959569.46947  21318037.83747
  20717711.825 7    302899.316 7    234128.86348  20717709.02148
  24215085.263 4   1967813.852 4   1523874.67246  24215081.52446
  23680278.356 5  -2708434.715 5  -1994405.37146  23680274.81346
  21161026.192 7   1813990.207 7   1399733.23449  21161027.43849
  21968672.450 7  -2814616.094 7  -2175713.58248  21968672.31348
  21969194.700 6   1233501.078 6    951296.53548  21969193.09948
  23735129.974 5   4016216.273 5   3113291.55946  23735131.08346
 18  5 30  0 50 20.0010000  0  9G03G14G16G22G23G26G27G31G32         -0.000475027
  24148388.614 5   1421860.172 5   1068967.44147  24148389.34547
  21320513.950 6   2548444.699 6   1969699.58247  21320511.40347
  20718084.755 7    304860.324 7    235656.91048  20718082.31048
  24216878.974 4   1977238.887 4   1531218.85546  24216874.72046
  23677679.450 5  -2722091.816 5  -2005047.25846  23677675.64246
  21162688.739 7   1822727.797 7   1406541.75048  21162689.79848
  21966010.036 6  -2828607.039 6  -2186615.60948  21966009.78648
  21970285.536 6   1239233.090 6    955763.03148  21970283.94248
  23738830.528 5   4035664.031 5   3128445.59846  23738831.64946
 18  5 30  0 50 25.0010000  0  9G03G14G16G22G23G26G27G31G32         -0.000473755
  24149765.997 6   1429099.273 6   1074608.30147  24149767.39647
  21322989.099 6   2561453.680 6   1979836.44947  21322986.49747
  20718459.216 7    306827.672 7    237189.91448  20718456.27848
  24218672.708 4   1986664.066 4   1538563.15646  24218668.93546
  23675081.075 5  -2735746.438 5  -2015687.23446  23675077.53246
  21164351.716 7   1831466.543 7   1413351.16449  21164353.00949
  21963348.216 6  -2842593.445 6  -2197514.11348  21963348.25548
  21971376.192 6   1244965.258 6    960229.64848  21971374.94648
  23742531.513 4   4055112.812 4   3143600.48946  23742532.22446
 18  5 30  0 50 30.0010000  0  9G03G14G16G22G23G26G27G31G32         -0.000472485
  24151144.622 6   1436343.352 6   1080253.03947  24151145.81747
  21325466.247 6   2574471.262 6   1989980.01647  21325463.87247
  20718834.974 7    308801.285 7    238727.79748  20718831.77848
  24220465.927 5   1996089.223 5   1545907.39546  24220462.90346
  23672483.208 5  -2749398.723 5  -2026325.36346  23672479.89246
  21166014.403 7   1840206.422 7   1420161.44948  21166015.86048
  21960687.403 6  -2856575.305 6  -2208409.07048  21960687.95048
  21972467.106 6   1250697.480 6    964696.30148  21972465.29848
  23746232.622 5   4074562.531 5   3158756.09846  23746233.81346
 18  5 30  0 50 35.0010000  0  9G03G14G16G22G23G26G27G31G32         -0.000471218
  24152524.028 6   1443592.531 6   1085901.75047  24152525.10347
  21327945.614 6   2587497.535 6   2000130.35247  21327942.56747
  20719211.896 7    310781.297 7    240270.66448  20719208.64648
  24222260.075 5   2005514.484 5   1553251.75846  24222256.36046
  23669886.130 5  -2763048.457 5  -2036961.52046  23669882.08746
  21167678.130 7   1848947.496 7   1426972.65248  21167679.82148
  21958027.747 6  -2870552.500 6  -2219300.39548  21958028.30648
  21973558.364 6   1256429.941 6    969163.14147  21973556.10347
  23749933.513 4   4094013.340 4   3173912.53946  23749935.07146
 18  5 30  0 50 40.0010000  0  9G03G14G16G22G23G26G27G31G32         -0.000469954
  24153904.458 5   1450846.172 5   1091553.92447  24153905.80247
  21330425.880 6   2600531.984 6   2010287.05547  21330423.56347
  20719589.411 7    312767.152 7    241818.08248  20719586.54848
  24224053.583 5   2014939.340 5   1560595.77346  24224050.05246
  23667288.380 5  -2776696.191 5  -2047596.12946  23667284.71246
  21169341.622 7   1857689.273 7   1433784.39848  21169343.15348
  21955368.927 6  -2884525.531 6  -2230188.47348  21955369.49748
  21974648.747 6   1262162.105 6    973629.76247  21974646.79447
  23753635.005 5   4113464.676 5   3189069.38746  23753636.66546
 18  5 30  0 50 45.0010000  0  9G03G14G16G22G23G26G27G31G32         -0.000468693
  24155285.942 5   1458105.301 5   1097210.39547  24155287.59147
  21332908.286 6   2613575.492 6   2020450.82447  21332905.99347
  20719968.458 7    314759.750 7    243370.75448  20719965.71248
  24225846.864 5   2024364.645 5   1567940.17246  24225843.91146
  23664692.130 5  -2790340.988 5  -2058228.43846  23664688.43846
  21171005.536 7   1866432.730 7   1440597.49249  21171006.97849
  21952710.911 6  -2898493.535 6  -2241072.62148  21952711.60648
  21975740.177 6   1267894.887 6    978096.86347  21975737.61047
  23757336.505 5   4132917.426 5   3204227.35546  23757338.14246
 18  5 30  0 50 50.0010000  0  9G03G14G16G22G23G26G27G31G32         -0.000467432
  24156667.450 5   1465369.539 5   1102870.82047  24156670.07547
  21335391.841 6   2626627.750 6   2030621.41447  21335389.62247
  20720349.161 7    316758.816 7    244928.46548  20720346.45848
  24227639.981 4   2033790.086 4   1575284.64546  24227637.95846
  23662096.294 5  -2803983.168 5  -2068858.70346  23662092.45846
  21172669.427 7   1875177.445 7   1447411.56349  21172671.10349
  21950053.841 6  -2912456.703 6  -2251953.01648  21950054.39248
  21976831.052 6   1273627.969 6    982564.19147  21976828.69247
  23761038.692 4   4152371.328 4   3219386.21546  23761040.00546
 18  5 30  0 50 55.0010000  0  9G03G14G16G22G23G26G27G31G32         -0.000466175
  24158050.692 5   1472638.727 5   1108535.11347  24158053.30247
  21337877.403 6   2639688.629 6   2040798.71147  21337875.14947
  20720730.966 7    318764.148 7    246491.05948  20720728.11448
  24229434.200 4   2043215.566 4   1582629.17646  24229431.52146
  23659499.903 5  -2817622.848 5  -2079487.04746  23659496.78246
  21174333.989 7   1883923.285 7   1454226.50448  21174335.72848
  21947397.021 6  -2926415.258 6  -2262829.80548  21947397.94248
  21977922.146 6   1279361.211 6    987031.64147  21977920.15347
  23764741.036 4   4171826.172 4   3234545.78946  23764742.19646
 18  5 30  0 51  0.0010000  0  9G03G14G16G22G23G26G27G31G32         -0.000464920
  24159434.872 5   1479913.121 5   1114203.46947  24159437.54047
  21340364.583 6   2652758.383 6   2050982.93447  21340362.00147
  20721113.739 7    320776.004 7    248058.74648  20721110.86448
  24231227.528 4   2052641.266 4   1589973.88746  24231225.45446
  23656905.481 4  -2831259.766 4  -2090113.21946  23656901.75546
  21175998.536 7   1892670.496 7   1461042.50848  21175999.85348
  21944742.130 6  -2940368.910 6  -2273702.78948  21944742.58748
  21979013.021 6   1285094.934 6    991499.48048  21979010.74348
  23768443.427 3   4191282.203 3   3249706.31346  23768444.69246
 18  5 30  0 51  5.0010000  0  9G03G14G16G22G23G26G27G31G32         -0.000463669
  24160820.442 5   1487192.266 5   1119875.54747  24160822.42347
  21342853.474 6   2665836.547 6   2061173.70748  21342850.80248
  20721497.771 7    322793.957 7    249631.18448  20721495.48948
  24233021.739 4   2062066.848 4   1597318.48846  24233018.59946
  23654310.606 4  -2844894.293 4  -2100737.55146  23654307.24346
  21177663.255 7   1901418.668 7   1467859.26248  21177664.45848
  21942087.833 6  -2954318.027 6  -2284572.22348  21942088.51348
  21980104.341 6   1290828.691 6    995967.36348  21980102.31348
  23772145.419 3   4210739.023 3   3264867.45746  23772147.57146
 18  5 30  0 51 10.0010000  0  9G03G14G16G22G23G26G27G31G32         -0.000462420
  24162206.419 5   1494476.574 5   1125551.60547  24162208.74747
  21345343.302 6   2678923.496 6   2071371.31647  21345341.03247
  20721882.997 7    324818.355 7    251208.62948  20721880.61448
  24234815.911 5   2071492.531 5   1604663.16046  24234812.32546
  23651717.341 4  -2858526.180 4  -2111359.82046  23651713.21246
  21179328.067 7   1910168.102 7   1474676.98848  21179329.46248
  21939434.544 6  -2968262.254 6  -2295437.85948  21939434.81048
  21981195.583 6   1296562.789 6   1000435.47747  21981192.91947
  23775847.286 3   4230196.945 3   3280029.43846  23775850.00546
 18  5 30  0 51 15.0010000  0  9G03G14G16G22G23G26G27G31G32         -0.000461172
  24163594.356 5   1501766.449 5   1131232.01247  24163596.21247
  21347836.060 6   2692019.691 6   2081576.15248  21347833.52148
  20722269.200 7    326849.695 7    252791.49248  20722266.54048
  24236609.411 5   2080918.867 5   1612008.38746  24236606.02846
  23649123.278 4  -2872154.785 4  -2121979.48846  23649119.69246
  21180993.646 7   1918919.320 7   1481496.10948  21180994.54448
  21936781.849 6  -2982201.125 6  -2306299.31348  21936781.93148
  21982287.497 6   1302297.746 6   1004904.27348  21982284.08348
  23779550.833 2   4249656.457 2   3295192.66846  23779552.98946
 18  5 30  0 51 20.0010000  0  9G03G14G16G22G23G26G27G31G32         -0.000459927
  24164982.161 5   1509061.270 5   1136916.25447  24164984.41947
  21350329.903 6   2705124.453 6   2091787.64148  21350326.89648
  20722657.450 7    328887.277 7    254379.21948  20722654.93848
  24238402.981 5   2090345.215 5   1619353.55946  24238400.05646
  23646530.247 4  -2885780.727 4  -2132597.14846  23646526.93146
  21182658.630 7   1927671.664 7   1488316.12148  21182659.49748
  21934129.614 6  -2996135.262 6  -2317157.06648  21934130.62648
  21983378.856 7   1308032.895 7   1009373.21548  21983375.81048
  23783253.489 2   4269116.852 2   3310356.59046  23783256.21246
 18  5 30  0 51 25.0010000  0  9G03G14G16G22G23G26G27G31G32         -0.000458685
  24166371.271 5   1516360.660 5   1142604.09047  24166373.21247
  21352824.927 6   2718237.457 6   2102005.56648  21352822.11048
  20723046.177 6    330930.816 6    255971.57048  20723043.45048
  24240196.841 5   2099771.188 5   1626698.46546  24240193.41146
  23643937.630 4  -2899404.422 4  -2143213.01646  23643934.45446
  21184324.864 7   1936424.789 7   1495136.73848  21184325.47048
  21931479.231 6  -3010064.949 6  -2328011.37948  21931480.18148
  21984469.903 7   1313767.953 7   1013842.10248  21984467.11448
  23786958.278 3   4288577.914 3   3325521.02046  23786959.91146
 18  5 30  0 51 30.0010000  0  9G03G14G16G22G23G26G27G31G32         -0.000457445
  24167760.778 5   1523665.230 5   1148295.96147  24167763.05647
  21355321.833 6   2731359.324 6   2112230.39148  21355319.51348
  20723436.263 7    332980.859 7    257569.00848  20723433.54448
  24241989.653 5   2109197.340 5   1634043.50046  24241986.92746
  23641346.255 4  -2913025.175 4  -2153826.60746  23641342.02846
  21185990.614 7   1945179.316 7   1501958.45348  21185991.68548
  21928829.099 6  -3023989.590 6  -2338861.75048  21928830.19648
  21985560.841 7   1319503.523 7   1018311.37148  21985558.27848
  23790661.419 3   4308040.066 3   3340686.28146  23790663.14646
 18  5 30  0 51 35.0010000  0  9G03G14G16G22G23G26G27G31G32         -0.000456207
  24169152.052 5   1530974.586 5   1153991.57047  24169154.14247
  21357820.497 6   2744489.637 6   2122461.80948  21357818.04448
  20723827.771 7    335037.063 7    259171.23848  20723825.27848
  24243783.856 5   2118623.406 5   1641388.47746  24243781.20046
  23638754.841 4  -2926643.457 4  -2164438.24646  23638750.66546
  21187656.724 7   1953934.820 7   1508780.92648  21187658.15748
  21926180.356 6  -3037909.539 6  -2349708.45348  21926180.95848
  21986652.646 7   1325239.223 7   1022780.75848  21986650.11848
  23794365.677 2   4327503.066 2   3355852.21145  23794367.39645
 18  5 30  0 51 40.0010000  0  9G03G14G16G22G23G26G27G31G32         -0.000454971
  24170543.364 5   1538289.391 5   1159691.42247  24170545.81047
  21360321.177 7   2757629.059 7   2132700.31348  21360318.26748
  20724220.028 7    337100.023 7    260778.74248  20724217.48548
  24245576.880 4   2128049.887 4   1648733.78146  24245574.72046
  23636164.317 4  -2940258.531 4  -2175047.39546  23636159.52846
  21189323.224 7   1962691.984 7   1515604.71149  21189324.65349
  21923532.646 6  -3051824.160 6  -2360551.01648  21923533.70448
  21987744.036 7   1330975.707 7   1027250.73848  21987741.49748
  23798068.677 2   4346967.504 2   3371019.31345  23798071.27445
 18  5 30  0 51 45.0010000  0  9G03G14G16G22G23G26G27G31G32         -0.000453739
  24171936.294 5   1545609.234 5   1165395.17246  24171938.59146
  21362822.989 7   2770777.184 7   2142945.60548  21362820.41148
  20724613.974 6    339169.383 6    262391.22748  20724611.32148
  24247371.380 5   2137476.496 5   1656079.17646  24247368.46246
  23633573.638 4  -2953870.828 4  -2185654.36746  23633568.95446
  21190989.794 7   1971450.402 7   1522429.48049  21190991.41549
  21920885.942 6  -3065733.801 6  -2371389.69148  21920886.41548
  21988836.138 7   1336712.660 7   1031721.09448  21988833.05248
  23801773.747 2   4366432.945 2   3386187.14845  23801776.16545
 18  5 30  0 51 50.0010000  0  9G03G14G16G22G23G26G27G31G32         -0.000452509
  24173331.606 5   1552934.266 5   1171102.96946  24173332.39246
  21365326.849 7   2783934.117 7   2153197.75048  21365324.44248
  20725009.388 6    341245.266 6    264008.79348  20725006.50148
  24249165.528 4   2146903.289 4   1663424.74246  24249162.52846
  23630984.364 5  -2967480.164 5  -2196259.06346  23630979.92346
  21192656.622 7   1980210.168 7   1529255.27049  21192658.70049
  21918239.731 6  -3079638.309 6  -2382224.37948  21918240.44248
  21989927.856 7   1342450.148 7   1036191.85548  21989924.97848
  23805478.669 3   4385899.531 3   3401355.88345  23805480.65745
 18  5 30  0 51 55.0010000  0  9G03G14G16G22G23G26G27G31G32         -0.000451281
  24174725.786 5   1560264.234 5   1176814.60947  24174727.09547
  21367831.825 6   2797099.719 6   2163456.66448  21367829.35348
  20725404.997 6    343327.477 6    265631.29348  20725402.58348
  24250959.935 5   2156330.035 5   1670770.25846  24250956.25946
  23628395.466 5  -2981086.730 5  -2206861.60546  23628390.52146
  21194323.567 7   1988971.035 7   1536081.92649  21194325.75149
  21915595.028 6  -3093537.879 6  -2393055.19548  21915595.50948
  21991019.403 7   1348187.957 7   1040662.87148  21991016.71648
  23809182.536 3   4405367.020 3   3416525.35545  23809185.08345
 18  5 30  0 52  0.0010000  0  9G03G14G16G22G23G26G27G31G32         -0.000450056
  24176121.349 5   1567599.379 5   1182530.27746  24176122.36046
  21370338.411 6   2810274.199 6   2173722.47348  21370336.49348
  20725802.997 6    345416.238 6    267258.89548  20725800.23148
  24252754.310 5   2165757.023 5   1678115.94546  24252750.51346
  23625806.427 5  -2994690.336 5  -2217461.79346  23625801.59546
  21195991.364 7   1997733.336 7   1542909.67648  21195993.00948
  21912950.708 6  -3107432.234 6  -2403881.96548  21912951.48148
  21992111.630 6   1353926.414 6   1045134.39848  21992108.86848
  23812887.825 3   4424835.742 3   3431695.74246  23812890.04846
 18  5 30  0 52  5.0010000  0  9G03G14G16G22G23G26G27G31G32         -0.000448832
  24177517.825 5   1574939.621 5   1188249.95746  24177519.60346
  21372847.458 6   2823457.453 6   2183995.14548  21372845.32148
  20726201.552 6    347511.461 6    268891.53948  20726198.64948
  24254548.677 5   2175184.141 5   1685461.74246  24254545.08746
  23623218.356 5  -3008290.895 5  -2228059.66446  23623213.92346
  21197659.208 7   2006496.906 7   1549738.42248  21197660.52448
  21910307.817 6  -3121321.477 6  -2414704.74648  21910308.29848
  21993203.747 6   1359665.379 6   1049606.31648  21993201.31748
  23816592.700 3   4444305.543 3   3446867.02746  23816595.09946
 18  5 30  0 52 10.0010000  0  9G03G14G16G22G23G26G27G31G32         -0.000447611
  24178915.481 5   1582284.445 5   1193973.18046  24178917.27146
  21375357.739 6   2836649.031 6   2194274.28548  21375355.89648
  20726601.825 7    349612.695 7    270528.85948  20726598.82548
  24256341.888 5   2184610.891 5   1692807.25846  24256339.00946
  23620630.708 5  -3021888.965 5  -2238655.54347  23620626.67347
  21199326.981 7   2015261.301 7   1556567.80148  21199327.98548
  21907665.685 6  -3135206.031 6  -2425523.87948  21907665.95448
  21994295.521 6   1365404.402 6   1054078.28148  21994293.61448
  23820298.161 4   4463775.965 4   3462038.75446  23820299.73146
 18  5 30  0 52 15.0010000  0  9G03G14G16G22G23G26G27G31G32         -0.000446392
  24180314.536 5   1589634.570 5   1199700.55146  24180316.63446
  21377869.864 6   2849849.504 6   2204560.35948  21377867.80248
  20727002.528 7    351720.555 7    272171.34048  20726999.63848
  24258135.888 5   2194037.922 5   1700153.00046  24258133.06046
  23618044.575 5  -3035483.891 5  -2249249.00047  23618039.58347
  21200994.942 7   2024027.172 7   1563398.34448  21200996.18848
  21905024.302 6  -3149085.277 6  -2436338.87548  21905024.86848
  21995387.536 6   1371144.113 6   1058550.78148  21995385.71248
  23824003.146 3   4483247.590 3   3477211.41046  23824005.28646
 18  5 30  0 52 20.0010000  0  9G03G14G16G22G23G26G27G31G32         -0.000445177
  24181713.966 5   1596990.102 5   1205432.13746  24181715.93546
  21380383.544 6   2863059.117 6   2214853.55948  21380381.65748
  20727405.114 7    353835.238 7    273819.14848  20727402.05648
  24259930.427 5   2203465.453 5   1707499.10546  24259927.33346
  23615457.817 5  -3049075.406 5  -2259839.78546  23615453.11446
  21202663.247 7   2032794.715 7   1570230.19948  21202664.49348
  21902384.567 6  -3162958.910 6  -2447149.49248  21902384.48148
  21996480.005 7   1376884.746 7   1063023.99247  21996478.22447
  23827709.138 4   4502720.680 4   3492385.22746  23827711.78646
 18  5 30  0 52 25.0010000  0  9G03G14G16G22G23G26G27G31G32         -0.000443962
  24183115.200 5   1604350.813 5   1211167.75847  24183116.52447
  21382898.974 6   2876277.598 6   2225153.66048  21382897.12648
  20727807.989 6    355956.434 6    275472.02348  20727805.65348
  24261723.380 5   2212893.102 5   1714845.27746  24261720.91146
  23612872.271 6  -3062663.883 6  -2270428.19947  23612867.48147
  21204332.200 7   2041563.609 7   1577063.11348  21204333.25548
  21899745.919 7  -3176827.320 7  -2457956.03948  21899745.25948
  21997572.903 6   1382625.996 6   1067497.68847  21997570.95847
  23831413.200 3   4522194.863 3   3507559.88746  23831417.43146
 18  5 30  0 52 30.0010000  0  9G03G14G16G22G23G26G27G31G32         -0.000442751
  24184515.622 5   1611716.879 5   1216907.49646  24184518.82946
  21385416.278 6   2889505.191 6   2235460.87148  21385413.93548
  20728213.778 6    358084.445 6    277130.21148  20728211.02148
  24263517.396 5   2222321.125 5   1722191.78546  24263514.53246
  23610286.856 6  -3076248.875 6  -2281013.90647  23610281.81047
  21206000.950 7   2050334.125 7   1583897.29348  21206002.04448
  21897107.794 7  -3190690.168 7  -2468758.25848  21897107.76748
  21998665.075 6   1388368.164 6   1071972.10247  21998663.24747
  23835121.466 4   4541670.500 4   3522735.69146  23835123.28646
 18  5 30  0 52 35.0010000  0  9G03G14G16G22G23G26G27G31G32         -0.000441542
  24185919.091 5   1619088.004 5   1222651.22346  24185921.24346
  21387935.036 6   2902741.516 6   2245774.88748  21387932.82548
  20728619.794 6    360218.918 6    278793.43448  20728616.40348
  24265311.606 4   2231749.336 4   1729538.43446  24265308.52146
  23607702.864 6  -3089830.898 6  -2291597.30547  23607697.32547
  21207670.247 7   2059105.938 7   1590732.47748  21207671.77448
  21894470.669 6  -3204547.789 6  -2479556.40248  21894470.73948
  21999757.731 6   1394110.898 6   1076446.95747  21999755.83747
  23838826.661 4   4561147.098 4   3537912.26246  23838829.65746
 18  5 30  0 52 40.0010000  0  9G03G14G16G22G23G26G27G31G32         -0.000440334
  24187322.700 5   1626463.992 5   1228398.75446  24187324.86046
  21390455.560 6   2915986.457 6   2256095.60248  21390453.18548
  20729027.231 6    362359.633 6    280461.52348  20729024.22048
  24267104.302 3   2241177.387 3   1736884.93446  24267102.13446
  23605118.935 6  -3103409.980 6  -2302178.40247  23605112.96647
  21209339.185 7   2067878.824 7   1597568.49648  21209340.74748
  21891834.427 7  -3218400.348 7  -2490350.60548  21891834.85648
  22000850.388 6   1399854.043 6   1080922.12148  22000849.14648
  23842533.388 4   4580624.612 4   3553089.48046  23842536.94246
 18  5 30  0 52 45.0010000  0  9G03G14G16G22G23G26G27G31G32         -0.000439129
  24188726.669 5   1633844.816 5   1234150.02346  24188729.09546
  21392977.028 6   2929239.969 6   2266423.00448  21392975.12648
  20729435.208 7    364506.637 7    282134.51648  20729432.91948
  24268898.911 3   2250605.391 3   1744231.46946  24268895.98146
  23602535.286 6  -3116986.152 6  -2312757.23047  23602529.24347
  21211009.458 7   2076652.789 7   1604405.34448  21211010.27148
  21889199.403 6  -3232247.770 6  -2501140.80148  21889199.20048
  22001943.286 6   1405597.645 6   1085397.65247  22001941.89947
  23846240.724 3   4600102.941 3   3568267.41846  23846242.95046
 18  5 30  0 52 50.0010000  0  9G03G14G16G22G23G26G27G31G32         -0.000437927
  24190131.771 4   1641230.719 4   1239905.28946  24190134.72846
  21395501.036 7   2942502.184 7   2276757.19548  21395498.96248
  20729845.294 6    366660.055 6    283812.50048  20729842.36448
  24270693.364 3   2260033.406 3   1751577.97346  24270689.55246
  23599952.411 6  -3130559.211 6  -2323333.64547  23599946.87647
  21212679.208 7   2085428.035 7   1611243.18848  21212680.54848
  21886565.513 6  -3246089.926 6  -2511926.89848  21886565.39248
  22003036.872 6   1411341.836 6   1089873.64847  22003034.75147
  23849946.153 3   4619582.258 3   3583446.09046  23849949.80246
 18  5 30  0 52 55.0010000  0  9G03G14G16G22G23G26G27G31G32         -0.000436728
  24191538.825 4   1648621.816 4   1245664.58246  24191541.02446
  21398026.817 7   2955773.395 7   2287098.38748  21398024.45448
  20730255.872 6    368820.125 6    285495.66848  20730253.22448
  24272487.888 3   2269461.691 3   1758924.66446  24272483.99746
  23597370.091 6  -3144128.938 6  -2333907.45347  23597364.07947
  21214349.286 7   2094204.723 7   1618082.14848  21214350.46648
  21883932.692 6  -3259926.559 6  -2522708.69148  21883932.71648
  22004130.317 6   1417086.859 6   1094350.28947  22004128.05647
  23853654.044 4   4639062.828 4   3598625.76646  23853656.32946
 18  5 30  0 53  0.0010000  0  9G03G14G16G22G23G26G27G31G32         -0.000435530
  24192946.286 5   1656018.211 5   1251427.98446  24192948.12246
  21400553.591 6   2969053.633 6   2297446.62148  21400551.07548
  20730668.333 6    370986.891 6    287184.05148  20730665.78648
  24274280.880 3   2278890.270 3   1766271.61346  24274278.20846
  23594788.685 6  -3157695.270 6  -2344478.61346  23594782.43146
  21216019.849 7   2102982.934 7   1624922.30548  21216020.95848
  21881300.442 6  -3273757.566 6  -2533486.09848  21881300.31348
  22005223.638 6   1422832.738 6   1098827.59047  22005221.52847
  23857360.122 3   4658544.648 3   3613806.37546  23857363.87646
 18  5 30  0 53  5.0010000  0  9G03G14G16G22G23G26G27G31G32         -0.000434334
  24194354.739 4   1663419.781 4   1257195.44946  24194356.40746
  21403082.778 6   2982342.766 6   2307801.77048  21403080.33748
  20731081.864 6    373160.246 6    288877.57848  20731079.22048
  24276075.638 3   2288319.066 3   1773618.71546  24276072.64646
  23592207.661 6  -3171258.281 6  -2355047.20347  23592201.23147
  21217690.364 7   2111762.570 7   1631763.56648  21217691.64948
  21878669.599 6  -3287583.078 6  -2544259.21948  21878669.80648
  22006317.091 6   1428579.441 6   1103305.54747  22006314.81347
  23861069.278 4   4678027.676 4   3628987.96946  23861071.23946
 18  5 30  0 53 10.0010000  0  9G03G14G16G22G23G26G27G31G32         -0.000433140
  24195765.153 5   1670826.863 5   1262967.19946  24195766.11046
  21405613.130 6   2995641.141 6   2318164.14148  21405611.04448
  20731496.708 6    375340.547 6    290576.52048  20731493.88848
  24277870.638 3   2297748.363 3   1780966.21146  24277866.60646
  23589627.677 6  -3184817.629 6  -2365612.93047  23589621.56047
  21219361.333 7   2120543.973 7   1638606.21148  21219362.45048
  21876040.021 6  -3301402.750 6  -2555027.79348  21876040.02448
  22007411.341 6   1434327.285 6   1107784.39547  22007408.68847
  23864777.021 4   4697512.152 4   3644170.66846  23864778.85646
 18  5 30  0 53 15.0010000  0  9G03G14G16G22G23G26G27G31G32         -0.000431948
  24197175.583 5   1678239.070 5   1268742.97746  24197176.11846
  21408145.622 7   3008948.395 7   2328533.41848  21408143.42748
  20731912.747 6    377527.438 6    292280.58648  20731909.83748
  24279664.458 4   2307177.883 4   1788313.87946  24279660.45046
  23587047.403 6  -3198373.605 6  -2376176.00447  23587041.78247
  21221032.435 7   2129326.773 7   1645449.97348  21221033.51348
  21873411.083 6  -3315216.828 6  -2565792.00848  21873411.20448
  22008504.919 6   1440075.906 6   1112263.83247  22008502.26747
  23868485.802 4   4716997.777 4   3659354.25046  23868487.83346
 18  5 30  0 53 20.0010000  0  9G03G14G16G22G23G26G27G31G32         -0.000430758
  24198586.560 5   1685656.523 5   1274522.76646  24198587.45046
  21410679.614 7   3022264.590 7   2338909.66848  21410677.15748
  20732330.192 6    379720.941 6    293989.80548  20732327.54048
  24281459.060 4   2316607.590 4   1795661.68446  24281455.13446
  23584468.450 6  -3211926.172 6  -2386736.44147  23584461.91147
  21222703.950 7   2138111.059 7   1652294.87148  21222704.60348
  21870782.786 6  -3329025.309 6  -2576551.86348  21870783.37248
  22009598.872 6   1445825.418 6   1116743.96947  22009596.88447
  23872193.888 4   4736484.645 4   3674538.80946  23872195.64246
 18  5 30  0 53 25.0010000  0  9G03G14G16G22G23G26G27G31G32         -0.000429571
  24199999.411 5   1693078.891 5   1280306.44146  24199999.68846
  21413215.286 6   3035589.359 6   2349292.60248  21413212.99348
  20732748.911 6    381920.801 6    295703.98048  20732745.77848
  24283253.997 4   2326037.199 4   1803009.44146  24283249.54446
  23581890.466 6  -3225475.559 6  -2397294.39847  23581883.78247
  21224375.396 7   2146896.500 7   1659140.68048  21224376.25148
  21868156.231 6  -3342828.477 6  -2587307.57448  21868156.77148
  22010693.435 6   1451575.516 6   1121224.55548  22010690.99348
  23875902.208 5   4755972.430 5   3689724.08646  23875903.96246
 18  5 30  0 53 30.0010000  0  9G03G14G16G22G23G26G27G31G32         -0.000428387
  24201411.825 5   1700506.141 5   1286093.89146  24201412.92346
  21415752.747 6   3048922.758 6   2359682.25448  21415750.13448
  20733168.833 6    384126.961 6    297423.07048  20733166.23548
  24285046.755 4   2335466.777 4   1810357.15246  24285044.04446
  23579311.903 6  -3239021.832 6  -2407849.92647  23579305.67347
  21226047.325 7   2155683.070 7   1665987.36348  21226048.70448
  21865530.856 6  -3356626.316 6  -2598059.13748  21865530.82948
  22011787.497 6   1457326.184 6   1125705.59448  22011784.95448
  23879611.083 5   4775461.016 5   3704909.96546  23879612.50546
 18  5 30  0 53 35.0010000  0  9G03G14G16G22G23G26G27G31G32         -0.000427204
  24202826.052 5   1707938.469 5   1291885.31346  24202827.67746
  21418291.661 6   3062265.078 6   2370078.85248  21418289.63048
  20733589.638 6    386339.715 6    299147.29348  20733587.24748
  24286841.606 3   2344896.449 3   1817704.93046  24286838.16946
  23576735.161 6  -3252564.660 6  -2418402.75846  23576728.40346
  21227719.771 7   2164471.023 7   1672835.10948  21227721.05248
  21862906.208 6  -3370418.492 6  -2608806.29748  21862906.35648
  22012882.169 6   1463077.688 6   1130187.27748  22012879.59948
  23883319.278 5   4794950.758 5   3720096.74646  23883321.43846
 18  5 30  0 53 40.0010000  0  9G03G14G16G22G23G26G27G31G32         -0.000426023
  24204242.130 5   1715376.359 5   1297681.09446  24204242.64646
  21420832.317 7   3075616.684 7   2380482.69948  21420830.06748
  20734012.224 6    388559.488 6    300876.98848  20734009.34948
  24288636.505 3   2354326.730 3   1825053.19146  24288632.61846
  23574158.403 6  -3266103.641 6  -2428952.60247  23574151.39947
  21229392.794 7   2173260.789 7   1679684.27048  21229393.76748
  21860283.200 6  -3384204.641 6  -2619548.75048  21860282.71648
  22013976.966 6   1468830.473 6   1134669.96148  22013974.57148
  23887028.896 5   4814442.020 5   3735284.70346  23887030.44646
 18  5 30  0 53 45.0010000  0  9G03G14G16G22G23G26G27G31G32         -0.000424845
  24205658.567 5   1722820.125 5   1303481.43446  24205659.56746
  21423374.958 6   3088977.910 6   2390894.03548  21423372.60348
  20734435.935 6    390786.535 6    302612.34448  20734433.60348
  24290431.755 3   2363757.918 3   1832402.16846  24290427.63846
  23571582.653 6  -3279638.449 6  -2439499.18446  23571576.39246
  21231066.083 7   2182052.660 7   1686535.07048  21231067.06348
  21857660.755 6  -3397984.371 6  -2630286.19548  21857661.03648
  22015072.091 6   1474584.891 6   1139153.92248  22015069.54448
  23890738.935 5   4833935.168 5   3750474.14146  23890739.87246
 18  5 30  0 53 50.0010000  0  9G03G14G16G22G23G26G27G31G32         -0.000423668
  24207078.685 2   1730269.645 2   1309286.21946  24207076.72446
  21425918.833 6   3102348.555 6   2401312.70748  21425917.08748
  20734861.114 6    393020.711 6    304353.26248  20734858.31748
  24292226.591 3   2373189.715 3   1839751.61746  24292222.30246
  23569007.528 6  -3293169.181 6  -2450042.60047  23569001.55647
  21232739.130 7   2190846.488 7   1693387.39148  21232740.82948
  21855039.669 6  -3411757.906 6  -2641018.80948  21855039.86848
  22016167.513 6   1480340.715 6   1143638.98447  22016165.14947
  23894447.825 5   4853429.949 5   3765664.85546  23894450.04046
 18  5 30  0 53 55.0010000  0  9G03G14G16G22G23G26G27G31G32         -0.000422493
  24208495.73115   1737724.05315   1315094.84456  24208495.69656
  21428465.255 6   3115728.012 6   2411738.25848  21428463.05648
  20735287.310 6    395261.422 6    306099.27748  20735285.02848
  24294020.66911                   1847101.12156  24294016.94656
  23566434.583 6  -3306696.524 6                
  21234413.161 7   2199641.660 7   1700240.77348  21234414.66548
  21852419.427 6  -3425525.785 6  -2651747.03548  21852419.44248
  22017263.466 6   1486097.387 6   1148124.70748  22017260.75148
  23898157.247 5   4872925.734 5   3780856.32446  23898159.76746
 18  5 30  0 54  0.0010000  0  9G03G14G16G22G23G26G27G31G32         -0.000421320
  24209915.255 5   1745184.289 5   1320908.01246  24209915.80646
  21431012.231 6   3129116.918 6   2422171.15648  21431010.83348
  20735715.302 6    397509.254 6    307850.83248  20735713.00548
  24295815.747 1   2392054.070 1   1854451.14146  24295812.17346
  23563860.606 6  -3320219.711 6  -2459317.94157  23563852.73557
  21236087.091 7   2208438.781 7   1707095.66448  21236088.54448
  21849800.981 6  -3439287.395 6  -2662470.35548  21849801.00148
  22018358.606 6   1491855.508 6   1152611.54348  22018356.35648
  23901867.489 4   4892423.238 4   3796049.14546  23901869.94646
 18  5 30  0 54  5.0010000  0  9G03G14G16G22G23G26G27G31G32         -0.000420149
  24211335.341 5   1752649.441 5   1326724.99246  24211336.32146
  21433562.528 6   3142514.578 6   2432610.88748  21433560.36848
  20736144.192 6    399763.547 6    309607.42248  20736142.01348
  24297611.638 2   2401486.594 2   1861801.17246  24297607.25546
  23561287.646 6  -3333739.465 6  -2469852.79747  23561280.68547
  21237761.302 7   2217237.164 7   1713951.53948  21237762.72448
  21847182.903 6  -3453043.352 6  -2673189.28548  21847183.45848
  22019454.942 7   1497614.402 7   1157098.98448  22019452.36448
  23905577.724 4   4911921.656 4   3811242.69946  23905580.22046
 18  5 30  0 54 10.0010000  0  9G03G14G16G22G23G26G27G31G32         -0.000418982
  24212757.091 5   1760119.953 5   1332546.17646  24212758.13846
  21436113.685 6   3155921.355 6   2443057.71548  21436112.17348
  20736574.310 6    402024.660 6    311369.32048  20736572.34948
  24299406.036 3   2410919.469 3   1869151.41046  24299402.54846
  23558715.716 6  -3347255.406 6  -2480384.68447  23558708.88847
  21239436.177 7   2226037.199 7   1720808.71148  21239437.28248
  21844566.653 6  -3466793.336 6  -2683903.55548  21844566.56348
  22020550.903 6   1503374.492 6   1161587.35948  22020548.55648
  23909287.763 4   4931421.445 4   3826437.30946  23909290.98946
 18  5 30  0 54 15.0010000  0  9G03G14G16G22G23G26G27G31G32         -0.000417814
  24214178.981 5   1767595.828 5   1338371.53546  24214180.61446
  21438666.192 6   3169337.328 6   2453511.71148  21438664.74348
  20737005.817 6    404292.625 6    313136.56348  20737003.77148
  24301200.903 3   2420352.805 3   1876502.07046  24301197.56046
  23556144.364 6  -3360767.520 6  -2490913.58247  23556137.83347
  21241111.146 7   2234838.934 7   1727667.20748  21241111.96648
  21841951.388 6  -3480537.219 6  -2694613.07448  21841951.48948
  22021647.185 7   1509135.797 7   1166076.68048  22021644.81048
  23912999.036 4   4950922.574 4   3841632.98046  23913001.78246
 18  5 30  0 54 20.0010000  0  9G03G14G16G22G23G26G27G31G32         -0.000416649
  24215603.177 4   1775077.238 4   1344201.22346  24215604.72846
  21441221.114 6   3182762.504 6   2463972.87548  21441219.57148
  20737439.013 6    406567.445 6    314909.15248  20737436.78248
  24302996.419 3   2429786.570 3   1883853.06346  24302993.14646
  23553574.075 6  -3374275.660 6  -2501439.39546  23553567.63446
  21242786.591 7   2243642.359 7   1734527.03148  21242786.87648
  21839336.841 6  -3494274.953 6  -2705317.80548  21839337.13448
  22022744.099 7   1514898.406 7   1170567.02348  22022741.32148
  23916710.411 4   4970425.156 4   3856829.77346  23916713.10346
 18  5 30  0 54 25.0010000  0  9G03G14G16G22G23G26G27G31G32         -0.000415487
  24217028.021 5   1782563.828 5   1350034.93046  24217029.74746
  21443777.825 6   3196196.746 6   2474441.10948  21443775.89948
  20737873.364 6    408849.094 6    316687.06348  20737870.88448
  24304791.638 2   2439220.688 2   1891204.27346  24304788.57546
  23551004.060 6  -3387780.000 6  -2511962.25847  23550997.93547
  21244462.106 7   2252447.414 7   1741388.13749  21244462.44649
  21836724.497 6  -3508006.656 6  -2716017.83248  21836724.30648
  22023840.716 7   1520662.234 7   1175058.31648  22023838.14248
  23920421.317 3   4989929.035 3   3872027.58645  23920423.92745
 18  5 30  0 54 30.0010000  0  9G03G14G16G22G23G26G27G31G32         -0.000414326
  24218453.833 6   1790056.328 6   1355873.22346  24218455.47446
  21446335.466 6   3209640.621 6   2484916.85548  21446334.34148
  20738308.872 7    411138.070 7    318470.67248  20738307.02448
  24306586.552 2   2448655.707 2   1898556.23845  24306583.95845
  23548435.099 6  -3401279.934 6  -2522481.66446  23548429.12246
  21246138.192 7   2261254.617 7   1748250.90249  21246138.47449
  21834112.169 6  -3521731.719 6  -2726712.68448  21834111.95048
  22024937.747 7   1526427.789 7   1179550.96148  22024935.12248
  23924133.560 3   5009434.773 3   3887226.81345  23924135.69645
 18  5 30  0 54 35.0010000  0  9G03G14G16G22G23G26G27G31G32         -0.000413168
  24219879.810 5   1797554.223 5   1361715.75046  24219882.18846
  21448895.856 6   3223093.637 6   2495399.72348  21448894.50948
  20738745.802 6    413433.914 6    320259.64148  20738743.85348
  24308382.411 1   2458091.137 1   1905908.51645  24308378.86045
  23545866.380 6  -3414775.879 6  -2532997.97347  23545861.04447
  21247814.567 7   2270063.461 7   1755114.94549  21247814.95449
  21831501.474 6  -3535450.641 6  -2737402.75048  21831501.79848
  22026035.286 6   1532194.633 6   1184044.60948  22026032.33348
  23927845.450 3   5028941.859 3   3902427.11745  23927848.03245
 18  5 30  0 54 40.0010000  0  9G03G14G16G22G23G26G27G31G32         -0.000412010
  24221308.294 5   1805057.547 5   1367562.50446  24221310.05646
  21451457.505 6   3236555.910 6   2505889.78948  21451456.80248
  20739184.122 6    415736.691 6    322054.01648  20739181.98948
  24310178.661 2   2467526.930 2   1913261.09045  24310175.26345
  23543299.200 6  -3428267.770 6  -2543511.12547  23543294.38447
  21249490.966 7   2278874.039 7   1761980.32449  21249492.07549
  21828892.060 6  -3549163.305 6  -2748087.94148  21828892.38848
  22027132.903 7   1537962.855 7   1188539.33248  22027129.90348
  23931557.185 2   5048450.371 2   3917628.55145  23931560.09145
 18  5 30  0 54 45.0010000  0  9G03G14G16G22G23G26G27G31G32         -0.000410856
  24222737.028 5   1812565.406 5   1373412.77046  24222739.17346
  21454020.856 6   3250026.438 6   2516386.29348  21454019.77148
  20739623.349 6    418045.449 6    323853.04348  20739621.40348
  24311972.880 1   2476962.254 1   1920613.30945  24311970.50145
  23540731.880 6  -3441756.598 6  -2554021.89547  23540727.40347
  21251167.622 7   2287685.414 7   1768846.32849  21251169.06749
  21826284.067 6  -3562870.656 6  -2758769.00048  21826283.80648
  22028230.763 7   1543731.473 7   1193034.35248  22028227.67748
  23935268.880 2   5067959.336 2   3932830.27745  23935272.57545
 18  5 30  0 54 50.0010000  0  9G03G14G16G22G23G26G27G31G32         -0.000409704
  24224165.802 5   1820078.242 5   1379266.91046  24224169.10346
  21456586.224 6   3263505.781 6   2526889.67648  21456584.81348
  20740063.692 6    420360.770 6    325657.18848  20740061.96248
  24313767.286 1   2486397.582 1   1927965.46945  24313766.10345
  23538166.146 6  -3455241.754 6  -2564529.79747  23538161.25547
  21252844.692 7   2296498.102 7   1775713.34849  21252846.24349
  21823676.489 6  -3576572.137 6  -2769445.48448  21823676.83748
  22029328.755 7   1549501.066 7   1197530.13348  22029325.63448
  23938981.833 1   5087469.305 1   3948032.84845  23938985.54845
 18  5 30  0 54 55.0010000  0  9G03G14G16G22G23G26G27G31G32         -0.000408554
  24225596.896 5   1827596.023 5   1385124.91446  24225599.71246
  21459152.888 6   3276993.863 6   2537399.85248  21459151.73948
  20740505.567 6    422682.586 6    327466.39148  20740504.14248
  24315563.724 1   2495832.883 1   1935317.63345  24315561.41145
  23535600.028 6  -3468723.316 6  -2575034.91847  23535595.64647
  21254522.028 7   2305312.074 7   1782581.36749  21254523.73149
  21821070.114 6  -3590267.777 6  -2780117.40648  21821070.57948
  22030426.685 7   1555271.582 7   1202026.64548  22030423.27448
  23942695.755 1   5106980.234 1   3963236.09845  23942698.57945
 18  5 30  0 55  0.0010000  0  9G03G14G16G22G23G26G27G31G32         -0.000407406
  24227028.544 5   1835119.066 5   1390987.01646  24227031.20846
  21461721.122 6   3290490.980 6   2547917.08248  21461719.84548
  20740948.911 6    425011.098 6    329280.82048  20740947.15748
  24317359.106 2   2505268.395 2   1942669.98446  24317357.32546
  23533035.919 6  -3482201.020 6  -2585537.02747  23533031.49747
  21256199.185 7   2314127.570 7   1789450.57049  21256201.21249
  21818465.317 6  -3603957.285 6  -2790784.54748  21818465.66548
  22031525.005 7   1561043.262 7   1206524.05948  22031521.39648
  23946408.310 1   5126492.398 1   3978440.38745  23946411.75545
 18  5 30  0 55  5.0010000  0  9G03G14G16G22G23G26G27G31G32         -0.000406260
  24228461.333 5   1842648.079 5   1396853.80946  24228463.14246
  21464291.239 6   3303997.867 6   2558441.92648  21464290.12648
  20741393.286 6    427347.074 6    331101.05148  20741391.63848
  24319156.044 3   2514704.906 3   1950023.07446  24319152.42746
  23530471.95012                  -2596035.41856  23530467.89956
  21257877.841 7   2322945.359 7   1796321.57049  21257879.50549
  21815861.216 6  -3617639.895 6  -2801446.32448  21815861.89248
  22032623.708 7   1566816.965 7   1211023.05148  22032620.16548
  23950122.849 3   5146006.559 3   3993646.12545  23950124.73145
 18  5 30  0 55 10.0010000  0  9G03G14G16G22G23G26G27G31G32         -0.000405117
  24229895.122 5   1850182.520 5   1402724.78146  24229897.48546
  21466863.442 6   3317514.055 6   2568974.00448  21466862.45848
  20741839.114 6    429690.070 6    332926.76648  20741837.00548
  24320951.325 2   2524141.988 2   1957376.62145  24320948.82545
  23527909.71616  -3509142.65616  -2606530.50057  23527905.25957
  21259555.364 7   2331764.953 7   1803193.97349  21259557.03249
  21813258.825 6  -3631316.000 6  -2812103.02748  21813258.84148
  22033722.278 6   1572592.133 6   1215523.16448  22033719.29048
  23953833.52811   5165522.03511   4008852.99255  23953838.49755
 18  5 30  0 55 15.0010000  0  9G03G14G16G22G23G26G27G31G32         -0.000403973
  24231330.356 5   1857722.898 5   1408600.39546  24231332.20046
  21469437.278 6   3331039.902 6   2579513.63748  21469435.56348
  20742286.692 6    432040.395 6    334758.18048  20742285.03248
  24322747.403 4   2533579.746 4   1964730.72746  24322744.89646
  23525347.122 6  -3522606.762 6  -2617022.01647  23525343.66947
  21261234.364 7   2340586.672 7   1810068.03949  21261235.29049
  21810657.575 6  -3644985.324 6  -2822754.43848  21810657.90348
  22034821.528 6   1578369.168 6   1220024.75448  22034818.84548
  23957547.388 1   5185039.465 1   4024061.38345  23957552.23545
 18  5 30  0 55 20.0010000  0  9G03G14G16G22G23G26G27G31G32         -0.000402832
  24232765.841 5   1865268.148 5   1414479.78146  24232767.81746
  21472012.849 6   3344574.504 6   2590060.05148  21472011.37248
  20742735.052 6    434397.184 6    336594.63748  20742732.93548
  24324542.677 2   2543017.609 2   1972084.84846  24324541.02846
  23522785.114 6  -3536067.109 6  -2627510.58247  23522782.00547
  21262913.356 7   2349409.734 7   1816943.15248  21262914.36448
  21808057.622 6  -3658648.691 6  -2833401.23048  21808057.71248
  22035921.122 6   1584147.242 6   1224527.14548  22035918.33748
  23961262.42711                   4039270.38755  23961267.17755
 18  5 30  0 55 25.0010000  0  9G03G14G16G22G23G26G27G31G32         -0.000401691
  24234202.153 5   1872818.637 5   1420363.27046  24234204.09146
  21474589.810 6   3358118.043 6   2600613.46148  21474588.64948
  20743184.755 6    436760.656 6    338436.30948  20743182.72048
  24326339.083 1   2552455.629 1   1979439.14845  24326337.70845
  23520224.958 6  -3549523.523 6  -2637996.11747  23520221.59947
  21264592.505 7   2358234.262 7   1823819.39849  21264593.30249
  21805459.091 6  -3672305.852 6  -2844043.15648  21805458.56748
  22037020.708 7   1589926.508 7   1229030.47748  22037017.82148
  23964977.66111   5224077.21911   4054480.31355  23964981.43155
 18  5 30  0 55 30.0010000  0  9G03G14G16G22G23G26G27G31G32         -0.000400555
  24235640.591 5   1880374.520 5   1426250.96146  24235642.54046
  21477169.521 6   3371670.871 6   2611174.09848  21477167.76348
  20743635.880 6    439131.074 6    340283.38348  20743633.83748
  24328133.958 1   2561894.012 1   1986793.74645  24328133.13845
  23517664.919 6  -3562975.703 6  -2648478.33647  23517661.09547
  21266272.028 7   2367060.531 7   1830697.02048  21266273.32548
  21802861.349 6  -3685956.566 6  -2854680.07848  21802861.43848
  22038121.341 7   1595707.281 7   1233534.97748  22038118.41948
  23968694.583 2   5243598.059 2   4069691.31345  23968695.72045
 18  5 30  0 55 35.0010000  0  9G03G14G16G22G23G26G27G31G32         -0.000399420
  24237079.661 5   1887935.473 5   1432142.60546  24237080.91946
  21479749.708 6   3385232.598 6   2621741.66448  21479748.16548
  20744088.239 6    441508.113 6    342135.62148  20744086.10648
  24329928.146 1   2571332.457 1   1994148.38745  24329929.64245
  23515105.763 6  -3576423.871 6  -2658957.41847  23515102.16147
  21267951.661 7   2375888.266 7   1837575.79348  21267953.47848
  21800264.591 6  -3699601.047 6  -2865312.14848  21800265.14948
  22039221.169 7   1601489.289 7   1238040.43448  22039218.75148
  23972408.138 2   5263120.043 2   4084903.25045  23972411.03245
 18  5 30  0 55 40.0010000  0  9G03G14G16G22G23G26G27G31G32         -0.000398287
  24238519.810 5   1895501.438 5   1438038.15646  24238520.94246
  21482331.935 6   3398803.098 6   2632316.07048  21482330.60648
  20744541.786 6    443891.672 6    343992.93448  20744538.85348
  24331726.896 1   2580770.871 1   2001503.03945  24331725.21645
  23512547.716 6  -3589868.195 6  -2669433.53547  23512544.16147
  21269631.716 7   2384717.285 7   1844455.53948  21269633.44248
  21797669.567 6  -3713239.453 6  -2875939.47348  21797669.67748
  22040321.606 7   1607272.379 7   1242546.73448  22040319.01348
  23976123.888 2   5282642.977 2   4100115.88345  23976125.84945
 18  5 30  0 55 45.0010000  0  9G03G14G16G22G23G26G27G31G32         -0.000397158
  24239960.646 5   1903072.602 5   1443937.75846  24239961.29846
  21484916.075 6   3412382.648 6   2642897.53147  21484914.39647
  20744997.021 6    446281.996 6    345855.52748  20744994.17748
  24333524.552 2   2590209.531 2   2008857.82445  24333521.66945
  23509989.599 6  -3603308.434 6  -2679906.45347  23509985.91947
  21271311.817 7   2393547.891 7   1851336.51648  21271314.22048
  21795075.341 6  -3726871.512 6  -2886561.85948  21795075.55648
  22041422.442 7   1613056.824 7   1247054.09448  22041419.74748
  23979838.927 2   5302167.047 2   4115329.45345  23979841.43145
 18  5 30  0 55 50.0010000  0  9G03G14G16G22G23G26G27G31G32         -0.000396029
  24241402.005 5   1910649.063 5   1449841.50446  24241404.15346
  21487502.396 6   3425971.316 6   2653486.10248  21487500.47448
  20745452.731 6    448679.168 6    347723.44548  20745449.88448
  24335320.880 3   2599648.539 3   2016212.85945  24335317.37645
  23507433.192 6  -3616744.469 6  -2690376.09447  23507429.41547
  21272992.708 7   2402380.121 7   1858218.75848  21272995.19248
  21792482.599 6  -3740497.113 6  -2897179.21548  21792482.82548
  22042523.513 6   1618842.816 6   1251562.64548  22042520.42348
  23983554.638 2   5321692.473 2   4130544.01645  23983557.04845
 18  5 30  0 55 55.0010000  0  9G03G14G16G22G23G26G27G31G32         -0.000394901
  24242844.708 6   1918230.637 6   1455749.21146  24242846.87246
  21490089.833 6   3439568.957 6   2664081.66048  21490088.06048
  20745910.099 7    451082.957 7    349596.52348  20745907.56048
  24337116.294 3   2609087.676 3   2023567.93445  24337113.74745
  23504877.442 6  -3630176.383 6  -2700842.52047  23504873.62647
  21274673.747 7   2411213.840 7   1865102.16048  21274676.16948
  21789891.317 6  -3754116.445 6  -2907791.67648  21789891.29048
  22043624.450 7   1624630.051 7   1256072.16848  22043621.75548
  23987270.114 1   5341218.945 1   4145759.39545  23987272.97045
 18  5 30  0 56  0.0010000  0  9G03G14G16G22G23G26G27G31G32         -0.000393776
  24244288.192 6   1925817.254 6   1461660.85946  24244290.38046
  21492678.661 6   3453175.484 6   2674684.14548  21492676.90748
  20746368.825 7    453493.398 7    351474.78548  20746365.88848
  24338913.177 3   2618526.789 3   2030923.09045  24338910.06745
  23502322.552 6  -3643604.305 6  -2711305.83647  23502318.36447
  21276354.997 7   2420048.922 7   1871986.64148  21276357.64648
  21787300.122 6  -3767729.516 6  -2918399.26248  21787301.15748
  22044726.052 7   1630418.457 7   1260582.59447  22044723.10347
  23990986.138 1   5360746.461 1   4160975.62545  23990988.86445
 18  5 30  0 56  5.0010000  0  9G03G14G16G22G23G26G27G31G32         -0.000392654
  24245732.731 5   1933409.078 5   1467576.55946  24245735.20446
  21495270.216 6   3466791.074 6   2685293.69548  21495267.95448
  20746829.216 7    455910.574 7    353358.29348  20746826.16148
  24340710.356 3   2627966.129 3   2038278.38345  24340705.97445
  23499767.724 6  -3657028.008 6  -2721765.87147  23499764.24747
  21278036.411 7   2428885.547 7   1878872.32448  21278039.09948
  21784711.177 6  -3781336.168 6  -2929001.83648  21784711.90748
  22045827.935 6   1636208.258 6   1265094.12147  22045824.54047
  23994701.63811                   4176192.74255  23994705.38455
 18  5 30  0 56 10.0010000  0  9G03G14G16G22G23G26G27G31G32         -0.000391531
  24247178.185 5   1941006.738 5   1473496.80946  24247181.40746
  21497862.521 6   3480416.363 6   2695910.80148  21497861.06348
  20747290.372 6    458335.172 6    355247.58248  20747287.64648
  24342506.278 2   2637406.309 2   2045634.34445  24342502.53245
  23497214.630 6  -3670446.742 6  -2732222.00847  23497210.49347
  21279718.505 7   2437724.438 7   1885759.78148  21279720.98948
  21782123.036 6  -3794935.652 6  -2939598.84048  21782123.90748
  22046929.552 6   1642000.105 6   1269607.24247  22046927.26747
  23998418.513 2   5399805.703 2   4191411.34045  23998421.89945
 18  5 30  0 56 15.0010000  0  9G03G14G16G22G23G26G27G31G32         -0.000390411
  24248625.224 5   1948609.332 5   1479420.93447  24248627.63847
  21500457.138 6   3494050.410 6   2706534.72348  21500455.50948
  20747753.114 7    460766.266 7    357141.94548  20747750.25948
  24344303.599 2   2646846.465 2   2052990.31345  24344299.14645
  23494661.685 6  -3683861.551 6  -2742675.10947  23494657.82147
  21281400.841 7   2446564.574 7   1892648.21148  21281402.69248
  21779536.450 6  -3808529.016 6  -2950191.06648  21779537.47448
  22048032.036 6   1647793.055 6   1274121.23447  22048029.85347
  24002135.474 2   5419337.066 2   4206630.55545  24002138.52445
 18  5 30  0 56 20.0010000  0  9G03G14G16G22G23G26G27G31G32         -0.000389294
  24250073.567 5   1956217.551 5   1485349.39147  24250075.59147
  21503053.435 7   3507693.914 7   2717166.01248  21503051.70448
  20748217.060 7    463204.488 7    359041.85948  20748214.40348
  24346098.935 2   2656287.125 2   2060346.67645  24346095.61845
  23492110.060 6  -3697271.691 6  -2753124.55947  23492105.76347
  21283083.013 7   2455406.680 7   1899538.17248  21283085.02148
  21776950.927 6  -3822115.418 6  -2960777.87148  21776951.92348
  22049134.622 6   1653587.828 6   1278636.64847  22049132.66547
  24005852.591 2   5438870.094 2   4221851.16845  24005856.52145
 18  5 30  0 56 25.0010000  0  9G03G14G16G22G23G26G27G31G32         -0.000388178
  24251522.364 6   1963830.848 6   1491281.82047  24251524.19247
  21505651.763 6   3521346.293 6   2727804.21948  21505649.47848
  20748682.169 7    465649.352 7    360946.94548  20748679.93548
  24347894.653 1   2665727.863 1   2067703.10945  24347891.69645
  23489558.786 6  -3710677.586 6  -2763570.71947  23489554.75547
  21284765.856 7   2464250.227 7   1906429.25848  21284767.66948
  21774366.669 6  -3835695.418 6  -2971359.69548  21774367.41948
  22050238.380 7   1659383.961 7   1283153.11748  22050235.62648
  24009570.458 1   5458404.156 1   4237072.47345  24009573.32945
 18  5 30  0 56 30.0010000  0  9G03G14G16G22G23G26G27G31G32         -0.000387066
  24252971.817 5   1971448.820 5   1497217.91447  24252973.27447
  21508250.927 6   3535007.332 6   2738449.18048  21508249.61448
  20749148.333 6    468100.563 6    362856.96948  20749146.02848
  24349690.388 1   2675168.422 1   2075059.38345  24349688.34145
  23487008.513 6  -3724079.680 6  -2774013.91447  23487005.16147
  21286449.419 7   2473094.879 7   1913321.19548  21286450.68148
  21771783.786 6  -3849269.313 6  -2981936.75048  21771784.33348
  22051341.505 7   1665181.145 7   1287670.41047  22051338.42747
  24013287.192 2   5477938.941 2   4252294.44545  24013290.50145
 18  5 30  0 56 35.0010000  0  9G03G14G16G22G23G26G27G31G32         -0.000385954
  24254423.255 5   1979072.371 5   1503158.33247  24254424.25947
  21510852.325 6   3548677.688 6   2749101.40648  21510850.57148
  20749616.661 6    470558.852 6    364772.52048  20749613.64648
  24351485.73911                   2082415.91855  24351484.38455
  23484459.419 6  -3737477.133 6  -2784453.48847  23484455.59547
  21288132.646 6   2481941.426 6   1920214.60948  21288134.41948
  21769202.278 6  -3862836.328 6  -2992508.44148  21769203.17748
  22052444.731 7   1670980.086 7   1292189.06348  22052442.32948
  24017004.927 3   5497475.238 3   4267517.44145  24017008.23945
 18  5 30  0 56 40.0010000  0  9G03G14G16G22G23G26G27G31G32         -0.000384844
  24255874.356 5   1986701.336 5   1509102.96947  24255875.55247
  21513455.763 6   3562357.328 6   2759760.85948  21513453.97848
  20750085.591 6    473024.176 6    366693.54348  20750083.02448
  24353282.325 1   2694050.789 1   2089772.95345  24353280.65745
  23481910.856 6  -3750869.984 6  -2794889.45747  23481907.52147
  21289816.849 7   2490789.824 7   1927109.46148  21289818.32948
  21766621.997 6  -3876396.500 6  -3003074.80548  21766622.31348
  22053548.161 6   1676780.785 6   1296709.07448  22053545.87648
  24020721.997 3   5517012.949 3   4282741.66045  24020725.80645
 18  5 30  0 56 45.0010000  0  9G03G14G16G22G23G26G27G31G32         -0.000383736
  24257326.966 5   1994335.578 5   1515051.71147  24257328.48547
  21516060.450 6   3576046.039 6   2770427.37948  21516058.58748
  20750556.396 6    475496.375 6    368619.92648  20750553.51748
  24355080.403 1   2703492.473 1   2097130.03545  24355077.55645
  23479363.411 6  -3764258.402 6  -2805321.99647  23479359.57547
  21291500.802 7   2499639.824 7   1934005.55548  21291502.75148
  21764042.653 6  -3889949.988 6  -3013635.96948  21764042.91148
  22054652.872 7   1682583.039 7   1301230.30947  22054650.42747
  24024441.935 4   5536551.922 4   4297966.84445  24024444.36045
 18  5 30  0 56 50.0010000  0  9G03G14G16G22G23G26G27G31G32         -0.000382627
  24258780.474 5   2001975.148 5   1521004.60247  24258781.82947
  21518667.528 6   3589743.934 6   2781101.05548  21518665.08348
  20751027.630 7    477975.449 7    370551.67248  20751024.36048
  24356878.028 2   2712934.434 2   2104487.44145  24356874.68845
  23476816.466 6  -3777642.270 6  -2815750.98047  23476813.09547
  21293185.505 7   2508491.543 7   1940902.98848  21293187.02448
  21761464.583 6  -3903496.688 6  -3024191.83648  21761465.13048
  22055757.466 7   1688386.973 7   1305752.84047  22055754.64647
  24028159.966 3   5556092.148 3   4313192.92245  24028162.91545
 18  5 30  0 56 55.0010000  0  9G03G14G16G22G23G26G27G31G32         -0.000381523
  24260235.239 5   2009619.832 5   1526961.50047  24260236.79847
  21521275.606 6   3603450.828 6   2791781.74248  21521273.81348
  20751500.771 6    480461.203 6    372488.61348  20751497.49348
  24358675.138 1   2722376.590 1   2111844.93045  24358671.16145
  23474270.450 6  -3791021.813 6  -2826176.60247  23474266.95847
  21294870.208 7   2517344.715 7   1947801.57048  21294872.46248
  21758888.333 6  -3917036.793 6  -3034742.56348  21758888.30648
  22056861.896 6   1694192.336 6   1310276.50448  22056859.28248
  24031878.388 3   5575633.492 3   4328419.93045  24031881.79845
 18  5 30  0 57  0.0010000  0  9G03G14G16G22G23G26G27G31G32         -0.000380421
  24261691.396 5   2017269.949 5   1532922.61347  24261692.91947
  21523885.778 6   3617167.039 6   2802469.68848  21523884.06748
  20751974.958 7    482954.016 7    374431.06348  20751971.90348
  24360472.036 2   2731819.098 2   2119202.68445  24360468.20045
  23471725.552 6  -3804396.668 6  -2836598.55947  23471722.00147
  21296555.271 7   2526199.730 7   1954701.58249  21296557.33349
  21756312.942 6  -3930569.980 6  -3045287.89848  21756313.23948
  22057966.966 7   1699999.473 7   1314801.54747  22057964.39647
  24035596.685 3   5595176.258 3   4343648.06345  24035599.97845
 18  5 30  0 57  5.0010000  0  9G03G14G16G22G23G26G27G31G32         -0.000379320
  24263148.763 5   2024925.332 5   1538887.84047  24263149.47447
  21526497.177 7   3630892.469 7   2813164.81348  21526495.58748
  20752451.005 7    485453.715 7    376378.86748  20752447.85648
  24362269.646 2   2741261.898 2   2126560.68045  24362264.80645
  23469181.450 6  -3817766.910 6  -2847016.93847  23469177.56747
  21298240.614 7   2535056.441 7   1961602.91448  21298242.32948
  21753738.591 6  -3944096.301 6  -3055827.88748  21753739.25548
  22059072.083 7   1705808.316 7   1319327.92247  22059069.43547
  24039316.286 3   5614720.320 3   4358877.17645  24039318.80645
 18  5 30  0 57 10.0010000  0  9G03G14G16G22G23G26G27G31G32         -0.000378220
  24264606.466 6   2032585.805 6   1544857.04747  24264606.77147
  21529111.106 7   3644626.820 7   2823866.89848  21529109.30248
  20752927.716 6    487960.074 6    378331.86748  20752924.50148
  24364065.974 2   2750704.730 2   2133918.69545  24364061.85345
  23466637.466 6  -3831132.813 6  -2857431.91847  23466633.75147
  21299926.005 7   2543914.621 7   1968505.38348  21299927.83348
  21751166.099 6  -3957616.008 6  -3066362.72748  21751166.43848
  22060178.060 7   1711618.566 7   1323855.39847  22060175.53247
  24043034.888 3   5634265.438 3   4374107.12145  24043038.03645
 18  5 30  0 57 15.0010000  0  9G03G14G16G22G23G26G27G31G32         -0.000377123
  24266064.403 6   2040251.348 6   1550830.17247  24266065.55247
  21531726.560 7   3658370.156 7   2834575.98848  21531724.51748
  20753405.685 7    490473.105 7    380290.06648  20753403.14948
  24365862.763 2   2760147.648 2   2141276.81645  24365858.76745
  23464095.216 6  -3844494.309 6  -2867843.48847  23464090.68547
  21301611.825 7   2552774.262 7   1975409.00848  21301613.16948
  21748594.599 6  -3971129.066 6  -3076892.39148  21748595.24348
  22061284.372 7   1717430.320 7   1328384.02347  22061281.06747
  24046755.567 4   5653811.566 4   4389337.85246  24046757.73946
 18  5 30  0 57 20.0010000  0  9G03G14G16G22G23G26G27G31G32         -0.000376028
  24267524.161 6   2047921.898 6   1556807.22747  24267525.07147
  21534343.911 7   3672122.367 7   2845291.98048  21534341.86848
  20753885.083 7    492992.762 7    382253.43048  20753882.59548
  24367659.349 2   2769590.523 2   2148634.85545  24367654.95045
  23461552.724 6  -3857851.496 6  -2878251.67647  23461549.08347
  21303297.981 7   2561635.332 7   1982313.73048  21303299.50148
  21746024.528 6  -3984635.496 6  -3087416.88348  21746024.73548
  22062389.974 7   1723243.523 7   1332913.80147  22062387.16147
  24050475.481 4   5673358.719 4   4404569.35945  24050476.92745
 18  5 30  0 57 25.0010000  0  9G03G14G16G22G23G26G27G31G32         -0.000374935
  24268984.364 5   2055597.621 5   1562788.31647  24268986.68547
  21536962.169 7   3685883.645 7   2856015.04748  21536960.39248
  20754366.146 7    495519.195 7    384222.08248  20754363.25548
  24369456.138 2   2779033.629 2   2155993.09845  24369452.63045
  23459012.083 6  -3871204.070 6  -2888656.28147  23459007.93847
  21304984.731 7   2570498.012 7   1989219.71148  21304985.71248
  21743455.708 6  -3998135.133 6  -3097936.08248  21743455.93848
  22063496.333 7   1729058.383 7   1337444.85247  22063493.74747
  24054195.419 4   5692907.020 4   4419801.79345  24054197.22045
 18  5 30  0 57 30.0010000  0  9G03G14G16G22G23G26G27G31G32         -0.000373842
  24270446.349 5   2063278.625 5   1568773.52347  24270448.27147
  21539582.739 7   3699654.129 7   2866745.28548  21539580.95848
  20754848.263 7    498052.570 7    386196.13748  20754845.43148
  24371252.872 2   2788477.000 2   2163351.55945  24371249.74345
  23456472.481 6  -3884551.957 6  -2899057.22747  23456468.49347
  21306671.528 7   2579362.398 7   1996127.02348  21306672.84148
  21740887.856 6  -4011627.805 6  -3108449.84048  21740888.54048
  22064603.763 7   1734874.977 7   1341977.25847  22064600.50147
  24057916.786 4   5712456.578 4   4435035.18445  24057917.11045
 18  5 30  0 57 35.0010000  0  9G03G14G16G22G23G26G27G31G32         -0.000372753
  24271909.200 6   2070964.949 6   1574762.86747  24271911.41547
  21542204.622 7   3713433.789 7   2877482.66448  21542203.20848
  20755331.661 7    500592.855 7    388175.58648  20755328.72048
  24373050.388 1   2797920.660 1   2170710.22745  24373046.96645
  23453932.708 6  -3897895.129 6  -2909454.50847  23453928.66147
  21308359.278 7   2588228.480 7   2003035.66448  21308359.78648
  21738321.794 6  -4025113.500 6  -3118958.17648  21738322.25148
  22065710.786 7   1740693.332 7   1346511.04747  22065707.81047
  24061636.341 5   5732007.430 5   4450269.60545  24061637.10645
 18  5 30  0 57 40.0010000  0  9G03G14G16G22G23G26G27G31G32         -0.000371666
  24273372.849 6   2078656.523 6   1580756.28547  24273375.41547
  21544828.880 7   3727222.551 7   2888227.15248  21544827.09548
  20755816.521 7    503140.012 7    390160.38748  20755813.06748
  24374847.458 2   2807364.512 2   2178069.12545  24374843.75545
  23451394.489 6  -3911233.578 6  -2919848.09447  23451390.95447
  21310046.302 7   2597096.227 7   2009945.60248  21310047.17348
  21735757.013 6  -4038592.270 6  -3129461.10548  21735757.23548
  22066818.677 7   1746513.473 7   1351046.21547  22066815.14247
  24065357.333 4   5751559.547 4   4465504.98045  24065358.47445
 18  5 30  0 57 45.0010000  0  9G03G14G16G22G23G26G27G31G32         -0.000370579
  24274836.966 6   2086353.199 6   1586753.68847  24274839.60647
  21547454.622 7   3741020.305 7   2898978.64548  21547452.79048
  20756302.317 7    505693.871 7    392150.39148  20756299.39648
  24376645.005 2   2816808.496 2   2185428.04345  24376641.22045
  23448856.708 6  -3924567.441 6  -2930238.12147  23448853.68847
  21311734.310 7   2605965.488 7   2016856.73048  21311735.29848
  21733193.013 6  -4052064.176 6  -3139958.69548  21733193.63048
  22067925.786 7   1752335.219 7   1355582.64147  22067922.86047
  24069078.013 4   5771112.750 4   4480741.24645  24069079.21645
 18  5 30  0 57 50.0010000  0  9G03G14G16G22G23G26G27G31G32         -0.000369495
  24276303.356 6   2094055.031 6   1592755.11347  24276305.77147
  21550081.989 7   3754827.121 7   2909737.18448  21550080.13848
  20756789.981 6    508254.516 6    394145.67248  20756786.22448
  24378441.989 2   2826252.582 2   2192787.09045  24378438.63845
  23446320.255 6  -3937896.672 6  -2940624.53547  23446316.72447
  21313421.927 7   2614836.324 7   2023769.07448  21313423.13448
  21730630.685 6  -4065529.184 6  -3150450.91048  21730631.33748
  22069034.364 7   1758158.656 7   1360120.37947  22069030.86047
  24072798.575 4   5790667.035 4   4495978.30945  24072800.45445
 18  5 30  0 57 55.0010000  0  9G03G14G16G22G23G26G27G31G32         -0.000368412
  24277769.521 6   2101761.926 6   1598760.48847  24277772.64947
  21552710.833 7   3768642.871 7   2920502.69548  21552709.02148
  20757278.333 6    510821.949 6    396146.30948  20757274.82548
  24380238.575 1   2835696.742 1   2200146.17245  24380235.94245
  23443784.638 6  -3951221.297 6  -2951007.34847  23443781.57147
  21315109.856 7   2623708.652 7   2030682.57048  21315111.53248
  21728069.935 6  -4078987.344 6  -3160937.78548  21728070.40748
  22070142.739 6   1763983.672 6   1364659.35247  22070139.49347
  24076521.021 4   5810222.379 4   4511216.22745  24076521.91945
 18  5 30  0 58  0.0010000  0  9G03G14G16G22G23G26G27G31G32         -0.000367331
  24279237.614 5   2109473.883 5   1604769.77047  24279240.56747
  21555341.442 7   3782467.582 7   2931275.18048  21555339.79048
  20757768.239 7    513396.027 7    398152.08248  20757764.56048
  24382035.333 2   2845140.941 2   2207505.27345  24382032.72045
  23441249.841 6  -3964541.324 6  -2961386.58647  23441246.64947
  21316798.388 7   2632582.473 7   2037597.22348  21316800.41148
  21725510.372 6  -4092438.695 6  -3171419.34848  21725510.68848
  22071251.950 7   1769810.316 7   1369199.57847  22071248.32147
  24080242.692 5   5829778.773 5   4526454.93446  24080242.98546
 18  5 30  0 58  5.0010000  0  9G03G14G16G22G23G26G27G31G32         -0.000366253
  24280705.567 6   2117190.523 6   1610782.72347  24280708.89947
  21557974.122 7   3796300.934 7   2942054.41848  21557972.26348
  20758259.192 7    515976.445 7    400162.77748  20758255.32548
  24383832.294 1   2854584.902 1   2214864.14845  24383830.15745
  23438715.856 6  -3977857.066 6  -2971762.48847  23438712.63447
  21318487.591 7   2641457.445 7   2044512.77748  21318489.24348
  21722951.489 6  -4105883.457 6  -3181895.77348  21722952.41948
  22072360.802 7   1775638.285 7   1373740.85547  22072357.83747
  24083964.231 4   5849335.844 4   4541694.20746  24083964.52146
 18  5 30  0 58 10.0010000  0  9G03G14G16G22G23G26G27G31G32         -0.000365177
  24282174.919 6   2124912.313 6   1616799.69947  24282178.52147
  21560608.231 7   3810143.340 7   2952840.69548  21560606.38448
  20758751.474 7    518563.656 7    402178.79348  20758747.45448
  24385629.458 1   2864028.926 1   2222223.14545  24385627.51345
  23436182.458 6  -3991168.078 6  -2982134.69947  23436179.80247
  21320177.067 7   2650334.012 7   2051429.56648  21320178.14248
  21720394.560 6  -4119321.219 6  -3192366.75048  21720395.05248
  22073469.903 7   1781467.988 7   1378283.48047  22073467.35647
  24087685.521 4   5868894.055 4   4556934.34846  24087686.38846
 18  5 30  0 58 15.0010000  0  9G03G14G16G22G23G26G27G31G32         -0.000364101
  24283645.310 6   2132639.563 6   1622820.93446  24283648.72446
  21563243.880 7   3823995.113 7   2963634.28148  21563242.22048
  20759245.161 7    521157.988 7    404200.35548  20759241.33748
  24387427.888 1   2873473.391 1   2229582.44945  24387425.01345
  23433650.552 6  -4004473.957 6  -2992502.91847  23433647.93147
  21321866.833 7   2659212.488 7   2058347.84048  21321867.34948
  21717838.786 6  -4132751.641 6  -3202832.01648  21717839.16148
  22074579.278 7   1787299.777 7   1382827.72347  22074576.88047
  24091407.739 4   5888453.727 4   4572175.63746  24091408.28646
 18  5 30  0 58 20.0010000  0  9G03G14G16G22G23G26G27G31G32         -0.000363028
  24285117.661 6   2140371.754 6   1628846.01247  24285120.73547
  21565881.544 7   3837855.703 7   2974434.73848  21565879.65748
  20759739.724 6    523758.863 6    406227.00048  20759736.35648
  24389222.864 1   2882917.699 1   2236941.60945  24389222.34945
  23431119.380 6  -4017775.324 6  -3002867.62947  23431116.95047
  21323556.356 7   2668092.273 7   2065267.14548  21323556.95448
  21715284.966 6  -4146175.289 6  -3213292.00048  21715284.93848
  22075689.622 6   1793133.082 6   1387373.16447  22075687.39647
  24095129.989 4   5908014.234 4   4587417.52745  24095130.70445
 18  5 30  0 58 25.0010000  0  9G03G14G16G22G23G26G27G31G32         -0.000361956
  24286590.567 6   2148109.395 6   1634875.30547  24286593.52147
  21568520.919 7   3851725.680 7   2985242.50448  21568519.04048
  20760236.169 6    526366.941 6    408259.26248  20760232.97848
  24391022.278 1   2892362.555 1   2244301.21545  24391019.85645
  23428588.271 6  -4031071.504 6  -3013228.26247  23428586.79447
  21325246.458 7   2676973.992 7   2072187.96548  21325247.21648
  21712731.669 6  -4159591.488 6  -3223746.18048  21712731.71648
  22076799.919 6   1798968.523 6   1391920.24647  22076797.89247
  24098851.544 4   5927576.273 4   4602660.64146  24098853.38446
 18  5 30  0 58 30.0010000  0  9G03G14G16G22G23G26G27G31G32         -0.000360886
  24288063.255 6   2155853.059 6   1640909.34447  24288067.21247
  21571161.981 7   3865605.621 7   2996058.03948  21571160.22448
  20760734.341 7    528982.691 7    410297.50048  20760730.36448
  24392820.231 1   2901808.461 1   2251661.63345  24392816.85345
  23426059.849 6  -4044361.977 6  -3023584.49647  23426057.38447
  21326937.216 7   2685858.227 7   2079110.76248  21326937.31748
  21710180.372 6  -4172999.676 6  -3234194.12548  21710179.84148
  22077911.130 6   1804806.703 6   1396469.47347  22077908.75547
  24102574.442 3   5947140.309 3   4617905.35246  24102576.35346
 18  5 30  0 58 35.0010000  0  9G03G14G16G22G23G26G27G31G32         -0.000359818
  24289538.630 6   2163602.176 6   1646947.64147  24289541.85647
  21573805.161 7   3879494.914 7   3006880.85948  21573803.48548
  20761233.177 7    531605.563 7    412341.29348  20761229.70048
  24394616.052 2   2911254.719 2   2259022.31345  24394614.56345
  23423531.122 6  -4057647.270 6  -3033936.68047  23423529.14247
  21328627.755 7   2694744.367 7   2086035.03148  21328628.06748
  21707630.286 6  -4186400.469 6  -3244636.30548  21707630.19248
  22079022.224 6   1810646.957 6   1401020.31647  22079019.82547
  24106297.810 3   5966705.762 3   4633151.12146  24106299.73146
 18  5 30  0 58 40.0010000  0  9G03G14G16G22G23G26G27G31G32         -0.000358749
  24291013.356 6   2171356.824 6   1652990.22346  24291017.29846
  21576450.169 7   3893393.641 7   3017711.01648  21576448.33748
  20761733.560 7    534235.594 7    414390.68048  20761729.64648
  24396413.958 1   2920701.426 1   2266383.41445  24396411.88045
  23421004.528 5  -4070927.293 5  -3044284.75447  23421002.06047
  21330319.247 7   2703632.469 7   2092960.82448  21330319.98148
  21705081.513 6  -4199793.727 6  -3255072.60248  21705081.52448
  22080134.067 6   1816489.422 6   1405572.86347  22080131.62647
  24110020.575 2   5986272.746 2   4648398.09045  24110023.38445
 18  5 30  0 58 45.0010000  0  9G03G14G16G22G23G26G27G31G32         -0.000357685
  24292490.364 6   2179116.707 6   1659036.86346  24292493.23546
  21579096.653 6   3907301.504 6   3028548.30548  21579094.94248
  20762235.692 7    536872.547 7    416445.45748  20762231.66548
  24398213.130 3   2930148.391 3   2273744.66845  24398209.91145
  23418478.302 6  -4084202.336 6  -3054628.94547  23418475.30647
  21332011.099 7   2712522.273 7   2099887.94148  21332011.99748
  21702534.052 6  -4213179.758 6  -3265503.27748  21702534.14648
  22081246.177 6   1822333.789 6   1410126.93447  22081243.80647
  24113743.849 3   6005840.898 3   4663645.97345  24113747.20445
 18  5 30  0 58 50.0010000  0  9G03G14G16G22G23G26G27G31G32         -0.000356621
  24293967.888 6   2186882.398 6   1665088.03546  24293970.96646
  21581745.481 7   3921219.156 7   3039393.21948  21581743.24748
  20762738.763 7    539516.977 7    418506.05548  20762735.04848
  24400010.856 3   2939596.125 3   2281106.53145  24400007.78245
  23415952.880 5  -4097471.805 5  -3064968.81347  23415949.59147
  21333703.231 7   2721414.324 7   2106816.80148  21333703.74348
  21699988.231 6  -4226557.930 6  -3275927.82848  21699988.48948
  22082359.192 7   1828180.637 7   1414682.91047  22082355.89247
  24117467.927 2   6025410.863 2   4678895.27745  24117471.79445
 18  5 30  0 58 55.0010000  0  9G03G14G16G22G23G26G27G31G32         -0.000355558
  24295446.239 5   2194653.195 5   1671143.20346  24295449.64246
  21584395.302 7   3935145.895 7   3050245.22348  21584393.48148
  20763243.302 7    542168.234 7    420571.96148  20763239.50148
  24401808.536 3   2949044.039 3   2288468.50045  24401805.10345
  23413428.841 5  -4110736.297 5  -3075304.78546  23413425.57146
  21335395.528 7   2730308.012 7   2113746.93848  21335396.79448
  21697444.044 6  -4239928.840 6  -3286346.71148  21697444.04848
  22083471.919 6   1834029.414 6   1419240.39547  22083468.57947
  24121193.294 3   6044981.945 3   4694145.35945  24121195.92345
 18  5 30  0 59  0.0010000  0  9G03G14G16G22G23G26G27G31G32         -0.000354498
  24296925.708 5   2202428.887 5   1677202.19146  24296929.58746
  21587047.013 7   3949081.445 7   3061104.08648  21587045.41548
  20763749.403 7    544826.063 7    422642.98448  20763745.32548
  24403606.146 2   2958491.797 2   2295830.41445  24403602.79845
  23410905.614 5  -4123996.102 5  -3085637.09846  23410902.28246
  21337088.294 7   2739203.066 7   2120678.14548  21337089.22848
  21694900.919 6  -4253292.758 6  -3296760.15248  21694901.32548
  22084584.974 7   1839879.816 7   1423799.14847  22084581.72447
  24124916.614 2   6064553.926 2   4709396.30545  24124920.59945
 18  5 30  0 59  5.0010000  0  9G03G14G16G22G23G26G27G31G32         -0.000353437
  24298406.646 6   2210209.883 6   1683265.30546  24298409.49346
  21589700.700 7   3963026.211 7   3071970.12948  21589699.21648
  20764255.833 7    547490.836 7    424719.43448  20764252.74348
  24405404.661 2   2967939.750 2   2303192.44945  24405400.45045
  23408383.106 5  -4137250.746 5  -3095965.40246  23408379.68546
  21338781.575 7   2748099.879 7   2127610.72348  21338782.56348
  21692359.052 6  -4266649.285 6  -3307167.82848  21692359.22448
  22085699.091 7   1845732.230 7   1428359.46947  22085695.64247
  24128641.841 3   6084127.137 3   4724648.07045  24128645.10345
 18  5 30  0 59 10.0010000  0  9G03G14G16G22G23G26G27G31G32         -0.000352381
  24299888.935 6   2217995.859 6   1689332.27746  24299891.41546
  21592356.208 6   3976979.891 6   3082843.12148  21592354.54848
  20764764.708 7    550162.281 7    426801.09448  20764760.99748
  24407202.575 3   2977387.629 3   2310554.43045  24407198.36845
  23405861.974 5  -4150500.555 5  -3106289.91846  23405858.33746
  21340474.763 7   2756998.125 7   2134544.41848  21340476.21248
  21689818.497 6  -4279998.711 6  -3317569.96548  21689819.63448
  22086813.192 7   1851586.422 7   1432921.16847  22086809.69247
  24132367.356 2   6103701.316 2   4739900.68445  24132370.34145
 18  5 30  0 59 15.0010000  0  9G03G14G16G22G23G26G27G31G32         -0.000351326
  24301370.646 5   2225786.848 5   1695403.14146  24301374.23946
  21595013.442 6   3990942.559 6   3093723.11348  21595011.50148
  20765273.950 7    552840.457 7    428887.98048  20765270.56348
  24409000.028 3   2986835.570 3   2317916.44546  24408996.40746
  23403342.216 5  -4163745.500 5  -3116610.66046  23403337.62646
  21342168.200 7   2765897.902 7   2141479.30948  21342169.47048
  21687279.802 6  -4293340.883 6  -3327966.47348  21687280.57548
  22087927.294 7   1857442.438 7   1437484.29748  22087924.28248
  24136091.911 2   6123276.496 2   4755154.00445  24136095.63445
 18  5 30  0 59 20.0010000  0  9G03G14G16G22G23G26G27G31G32         -0.000350271
  24302854.075 5   2233583.137 5   1701478.14546  24302857.38046
  21597671.856 6   4004914.410 6   3104610.25848  21597670.06748
  20765785.364 7    555525.586 7    430980.29348  20765781.36448
  24410797.849 3   2996283.711 3   2325278.62546  24410793.97846
  23400822.966 5  -4176985.242 5  -3126927.35547  23400818.41947
  21343862.067 7   2774799.391 7   2148415.53148  21343863.19248
  21684742.216 6  -4306675.613 6  -3338357.16448  21684742.75948
  22089042.388 7   1863300.512 7   1442049.02748  22089039.06048
  24139817.060 2   6142852.891 2   4770408.34845  24139821.49345
 18  5 30  0 59 25.0010000  0  9G03G14G16G22G23G26G27G31G32         -0.000349220
  24304338.747 5   2241384.758 5   1707557.31346  24304341.60346
  21600332.685 6   4018895.648 6   3115504.73048  21600331.02448
  20766297.622 7    558217.824 7    433078.12948  20766293.75948
  24412596.192 3   3005732.320 3   2332641.18846  24412592.12246
  23398304.661 5  -4190219.613 5  -3137239.87146  23398299.93846
  21345556.247 7   2783702.828 7   2155353.27748  21345557.43148
  21682206.138 6  -4320002.727 6  -3348741.91448  21682206.90748
  22090157.528 7   1869160.816 7   1446615.49648  22090154.23948
  24143540.442 1   6162430.750 1   4785663.78545  24143546.95045
 18  5 30  0 59 30.0010000  0  9G03G14G16G22G23G26G27G31G32         -0.000348169
  24305824.591 5   2249191.367 5   1713640.39546  24305827.13446
  21602995.185 7   4032885.840 7   3126406.17248  21602993.19648
  20766811.356 7    560916.715 7    435181.16048  20766807.43148
  24414393.825 3   3015180.852 3   2340003.65245  24414390.13445
  23395787.278 5  -4203448.980 5  -3147548.46547  23395782.16147
  21347250.747 7   2792607.750 7   2162292.18448  21347251.57948
  21679671.224 6  -4333322.566 6  -3359121.00848  21679672.23948
  22091273.013 7   1875023.000 7   1451183.43048  22091269.76348
  24147266.763 1   6182009.539 1   4800919.96145  24147272.70045
 18  5 30  0 59 35.0010000  0  9G03G14G16G22G23G26G27G31G32         -0.000347120
  24307311.067 5   2257003.488 5   1719727.73846  24307314.05646
  21605658.778 7   4046885.441 7   3137314.94148  21605657.43848
  20767325.919 7    563622.809 7    437289.80548  20767322.34948
  24416192.341 2   3024629.910 2   2347366.55545  24416187.89945
  23393270.349 5  -4216672.926 5  -3157852.84447  23393266.00547
  21348945.794 7   2801514.641 7   2169232.61348  21348946.70448
  21677137.849 6  -4346634.652 6  -3369494.06348  21677139.38848
  22092389.153 7   1880887.484 7   1455753.15248  22092386.05248
  24150991.685 1   6201589.707 1   4816177.20745  24150999.02845
 18  5 30  0 59 40.0010000  0  9G03G14G16G22G23G26G27G31G32         -0.000346073
  24308799.161 6   2264821.039 6   1725819.34446  24308801.12646
  21608324.536 7   4060894.406 7   3148231.01648  21608323.29848
  20767842.481 7    566336.035 7    439404.00448  20767839.36848
  24417989.896 2   3034079.305 2   2354729.74246  24417986.00546
  23390756.060 5  -4229891.359 5  -3168152.93447  23390750.61047
  21350640.833 7   2810423.434 7   2176174.52748  21350641.64648
  21674606.622 6  -4359939.039 6  -3379861.12148  21674607.04848
  22093505.614 7   1886754.293 7   1460324.68048  22093502.42348
  24154718.481 1   6221171.355 1   4831435.55545  24154725.48945
 18  5 30  0 59 45.0010000  0  9G03G14G16G22G23G26G27G31G32         -0.000345028
  24310287.685 5   2272643.516 5   1731914.76246  24310289.88846
  21610992.247 7   4074912.273 7   3159154.02748  21610991.03648
  20768360.442 7    569055.980 7    441523.43448  20768356.68848
  24419787.903 2   3043528.652 2   2362092.83646  24419784.90746
  23388241.294 5  -4243104.770 5  -3178449.08247  23388235.88847
  21352336.255 7   2819333.688 7   2183117.58248  21352337.30248
  21672076.091 6  -4373236.133 6  -3390222.48848  21672077.06348
  22094622.067 7   1892622.977 7   1464897.68848  22094619.21648
  24158444.450 1   6240753.965 1   4846694.74245  24158452.22445
 18  5 30  0 59 50.0010000  0  9G03G14G16G22G23G26G27G31G32         -0.000343983
  24311777.411 5   2280471.578 5   1738014.54346  24311778.49346
  21613661.200 6   4088939.746 6   3170084.50448  21613660.13448
  20768878.880 7    571783.258 7    443648.57848  20768875.61448
  24421585.716 2   3052978.566 2   2369456.41046  24421582.26746
  23385727.958 6  -4256312.555 6  -3188740.85547  23385722.73947
  21354032.724 7   2828246.066 7   2190062.29748  21354033.23948
  21669546.927 6  -4386525.293 6  -3400577.66848  21669548.18148
  22095739.231 7   1898494.160 7   1469472.63348  22095736.77148
  24162170.606 1   6260338.102 1   4861955.18045  24162178.90745
 18  5 30  0 59 55.0010000  0  9G03G14G16G22G23G26G27G31G32         -0.000342941
  24313267.481 5   2288304.629 5   1744118.21146  24313269.74346
  21616332.521 6   4102976.156 6   3181021.96548  21616331.46248
  20769399.349 7    574517.203 7    445778.93048  20769396.11048
  24423384.583 2   3062428.434 2   2376819.95746  24423381.12646
  23383215.341 6  -4269515.285 6  -3199028.69947  23383209.38047
  21355728.646 7   2837159.910 7   2197008.15248  21355729.76348
  21667019.911 6  -4399807.102 6  -3410927.12948  21667020.91948
  22096857.044 7   1904367.242 7   1474049.05548  22096854.52448
  24165897.825 1   6279923.230 1   4877216.14545  24165906.59545
 18  5 30  1  0  0.0010000  0  9G03G14G16G22G23G26G27G31G32         -0.000341904
  24314759.591 5   2296142.934 5   1750225.96946  24314761.38046
  21619005.106 6   4117021.793 6   3191966.60548  21619004.00148
  20769920.888 7    577258.094 7    447914.66448  20769917.71648
  24425182.849 1   3071878.520 1   2384183.62946  24425179.16146
  23380704.388 6  -4282712.629 6  -3209312.35246  23380698.19246
  21357425.622 7   2846075.563 7   2203955.41048  21357426.06348
  21664493.614 6  -4413081.227 6  -3421270.58648  21664494.18848
  22097974.989 7   1910242.543 7   1478627.21148  22097972.57948
  24169624.79411                                
 18  5 30  1  0  5.0010000  0  9G03G14G16G22G23G26G27G31G32         -0.000340860
  24316252.075 5   2303986.270 5   1756337.68446  24316253.43846
  21621680.146 6   4131076.398 6   3202918.24648  21621678.44648
  20770443.950 7    580005.762 7    450055.68448  20770440.46648
  24426981.302 2   3081328.484 2   2391547.25446  24426977.20046
  23378193.192 6  -4295904.832 6  -3219591.96947  23378187.82547
  21359122.474 7   2854992.738 7   2210903.85948  21359123.31748
  21661969.146 6  -4426347.914 6  -3431608.25448  21661969.84548
  22099093.435 6   1916119.789 6   1483206.88348  22099090.68848
  24173352.950 1   6319096.980 1                
 18  5 30  1  0 10.0010000  0  9G03G14G16G22G23G26G27G31G32         -0.000339823
  24317746.091 5   2311835.285 5   1762453.79346  24317747.10346
  21624356.606 6   4145140.668 6   3213877.41048  21624354.68848
  20770968.169 7    582760.859 7    452202.49648  20770964.69248
  24428779.755 1   3090779.090 1   2398911.40646  24428776.32946
  23375684.935 6  -4309091.105 6  -3229866.98847  23375678.77147
  21360818.911 7   2863912.152 7   2217854.05148  21360820.86048
  21659446.013 6  -4439606.441 6  -3441939.56648  21659446.75948
  22100211.927 7   1921999.828 7   1487788.73448  22100209.62248
  24177080.364 1   6338686.000 1                
 18  5 30  1  0 15.0010000  0  9G03G14G16G22G23G26G27G31G32         -0.000338787
  24319239.739 5   2319689.426 5   1768573.87546  24319241.41546
  21627034.349 6   4159214.004 6   3224843.64148  21627032.90348
  20771493.677 7    585522.805 7    454354.68048  20771490.17748
  24430577.849 1   3100229.836 1   2406275.60546  24430574.42746
  23373176.505 6  -4322272.160 6  -3240137.93847  23373170.28247
  21362517.169 7   2872833.180 7   2224805.48048  21362518.66948
  21656924.419 6  -4452857.426 6  -3452265.02748  21656925.25148
  22101331.802 7   1927881.984 7   1492372.22348  22101329.07548
  24180808.442 1   6358276.059 1                
 18  5 30  1  0 20.0010000  0  9G03G14G16G22G23G26G27G31G32         -0.000337753
  24320735.591 4   2327548.668 4   1774697.92246  24320737.06346
  21629714.114 6   4173296.461 6   3235816.97348  21629712.81348
  20772020.622 7    588291.699 7    456512.26648  20772016.95848
  24432375.864 1   3109680.684 1   2413639.87546  24432373.20446
  23370669.427 6  -4335447.859 6  -3250404.73047  23370663.54847
  21364215.442 7   2881755.859 7   2231758.21148  21364216.73948
  21654404.442 6  -4466100.734 6  -3462584.48448  21654404.93148
  22102451.450 7   1933766.188 7   1496957.32048  22102448.86448
  24184537.911 1   6377867.305 1                
 18  5 30  1  0 25.0010000  0  9G03G14G16G22G23G26G27G31G32         -0.000336718
  24322232.59913                   1780826.10256  24322234.11456
  21632396.083 6   4187388.199 6   3246797.54348  21632394.03248
  20772548.880 6    591067.621 6    458675.33248  20772545.29048
  24434174.583 2   3119131.875 2   2421004.38346  24434171.53646
  23368162.771 5  -4348617.949 5  -3260667.13347  23368157.37247
  21365913.911 7   2890680.414 7   2238712.40648  21365915.20848
  21651885.755 6  -4479336.227 6  -3472897.84848  21651886.47048
  22103571.114 6   1939652.746 6   1501544.23848  22103569.05248
  24188266.646 1   6397459.891 1                
 18  5 30  1  0 30.0010000  0  9G03G14G16G22G23G26G27G31G32         -0.000335688
  24323730.583 4   2343282.973 4   1786958.41046  24323731.41946
  21635078.950 6   4201489.148 6   3257785.28548  21635077.55248
  20773078.724 7    593850.547 7    460843.84048  20773074.49348
  24435972.997 2   3128583.262 2   2428369.08646  24435970.48146
  23365657.356 6  -4361782.656 6  -3270925.35247  23365652.66547
  21367612.403 7   2899606.723 7   2245667.95348  21367614.13448
  21649368.911 6  -4492563.973 6  -3483205.17648  21649369.54048
  22104692.013 7   1945541.563 7   1506132.92248  22104689.94248
  24191993.17711   6417053.53111                
 18  5 30  1  0 35.0010000  0  9G03G14G16G22G23G26G27G31G32         -0.000334658
  24325228.966 5   2351158.090 5   1793094.88746  24325229.49346
  21637763.927 6   4215599.434 6   3268780.30548  21637763.04448
  20773609.263 7    596640.625 7    463017.92648  20773605.15748
  24437772.122 1   3138034.984 1   2435734.07046  24437769.46246
  23363153.474 6  -4374941.461 6  -3281178.97347  23363148.59947
  21369311.786 7   2908534.953 7   2252625.02348  21369312.39248
  21646852.833 6  -4505783.715 6  -3493506.26648  21646854.14948
  22105813.302 7   1951432.801 7   1510723.49248  22105810.47048
  24195722.966 1   6436648.621 1                
 18  5 30  1  0 40.0010000  0  9G03G14G16G22G23G26G27G31G32         -0.000333628
  24326728.208 5   2359038.750 5   1799235.64846  24326729.16946
  21640450.685 6   4229719.188 6   3279782.69948  21640449.72448
  20774141.153 7    599437.863 7    465197.59448  20774138.16148
  24439570.739 2   3147487.129 2   2443099.36346  24439568.51746
  23360650.614 6  -4388094.570 6  -3291428.13747  23360645.98547
  21371010.958 7   2917465.215 7   2259583.66848  21371011.39948
  21644338.708 6  -4518995.410 6  -3503801.09448  21644339.64248
  22106934.716 6   1957326.586 6   1515316.04348  22106932.11048
  24199452.286 1   6456245.133 1                
 18  5 30  1  0 45.0010000  0  9G03G14G16G22G23G26G27G31G32         -0.000332602
  24328228.817 5   2366925.027 5   1805380.79746  24328229.71246
  21643139.521 6   4243848.672 6   3290792.68848  21643138.18548
  20774675.185 7    602242.605 7    467383.09848  20774671.77848
  24441369.255 2   3156939.949 2   2450465.19946  24441367.15346
  23358148.927 6  -4401241.664 6  -3301672.61747  23358144.15347
  21372710.755 7   2926397.738 7   2266544.08648  21372710.97848
  21641826.481 6  -4532198.754 6  -3514089.41048  21641827.34548
  22108056.646 7   1963223.168 7   1519910.78548  22108054.02148
  24203182.388 1   6475843.426 1                
 18  5 30  1  0 50.0010000  0  9G03G14G16G22G23G26G27G31G32         -0.000331573
  24329730.435 5   2374816.453 5   1811529.97745  24329731.60645
  21645829.833 6   4257987.242 6   3301809.75448  21645829.06048
  20775210.114 7    605054.172 7    469573.91848  20775206.57148
  24443168.497 3   3166392.891 3   2457831.10546  24443165.91146
  23355648.099 6  -4414383.305 6  -3311912.88347  23355643.50947
  21374411.146 7   2935331.906 7   2273505.78148  21374410.90748
  21639315.114 6  -4545394.348 6  -3524371.68848  21639316.12248
  22109178.708 7   1969121.953 7   1524507.23048  22109176.58748
  24206911.997 2   6495442.762 2                
 18  5 30  1  0 55.0010000  0  9G03G14G16G22G23G26G27G31G32         -0.000330549
  24331233.067 5   2382712.910 5   1817683.02746  24331234.84546
  21648522.138 6   4272134.773 6   3312833.79348  21648520.73948
  20775746.505 7    607872.500 7    471770.02348  20775742.96248
  24444967.224 3   3175845.699 3   2465196.93446  24444964.88046
  23353148.474 6  -4427519.613 6  -3322148.97747  23353143.52147
  21376110.989 7   2944267.586 7   2280468.64548  21376111.39948
  21636805.864 6  -4558582.320 6  -3534648.03148  21636806.40748
  22110302.294 6   1975022.852 6   1529105.33648  22110299.75148
  24210642.739 3   6515043.031 3                
 18  5 30  1  1  0.0010000  0  9G03G14G16G22G23G26G27G31G32         -0.000329527
  24332736.356 4   2390614.855 4   1823840.40246  24332738.20446
  21651216.528 6   4286291.848 6   3323865.27048  21651214.68148
  20776284.606 7    610698.102 7    473971.78948  20776280.74748
  24446766.302 3   3185299.105 3   2472563.20346  24446763.62246
  23350649.896 6  -4440650.020 6  -3332380.46147  23350644.82147
  21377811.903 7   2953205.367 7   2287433.15648  21377812.41148
  21634298.067 6  -4571762.059 6  -3544917.95748  21634298.13048
  22111425.521 6   1980926.422 6   1533705.50848  22111423.58748
  24214373.060 3   6534644.883 3                
 18  5 30  1  1  5.0010000  0  9G03G14G16G22G23G26G27G31G32         -0.000328505
  24334241.294 5   2398522.807 5   1830002.46146  24334243.05246
  21653912.341 7   4300458.984 7   3334904.58248  21653910.72048
  20776823.614 7    613531.566 7    476179.68048  20776819.64248
  24448565.802 3   3194753.484 3   2479930.24646  24448562.57146
  23348152.435 6  -4453773.863 6  -3342606.81647  23348147.73547
  21379513.231 7   2962145.781 7   2294399.69548  21379514.16948
  21631791.231 6  -4584933.000 6  -3555181.03148  21631792.16148
  22112549.771 7   1986833.188 7   1538308.18048  22112547.48548
  24218103.028 3   6554248.703 3                
 18  5 30  1  1 10.0010000  0  9G03G14G16G22G23G26G27G31G32         -0.000327482
  24335747.278 5   2406435.938 5   1836168.54346  24335748.62646
  21656610.067 7   4314635.305 7   3345951.06348  21656608.00548
  20777364.067 7    616372.016 7    478393.01648  20777360.33748
  24450364.419 3   3204208.047 3   2487297.42246  24450362.09546
  23345655.989 6  -4466892.047 6  -3352828.75447  23345650.95447
  21381214.786 7   2971087.957 7   2301367.61748  21381215.88848
  21629286.911 6  -4598096.004 6  -3565437.92248  21629287.24748
  22113673.825 6   1992742.320 6   1542912.69548  22113672.37248
  24221834.724 3   6573853.746 3                
 18  5 30  1  1 15.0010000  0  9G03G14G16G22G23G26G27G31G32         -0.000326464
  24337254.192 5   2414353.719 5   1842338.24646  24337254.78246
  21659309.466 7   4328820.258 7   3357004.26648  21659307.62248
  20777906.060 7    619218.875 7    480611.33248  20777902.31748
  24452163.278 3   3213662.191 3   2494664.26646  24452161.16946
  23343160.458 6  -4480005.195 6  -3363046.81647  23343155.24347
  21382916.716 7   2980031.344 7   2308336.48048  21382918.16948
  21626783.036 6  -4611251.621 6  -3575689.05148  21626783.59548
  22114798.364 7   1998653.273 7   1547518.63748  22114796.81048
  24225565.052 3   6593459.438 3                
 18  5 30  1  1 20.0010000  0  9G03G14G16G22G23G26G27G31G32         -0.000325447
  24338762.419 5   2422277.151 5   1848512.34546  24338762.81746
  21662010.341 7   4343014.852 7   3368064.97748  21662008.65748
  20778449.325 7    622073.148 7    482835.43448  20778445.46648
  24453962.380 3   3223116.969 3   2502031.60946  24453960.11846
  23340665.997 6  -4493112.211 6  -3373260.09047  23340661.50947
  21384619.114 7   2988976.922 7   2315307.05948  21384620.63448
  21624281.419 6  -4624398.801 6  -3585933.60248  21624282.27148
  22115923.802 7   2004567.055 7   1552126.77348  22115921.75548
  24229297.044 3   6613066.648 3                
 18  5 30  1  1 25.0010000  0  9G03G14G16G22G23G26G27G31G32         -0.000324430
  24340270.231 5   2430205.797 5   1854690.47746  24340271.06746
  21664713.294 6   4357218.695 6   3379132.89148  21664711.31348
  20778993.567 7    624934.445 7    485065.04348  20778989.69248
  24455761.763 3   3232571.840 3   2509399.04346  24455759.62246
  23338172.872 6  -4506213.453 6  -3383468.82847  23338168.70447
  21386321.716 7   2997924.285 7   2322279.02048  21386323.29848
  21621781.122 6  -4637537.949 6  -3596171.89548  21621781.34148
  22117049.872 6   2010483.238 6   1556736.78148  22117047.89948
  24233027.692 3   6632675.105 3                
 18  5 30  1  1 30.0010000  0  9G03G14G16G22G23G26G27G31G32         -0.000323416
  24341779.841 5   2438140.355 5   1860873.29346  24341780.29046
  21667418.122 6   4371432.496 6   3390208.57048  21667416.21248
  20779539.247 7    627803.508 7    487300.68048  20779535.85648
  24457560.771 3   3242027.629 3   2516767.18846  24457558.06346
  23335680.927 6  -4519308.176 6  -3393672.47347  23335676.40747
  21388024.911 7   3006874.199 7   2329252.97348  21388026.12248
  21619282.583 6  -4650668.277 6  -3606403.31648  21619282.85348
  22118175.919 6   2016402.633 6   1561349.29348  22118174.03248
  24236760.067 3   6652285.492 3                
 18  5 30  1  1 35.0010000  0  9G03G14G16G22G23G26G27G31G32         -0.000322401
  24343291.942 5   2446079.945 5   1867060.00046  24343291.78246
  21670124.833 6   4385655.238 6   3401291.22748  21670122.77848
  20780086.567 7    630679.344 7    489541.58648  20780082.94648
  24459361.099 3   3251483.418 3   2524135.31346  24459358.20846
  23333190.575 6  -4532397.344 6  -3403871.83647  23333186.03647
  21389728.278 7   3015825.734 7   2336228.19948  21389729.70448
  21616785.278 6  -4663790.734 6  -3616628.60248  21616785.40348
  22119303.021 6   2022324.285 6   1565963.57048  22119301.19648
  24240491.200 3   6671896.879 3                
 18  5 30  1  1 40.0010000  0  9G03G14G16G22G23G26G27G31G32         -0.000321388
  24344803.333 5   2454024.750 5   1873250.73846  24344803.44646
  21672832.966 6   4399887.203 6   3412381.06348  21672830.87248
  20780635.185 7    633562.195 7    491787.95348  20780631.58748
  24461160.474 4   3260939.371 4   2531503.58646  24461157.40746
  23330700.817 6  -4545480.703 6  -3414066.65247  23330696.63047
  21391431.794 7   3024779.070 7   2343204.81648  21391432.92748
  21614289.950 6  -4676905.066 6  -3626847.55948  21614290.25548
  22120430.599 6   2028248.438 6   1570579.78148  22120428.58748
  24244223.849 3   6691509.473 3                
 18  5 30  1  1 45.0010000  0  9G03G14G16G22G23G26G27G31G32         -0.000320377
  24346317.130 5   2461974.715 5   1879445.49246  24346316.73946
  21675543.106 6   4414128.367 6   3423478.07448  21675541.54848
  20781185.356 7    636452.027 7    494039.76648  20781181.57548
  24462959.552 4   3270395.434 4   2538871.93446  24462956.87646
  23328211.388 6  -4558558.313 6  -3424256.98447  23328207.73547
  21393135.833 7   3033734.145 7   2350182.80148  21393136.91948
  21611796.138 6  -4690011.320 6  -3637060.22348  21611795.85348
  22121558.200 6   2034175.012 6   1575197.89148  22121555.92748
  24247957.091 3   6711123.188 3                
 18  5 30  1  1 50.0010000  0  9G03G14G16G22G23G26G27G31G32         -0.000319368
  24347830.114 5   2469930.137 5   1885644.49646  24347830.82146
  21678254.763 6   4428379.039 6   3434582.47348  21678252.82948
  20781736.489 7    639349.133 7    496297.24648  20781733.24748
  24464759.575 4   3279851.938 4   2546240.63746  24464756.45046
  23325724.942 6  -4571629.785 6  -3434442.54347  23325720.95447
  21394840.130 7   3042691.313 7   2357162.41448  21394840.92348
  21609303.528 6  -4703109.148 6  -3647266.32048  21609303.21648
  22122686.700 6   2040104.398 6   1579818.19548  22122684.38448
  24251689.286 3   6730738.379 3                
 18  5 30  1  1 55.0010000  0  9G03G14G16G22G23G26G27G31G32         -0.000318361
  24349344.372 4   2477890.715 4   1891847.55546  24349346.02146
  21680968.481 6   4442638.902 6   3445694.05148  21680966.60348
  20782289.255 7    642253.199 7    498560.13748  20782285.74348
  24466558.060 4   3289308.578 4   2553609.44146  24466556.08346
  23323238.583 6  -4584695.359 6  -3444623.50847  23323234.75147
  21396544.958 6   3051650.234 6   2364143.39148  21396545.93548
  21606812.786 6  -4716198.863 6  -3657466.10248  21606812.64248
  22123815.239 7   2046036.270 7   1584440.42248  22123813.21248
  24255421.599 3   6750354.691 3   4893092.64856  24255423.82156
 18  5 30  1  2  0.0010000  0  9G03G14G16G22G23G26G27G31G32         -0.000317354
  24350859.927 4   2485856.125 4   1898054.37946  24350862.14646
  21683683.310 6   4456907.684 6   3456812.57048  21683681.53248
  20782843.028 7    645163.961 7    500828.25848  20782839.95848
  24468357.825 4   3298765.012 4   2560978.06346  24468355.49746
  23320753.091 6  -4597755.445 6  -3454800.19547  23320749.64247
  21398250.278 7   3060610.641 7   2371125.51648  21398250.61848
  21604323.685 6  -4729280.707 6  -3667659.75048  21604323.14248
  22124944.731 7   2051970.379 7   1589064.39148  22124942.41548
  24259155.810 3   6769971.863 3   4908378.69146  24259157.20846
 18  5 30  1  2  5.0010000  0  9G03G14G16G22G23G26G27G31G32         -0.000316349
  24352377.927 5   2493826.250 5   1904264.86746  24352378.80646
  21686400.778 6   4471185.195 6   3467937.88748  21686398.38048
  20783398.364 7    648081.363 7    503101.55948  20783395.28248
  24470156.692 4   3308221.180 4   2568346.49646  24470154.77446
  23318269.317 6  -4610810.070 6  -3464972.63347  23318265.19647
  21399955.661 7   3069572.379 7   2378108.69148  21399956.37648
  21601835.747 6  -4742354.805 6  -3677847.35548  21601835.61048
  22126074.271 6   2057906.531 6   1593689.94948  22126071.98548
  24262888.755 3   6789589.754 3   4923665.41045  24262890.48545
 18  5 30  1  2 10.0010000  0  9G03G14G16G22G23G26G27G31G32         -0.000315346
  24353896.200 5   2501801.664 5   1910479.46946  24353896.50546
  21689119.349 6   4485472.051 6   3479070.48848  21689117.28248
  20783954.661 7    651005.879 7    505380.41448  20783951.63048
  24471956.833 4   3317677.609 4   2575715.14846  24471953.90746
  23315785.731 6  -4623858.629 6  -3475140.33647  23315782.61447
  21401661.435 7   3078536.027 7   2385093.34448  21401662.29848
  21599349.286 6  -4755420.570 6  -3688028.48048  21599349.01348
  22127204.435 6   2063845.340 6   1598317.59448  22127202.11048
  24266621.778 3   6809208.902 3   4938952.95745  24266624.47845
 18  5 30  1  2 15.0010000  0  9G03G14G16G22G23G26G27G31G32         -0.000314344
  24355413.310 5   2509782.293 5   1916698.12546  24355415.59546
  21691839.677 6   4499768.098 6   3490210.25848  21691837.47448
  20784512.185 7    653937.414 7    507664.73448  20784509.24748
  24473756.403 4   3327134.164 4   2583083.86346  24473753.25146
  23313303.685 6  -4636901.258 6  -3485303.43847  23313299.87247
  21403367.880 7   3087501.488 7   2392079.41048  21403368.56748
  21596864.521 6  -4768478.078 6  -3698203.16048  21596864.27448
  22128334.989 6   2069786.688 6   1602947.19548  22128333.15748
  24270355.864 3   6828829.234 3   4954241.56645  24270358.04445
 18  5 30  1  2 20.0010000  0  9G03G14G16G22G23G26G27G31G32         -0.000313343
  24356933.021 5   2517768.148 5   1922920.85946  24356935.37246
  21694561.981 6   4514073.395 6   3501357.23848  21694559.85648
  20785071.935 7    656875.957 7    509954.52348  20785068.47848
  24475556.021 4   3336590.910 4   2590452.71946  24475553.13046
  23310823.169 6  -4649937.961 6  -3495461.91447  23310819.63847
  21405074.114 7   3096468.773 7   2399066.90648  21405075.62248
  21594381.427 6  -4781527.289 6  -3708371.37948  21594381.67748
  22129466.364 6   2075730.680 6   1607578.87948  22129464.27848
  24274089.653 2   6848450.781 2   4969531.03145  24274092.44645
 18  5 30  1  2 25.0010000  0  9G03G14G16G22G23G26G27G31G32         -0.000312346
  24358453.505 4   2525758.910 4   1929147.41846  24358456.06346
  21697285.474 6   4528387.652 6   3512511.19547  21697283.59547
  20785631.950 7    659821.203 7    512249.52348  20785628.96648
  24477355.778 4   3346047.527 4   2597821.49246  24477352.76746
  23308343.067 6  -4662968.953 6  -3505615.94547  23308339.75547
  21406780.630 7   3105437.566 7   2406055.57448  21406782.20048
  21591899.677 6  -4794568.469 6  -3718533.34048  21591900.20848
  22130597.833 6   2081676.961 6   1612212.34048  22130595.96648
  24277823.396 2   6868073.203 2   4984821.18445  24277826.79445
 18  5 30  1  2 30.0010000  0  9G03G14G16G22G23G26G27G31G32         -0.000311348
  24359975.091 3   2533754.305 3   1935377.60546  24359977.32546
  21700011.435 6   4542710.680 6   3523671.98047  21700009.36447
  20786193.981 7    662772.980 7    514549.60948  20786190.45048
  24479154.786 4   3355503.809 4   2605190.00446  24479152.31346
  23305864.278 6  -4675994.324 6  -3515765.59047  23305861.14947
  21408487.177 7   3114407.742 7   2413045.32448  21408489.14248
  21589419.536 6  -4807601.789 6  -3728689.17648  21589419.93148
  22131729.989 6   2087625.371 6   1616847.47348  22131727.83348
  24281557.966 1   6887696.359 1   5000111.92645  24281561.29445
 18  5 30  1  2 35.0010000  0  9G03G14G16G22G23G26G27G31G32         -0.000310350
  24361498.630 3   2541754.750 3   1941611.73046  24361499.46246
  21702738.685 6   4557042.773 6   3534839.84848  21702736.87648
  20786756.927 7    665731.656 7    516855.05948  20786753.70848
  24480955.138 4   3364960.105 4   2612558.55946  24480951.74746
  23303387.442 6  -4689013.785 6  -3525910.63347  23303383.63447
  21410194.231 7   3123379.602 7   2420036.37948  21410196.18848
  21586940.919 6  -4820626.879 6  -3738838.58648  21586941.26348
  22132862.231 6   2093576.309 6   1621484.56348  22132860.17348
  24285292.255 1   6907320.520 1   5015403.43045  24285295.67745
 18  5 30  1  2 40.0010000  0  9G03G14G16G22G23G26G27G31G32         -0.000309357
  24363022.271 4   2549760.102 4   1947849.67646  24363023.03646
  21705468.013 6   4571383.848 6   3546014.70347  21705465.57547
  20787321.294 7    668697.137 7    519165.82048  20787317.76748
  24482754.528 5   3374416.336 5   2619927.03146  24482751.12646
  23300910.935 6  -4702027.391 6  -3536051.12147  23300907.38847
  21411902.505 7   3132353.059 7   2427028.68048  21411903.18848
  21584463.552 6  -4833643.844 6  -3748981.66448  21584464.27148
  22133995.130 6   2099529.629 6   1626123.52048  22133993.31748
  24289026.700 1   6926945.602 1   5030695.72344  24289029.73944
 18  5 30  1  2 45.0010000  0  9G03G14G16G22G23G26G27G31G32         -0.000308365
  24364545.685 5   2557770.523 5   1954091.55546  24364547.72846
  21708198.638 6   4585734.016 6   3557196.64147  21708196.28647
  20787886.521 7    671669.500 7    521481.93848  20787883.68148
  24484554.169 5   3383872.582 5   2627295.49646  24484550.06046
  23298435.575 6  -4715035.047 6  -3546186.93447  23298432.12647
  21413610.036 7   3141328.172 7   2434022.27048  21413611.39948
  21581987.974 6  -4846652.539 6  -3759118.31648  21581989.16148
  22135128.403 7   2105485.457 7   1630764.41448  22135126.43848
  24292761.013 1   6946571.699 1   5045988.78144  24292765.20044
 18  5 30  1  2 50.0010000  0  9G03G14G16G22G23G26G27G31G32         -0.000307373
  24366069.919 5   2565785.914 5   1960337.29746  24366072.29046
  21710931.122 6   4600093.180 6   3568385.58648  21710928.39648
  20788453.583 7    674648.668 7    523803.36748  20788450.41548
  24486353.435 5   3393328.754 5   2634663.91846  24486350.02846
  23295961.200 6  -4728036.754 6  -3556318.17247  23295957.98947
  21415318.474 7   3150304.898 7   2441017.11348  21415319.55248
  21579514.169 6  -4859653.035 6  -3769248.57048  21579514.97448
  22136262.474 6   2111443.746 6   1635407.24248  22136260.54848
  24296496.66111   6966198.71911   5061282.52755  24296500.22055
 18  5 30  1  2 55.0010000  0  9G03G14G16G22G23G26G27G31G32         -0.000306383
  24367596.153 4   2573805.988 4   1966586.68846  24367599.13846
  21713665.661 6   4614460.980 6   3579581.27047  21713662.96647
  20789021.880 7    677634.336 7    526129.86348  20789018.73948
  24488152.981 5   3402784.461 5   2642031.98446  24488149.66946
  23293487.927 6  -4741032.941 6  -3566445.04747  23293485.36847
  21417027.138 7   3159282.871 7   2448012.92648  21417027.88048
  21577041.380 6  -4872645.652 6  -3779372.68848  21577042.56048
  22137396.833 6   2117404.148 6   1640051.71148  22137394.72848
  24300231.45811   6985826.47711   5076576.92655  24300235.37255
 18  5 30  1  3  0.0010000  0  9G03G14G16G22G23G26G27G31G32         -0.000305395
  24369123.192 4   2581830.469 4   1972839.51646  24369126.14646
  21716400.974 6   4628837.340 6   3590783.62148  21716398.29448
  20789591.036 7    680626.398 7    528461.34448  20789588.28648
  24489952.325 5   3412239.609 5   2649399.62146  24489948.70046
  23291015.778 6  -4754023.633 6  -3576567.67247  23291013.65347
  21418735.747 7   3168262.008 7   2455009.64848  21418736.28648
  21574571.356 6  -4885630.484 6  -3789490.73448  21574571.14948
  22138531.583 6   2123366.527 6   1644697.70348  22138529.30248
  24303967.153 1   7005454.563 1   5091871.50445  24303970.97845
 18  5 30  1  3  5.0010000  0  9G03G14G16G22G23G26G27G31G32         -0.000304409
  24370652.060 3   2589859.734 3   1979096.12546  24370654.18546
  21719138.169 6   4643222.680 6   3601992.98447  21719135.81747
  20790161.466 7    683625.234 7    530798.10248  20790158.63048
  24491750.896 5   3421694.617 5   2656767.14146  24491747.76346
  23288544.552 6  -4767008.383 6  -3586685.64547  23288542.60347
  21420445.349 7   3177242.734 7   2462007.61348  21420445.63048
  21572101.341 6  -4898607.090 6  -3799602.37548  21572101.57148
  22139666.333 6   2129331.426 6   1649345.67248  22139664.05248
  24307702.911 1   7025083.602 1                
 18  5 30  1  3 10.0010000  0  9G03G14G16G22G23G26G27G31G32         -0.000303423
  24372180.903 3   2597894.074 3   1985356.62946  24372182.80246
  21721877.341 6   4657616.988 6   3613209.32047  21721874.94647
  20790733.333 7    686630.844 7    533140.13348  20790730.63848
  24493550.763 5   3431149.504 5   2664134.57846  24493546.75946
  23286075.481 6  -4779987.184 6  -3596799.00047  23286073.25547
  21422154.310 7   3186225.020 7   2469006.79348  21422155.08748
  21569633.622 6  -4911575.418 6  -3809707.56348  21569634.15748
  22140801.817 7   2135298.813 7   1653995.56348  22140799.36848
  24311440.864 1   7044713.617 1                
 18  5 30  1  3 15.0010000  0  9G03G14G16G22G23G26G27G31G32         -0.000302441
  24373710.372 4   2605932.719 4   1991620.47346  24373712.55646
  21724618.372 6   4672019.871 6   3624432.33247  21724615.93847
  20791306.802 7    689642.816 7    535487.10948  20791303.61848
  24495349.239 5   3440603.840 5   2671501.59446  24495345.77446
  23283606.396 6  -4792960.441 6  -3606908.02747  23283604.26347
  21423863.528 7   3195208.480 7   2476006.88748  21423864.80648
  21567167.536 6  -4924535.887 6  -3819806.63348  21567167.86848
  22141937.958 7   2141268.242 7   1658647.06348  22141935.55648
  24315174.560 1   7064344.082 1                
 18  5 30  1  3 20.0010000  0  9G03G14G16G22G23G26G27G31G32         -0.000301460
  24375240.622 4   2613976.090 4   1997888.03146  24375243.88446
  21727361.153 6   4686431.449 6   3635662.14147  21727358.54447
  20791881.239 7    692661.293 7    537839.15648  20791878.07548
  24497148.411 5   3450057.773 5   2678868.26346  24497144.79446
  23281139.388 6  -4805928.004 6  -3617012.63347  23281136.09147
  21425573.138 7   3204193.254 7   2483008.00448  21425574.62648
  21564703.021 7  -4937488.332 7  -3829899.44548  21564703.08348
  22143074.591 7   2147239.926 7   1663300.31648  22143071.92748
  24318908.55211   7083975.03911                
 18  5 30  1  3 25.0010000  0  9G03G14G16G22G23G26G27G31G32         -0.000300480
  24376772.317 4   2622024.136 4   2004159.17746  24376775.54446
  21730104.591 6   4700851.730 6   3646898.71547  21730102.20447
  20792456.646 7    695686.242 7    540196.25848  20792454.01748
  24498947.653 5   3459511.289 5   2686234.66446  24498944.05246
  23278672.310 6  -4818889.910 6  -3627112.82047  23278669.73947
  21427282.841 7   3213179.293 7   2490010.11748  21427284.72848
  21562239.817 6  -4950432.789 6  -3839986.03548  21562239.48548
  22144210.747 6   2153213.805 6   1667955.28948  22144208.97848
  24322641.88011   7103606.73811                
 18  5 30  1  3 30.0010000  0  9G03G14G16G22G23G26G27G31G32         -0.000299507
  24378304.247 4   2630077.160 4   2010434.25046  24378307.47846
  21732850.427 6   4715281.172 6   3658142.43447  21732848.08747
  20793033.958 7    698718.148 7    542558.78548  20793030.97848
  24500746.325 6   3468964.813 6   2693601.02746  24500742.67746
  23276207.146 6  -4831845.613 6  -3637208.17647  23276204.56347
  21428993.177 7   3222167.105 7   2497013.60548  21428995.29848
  21559777.981 6  -4963368.730 6  -3850065.99248  21559777.94648
  22145348.263 6   2159190.379 6   1672612.35248  22145345.95848
  24326376.84111   7123239.34011                
 18  5 30  1  3 35.0010000  0  9G03G14G16G22G23G26G27G31G32         -0.000298525
  24379838.786 2   2638135.387 2   2016713.39146  24379840.61446
  21735598.106 6   4729719.820 6   3669393.31347  21735595.64647
  20793612.161 7    701757.113 7    544926.79748  20793608.99348
  24502546.278 6   3478418.547 6   2700967.56346  24502542.29046
  23273742.935 6  -4844794.969 6  -3647298.58247  23273740.42747
  21430704.075 7   3231156.766 7   2504018.52048  21430706.04048
  21557317.575 6  -4976295.992 6  -3860139.18048  21557318.11448
  22146486.247 7   2165169.855 7   1677271.69148  22146483.80248
  24330113.614 1   7142873.211 1                
 18  5 30  1  3 40.0010000  0  9G03G14G16G22G23G26G27G31G32         -0.000297550
  24381373.138 4   2646198.434 4   2022996.30546  24381374.69246
  21738346.966 6   4744167.457 6   3680651.20347  21738345.18147
  20794191.825 7    704802.895 7    547300.12948  20794188.48148
  24504344.786 6   3487872.051 6   2708333.92246  24504341.10646
  23271279.825 6  -4857738.293 6  -3657384.30147  23271277.35647
  21432415.067 7   3240148.031 7   2511024.68048  21432416.62248
  21554859.192 7  -4989214.879 7  -3870205.84048  21554859.65348
  22147624.224 7   2171151.824 7   1681932.95748  22147622.33348
  24333852.872 2   7162507.930 2                
 18  5 30  1  3 45.0010000  0  9G03G14G16G22G23G26G27G31G32         -0.000296576
  24382908.481 4   2654266.490 4   2029283.09446  24382910.49746
  21741097.888 6   4758624.117 6   3691916.12947  21741096.09147
  20794772.536 6    707855.465 6    549678.75048  20794769.37248
  24506143.622 5   3497325.488 5   2715700.21146  24506140.25946
  23268818.411 6  -4870675.457 6  -3667465.20347  23268815.66947
  21434126.341 7   3249140.891 7   2518032.08648  21434128.10648
  21552402.333 6  -5002125.336 6  -3880265.94148  21552403.10648
  22148762.888 6   2177136.410 6   1686596.26248  22148760.87648
  24337589.786 3   7182143.602 3                
 18  5 30  1  3 50.0010000  0  9G03G14G16G22G23G26G27G31G32         -0.000295603
  24384444.622 5   2662339.523 5   2035573.75446  24384446.89246
  21743850.731 6   4773089.816 6   3703188.09447  21743848.81347
  20795354.747 6    710914.891 6    552062.69148  20795351.93848
  24507942.185 5   3506778.797 5   2723066.41446  24507938.93846
  23266357.716 6  -4883606.434 6  -3677541.28947  23266355.19647
  21435837.731 7   3258135.414 7   2525040.80948  21435839.56748
  21549947.239 6  -5015027.258 6  -3890319.38748  21549947.42748
  22149902.286 6   2183123.656 6   1691261.64848  22149900.32548
  24341327.528 5   7201780.266 5                
 18  5 30  1  3 55.0010000  0  9G03G14G16G22G23G26G27G31G32         -0.000294630
  24385981.325 5   2670417.582 5   2041868.32446  24385983.47046
  21746604.997 6   4787564.613 6   3714467.15247  21746603.69647
  20795938.427 7    713981.227 7    554452.03948  20795935.27448
  24509740.653 5   3516232.160 5   2730432.65646  24509737.25946
  23263897.614 6  -4896531.109 6  -3687612.46147  23263895.38447
  21437549.927 7   3267131.691 7   2532050.89848  21437551.64248
  21547493.708 6  -5027920.613 6  -3900366.15248  21547493.59548
  22151042.427 7   2189113.586 7   1695929.10948  22151039.95448
  24345063.669 5   7221417.941 5   5104111.59856  24345066.66556
 18  5 30  1  4  0.0010000  0  9G03G14G16G22G23G26G27G31G32         -0.000293661
  24387519.856 4   2678500.246 4   2048166.52746  24387521.74346
  21749361.114 6   4802048.207 6   3725753.07047  21749359.81747
  20796523.364 6    717054.250 6    556846.60548  20796519.92748
  24511539.817 5   3525685.188 5   2737798.64146  24511536.48946
  23261439.849 6  -4909449.797 6  -3697678.97747  23261436.86447
  21439262.161 7   3276129.391 7   2539062.10248  21439263.00548
  21545041.763 6  -5040805.645 6  -3910406.43848  21545042.03248
  22152182.810 7   2195105.988 7   1700598.49648  22152180.61048
  24348800.380 4   7241056.328 4   5119414.23045  24348804.05245
 18  5 30  1  4  5.0010000  0  9G03G14G16G22G23G26G27G31G32         -0.000292692
  24389058.216 5   2686587.195 5   2054468.01246  24389060.46646
  21752119.130 6   4816540.102 6   3737045.44947  21752117.89947
  20797108.841 6    720133.395 6    559245.94548  20797106.22848
  24513338.286 5   3535137.363 5   2745163.95346  24513335.34146
  23258982.528 6  -4922363.074 6  -3707741.27747  23258979.33747
  21440974.099 7   3285128.000 7   2546074.00848  21440975.36848
  21542591.544 6  -5053682.836 6  -3920440.61348  21542591.59948
  22153323.192 7   2201100.410 7   1705269.46548  22153321.30648
  24352537.950 4   7260694.945 4   5134717.00445  24352541.60645
 18  5 30  1  4 10.0010000  0  9G03G14G16G22G23G26G27G31G32         -0.000291725
  24390598.771 5   2694679.500 5   2060773.69546  24390600.58346
  21754878.411 6   4831041.484 6   3748345.21547  21754877.15347
  20797696.403 6    723219.840 6    561650.97348  20797693.34148
  24515137.810 5   3544589.945 5   2752529.57846  24515134.27146
  23256526.677 6  -4935269.645 6  -3717798.33647  23256523.66947
  21442687.286 7   3294128.699 7   2553087.53548  21442688.36048
  21540142.841 6  -5066550.984 6  -3930467.73448  21540142.73148
  22154464.505 6   2207097.953 6   1709942.87148  22154462.11848
  24356273.536 4   7280334.949 4   5150020.90245  24356278.91545
 18  5 30  1  4 15.0010000  0  9G03G14G16G22G23G26G27G31G32         -0.000290760
  24392140.286 5   2702776.913 5   2067083.37146  24392141.50946
  21757640.028 6   4845552.035 6   3759652.12947  21757638.59547
  20798284.599 7    726313.227 7    564061.39848  20798282.19248
  24516936.231 5   3554042.434 5   2759895.14846  24516932.81346
  23254072.013 6  -4948169.801 6  -3727850.41047  23254068.93547
  21444399.841 7   3303131.191 7   2560102.44948  21444401.34948
  21537695.271 6  -5079410.477 6  -3940488.11348  21537695.83748
  22155606.825 7   2213098.316 7   1714618.47348  22155604.25548
  24360011.552 4   7299975.973 4   5165325.54745  24360016.23145
 18  5 30  1  4 20.0010000  0  9G03G14G16G22G23G26G27G31G32         -0.000289797
  24393681.810 5   2710878.793 5   2073396.54346  24393683.26746
  21760402.646 6   4860071.168 6   3770965.72347  21760401.38847
  20798874.755 7    729413.051 7    566476.84848  20798871.74748
  24518734.966 5   3563494.461 5   2767260.36346  24518731.72846
  23251618.044 6  -4961064.027 6  -3737897.84047  23251614.92347
  21446113.575 7   3312134.945 7   2567118.36348  21446114.89948
  21535249.833 6  -5092261.711 6  -3950502.06348  21535250.19248
  22156748.599 6   2219101.008 6   1719295.88748  22156747.04848
  24363749.661 4   7319617.504 4   5180630.61745  24363754.48145
 18  5 30  1  4 25.0010000  0  9G03G14G16G22G23G26G27G31G32         -0.000288834
  24395224.458 5   2718985.449 5   2079713.39846  24395225.87646
  21763167.185 6   4874599.195 6   3782286.25847  21763166.03247
  20799466.075 6    732519.645 6    568897.56648  20799463.42348
  24520533.310 5   3572946.234 5   2774625.34846  24520530.43846
  23249165.224 6  -4973952.043 6  -3747940.44947  23249162.59547
  21447827.114 7   3321140.238 7   2574135.47748  21447828.46248
  21532806.310 6  -5105104.438 6  -3960509.37948  21532806.26348
  22157891.192 7   2225106.316 7   1723975.34448  22157889.29448
  24367487.411 4   7339259.820 4   5195936.28145  24367492.68845
 18  5 30  1  4 30.0010000  0  9G03G14G16G22G23G26G27G31G32         -0.000287872
  24396767.231 5   2727097.090 5   2086034.14546  24396769.11846
  21765933.239 6   4889136.383 6   3793613.93047  21765932.12247
  20800058.466 6    735633.266 6    571323.76648  20800055.54848
  24522332.044 5   3582398.047 5   2781990.40647  24522329.34947
  23246713.778 6  -4986833.555 6  -3757977.99247  23246711.02847
  21449541.239 7   3330147.316 7   2581153.98048  21449542.52448
  21530363.935 6  -5117938.367 6  -3970509.84048  21530364.41548
  22159034.505 7   2231114.531 7   1728657.07048  22159033.00548
  24371225.028 4   7358903.227 4   5211242.89145  24371230.69645
 18  5 30  1  4 35.0010000  0  9G03G14G16G22G23G26G27G31G32         -0.000286913
  24398312.263 5   2735213.383 5   2092358.50446  24398314.08346
  21768701.317 6   4903682.305 6   3804948.41847  21768700.29447
  20800652.216 6    738753.391 6    573755.02348  20800649.69648
  24524131.122 5   3591849.480 5   2789355.13746  24524127.50546
  23244264.161 6  -4999709.012 6  -3768010.80947  23244260.94647
  21451255.263 7   3339155.762 7   2588173.53148  21451256.81048
  21527923.528 6  -5130763.891 6  -3980503.76248  21527923.52848
  22160178.614 7   2237125.164 7   1733340.68848  22160176.61848
  24374963.521 4   7378547.184 4   5226549.78945  24374969.10345
 18  5 30  1  4 40.0010000  0  9G03G14G16G22G23G26G27G31G32         -0.000285955
  24399857.700 5   2743334.672 5   2098686.75446  24399858.93846
  21771471.028 6   4918237.340 6   3816290.00047  21771469.98947
  20801247.185 6    741880.508 6    576191.74648  20801244.33748
  24525929.497 5   3601300.816 5   2796719.77347  24525926.36447
  23241814.747 6  -5012577.957 6  -3778038.54347  23241811.93147
  21452970.138 7   3348165.945 7   2595194.46148  21452971.78248
  21525484.481 6  -5143580.613 6  -3990490.81348  21525484.62648
  22161323.130 7   2243138.652 7   1738026.53548  22161320.61448
  24378702.489 4   7398192.164 4   5241857.57845  24378708.19245
 18  5 30  1  4 45.0010000  0  9G03G14G16G22G23G26G27G31G32         -0.000284998
  24401403.724 5   2751460.859 5   2105018.87546  24401405.11046
  21774242.177 6   4932801.320 6   3827638.55147  21774241.82947
  20801843.763 7    745014.430 7    578633.77048  20801840.40348
  24527727.935 5   3610752.051 5   2804084.37547  24527724.62647
  23239367.692 6  -5025440.496 6  -3788061.25047  23239363.67747
  21454685.388 7   3357177.750 7   2602216.65248  21454686.57148
  21523047.341 6  -5156388.672 6  -4000471.12148  21523047.54048
  22162467.731 7   2249154.941 7   1742714.53948  22162465.74348
  24382440.638 4   7417838.063 4   5257166.08245  24382447.46645
 18  5 30  1  4 50.0010000  0  9G03G14G16G22G23G26G27G31G32         -0.000284042
  24402952.396 6   2759592.281 6   2111355.05546  24402953.31746
  21777015.997 6   4947374.656 6   3838994.38747  21777014.91147
  20802440.989 7    748155.512 7    581081.36748  20802438.65348
  24529526.724 5   3620203.469 5   2811449.10546  24529523.27446
  23236921.216 6  -5038296.332 6  -3798078.82447  23236917.50547
  21456400.216 7   3366191.527 7   2609240.36748  21456402.08748
  21520611.724 6  -5169187.664 6  -4010444.36748  21520612.02448
  22163613.091 7   2255174.285 7   1747404.93048  22163611.29848
  24386180.075 5   7437485.176 5   5272475.56645  24386186.50545
 18  5 30  1  4 55.0010000  0  9G03G14G16G22G23G26G27G31G32         -0.000283087
  24404499.817 5   2767728.254 5   2117694.76246  24404501.21646
  21779790.403 6   4961956.656 6   3850356.97347  21779789.47847
  20803039.981 6    751303.145 6    583534.05548  20803037.46248
  24531324.810 5   3629654.457 5   2818813.49246  24531321.88846
  23234475.614 6  -5051146.012 6  -3808091.53947  23234472.55247
  21458115.708 7   3375206.660 7   2616265.14848  21458117.22448
  21518177.356 6  -5181978.164 6  -4020410.98848  21518177.88448
  22164759.153 7   2261196.145 7   1752097.28148  22164756.74348
  24389918.177 5   7457132.875 5   5287785.47344  24389925.95444
 18  5 30  1  5  0.0010000  0  9G03G14G16G22G23G26G27G31G32         -0.000282135
  24406049.544 6   2775868.672 6   2124037.93846  24406050.07546
  21782566.583 6   4976547.266 6   3861726.26647  21782566.38447
  20803639.989 6    754457.168 6    585991.72748  20803637.94648
  24533122.966 5   3639104.844 5   2826177.41047  24533120.22447
  23232030.903 6  -5063989.730 6  -3818099.62947  23232028.32147
  21459831.396 7   3384223.023 7   2623290.87948  21459833.06748
  21515745.185 6  -5194760.340 6  -4030371.12948  21515745.81748
  22165905.419 6   2267220.414 6   1756791.50848  22165903.09548
  24393657.349 5   7476781.051 5   5303095.76645  24393666.06345
 18  5 30  1  5  5.0010000  0  9G03G14G16G22G23G26G27G31G32         -0.000281183
  24407599.466 6   2784013.887 6   2130384.83247  24407599.94247
  21785345.224 6   4991146.727 6   3873102.45747  21785344.49747
  20804241.552 6    757617.934 6    588454.65248  20804239.33348
  24534921.192 6   3648554.973 6   2833541.13746  24534918.66946
  23229588.591 6  -5076827.047 6  -3828102.71547  23229585.05247
  21461547.356 7   3393240.883 7   2630317.78148  21461548.79448
  21513314.271 6  -5207533.844 6  -4040324.50448  21513315.25148
  22167051.927 6   2273247.359 6   1761487.81648  22167050.28648
  24397396.310 5   7496429.953 5   5318406.52745  24397405.95845
 18  5 30  1  5 10.0010000  0  9G03G14G16G22G23G26G27G31G32         -0.000280233
  24409150.091 6   2792163.836 6   2136735.41447  24409151.07147
  21788125.013 6   5005755.043 6   3884485.54747  21788124.11847
  20804844.747 6    760785.406 6    590922.82048  20804841.93548
  24536720.028 5   3658004.789 5   2840904.61347  24536716.79447
  23227147.349 6  -5089658.039 6  -3838100.88347  23227144.07147
  21463263.450 7   3402260.270 7   2637345.87148  21463265.32948
  21510885.747 6  -5220298.664 6  -4050271.11748  21510886.42748
  22168199.599 7   2279276.996 7   1766186.22348  22168197.38848
  24401134.981 5   7516079.621 5                
 18  5 30  1  5 15.0010000  0  9G03G14G16G22G23G26G27G31G32         -0.000279285
  24410701.341 6   2800317.359 6   2143088.80947  24410703.01347
  21790906.435 6   5020371.133 6   3895874.70347  21790906.16547
  20805448.380 7    763958.551 7    593395.41448  20805445.64648
  24538517.997 5   3667453.184 5   2848266.98446  24538514.87246
  23224706.302 6  -5102483.770 6  -3848094.93447  23224703.44647
  21464980.099 7   3411280.031 7   2644374.24248  21464981.44248
  21508457.880 6  -5233055.883 6  -4060211.80548  21508458.47848
  22169347.208 7   2285308.234 7   1770885.88748  22169345.44248
  24404874.450 5   7535728.914 5                
 18  5 30  1  5 20.0010000  0  9G03G14G16G22G23G26G27G31G32         -0.000278339
  24412254.075 6   2808475.957 6   2149446.12147  24412255.51347
  21793689.403 6   5034996.480 6   3907271.07447  21793689.15747
  20806053.841 7    767138.770 7    595873.51648  20806050.30648
  24540315.591 5   3676901.668 5   2855629.41047  24540313.36047
  23222267.099 6  -5115302.688 6  -3858083.69147  23222263.31747
  21466697.052 7   3420301.758 7   2651404.14848  21466698.01748
  21506031.810 6  -5245803.973 6  -4070145.38348  21506032.81348
  22170495.505 7   2291342.656 7   1775588.02748  22170493.45448
  24408613.052 5   7555379.352 5                
 18  5 30  1  5 25.0010000  0  9G03G14G16G22G23G26G27G31G32         -0.000277395
  24413807.731 6   2816639.512 6   2155807.35547  24413808.66947
  21796475.083 6   5049630.746 6   3918674.39547  21796473.76747
  20806660.239 7    770325.797 7    598356.93048  20806656.65748
  24542113.513 5   3686349.922 5   2862991.68046  24542111.07546
  23219828.786 6  -5128115.063 6  -3868067.34847  23219825.54847
  21468414.302 7   3429325.105 7   2658435.32848  21468415.25548
  21503607.575 6  -5258543.203 6  -4080072.05548  21503608.31348
  22171644.489 7   2297379.914 7   1780292.38348  22171642.94248
  24412352.536 5   7575030.621 5                
 18  5 30  1  5 30.0010000  0  9G03G14G16G22G23G26G27G31G32         -0.000276451
  24415362.247 6   2824807.516 6   2162172.02747  24415363.52847
  21799261.192 6   5064273.664 6   3930084.45747  21799260.41147
  20807267.700 6    773519.242 6    600845.33648  20807264.73548
  24543911.911 5   3695797.645 5   2870353.52746  24543908.55246
  23217391.942 6  -5140921.250 6  -3878046.18847  23217388.90347
  21470131.294 7   3438349.691 7   2665467.48048  21470133.07948
  21501185.724 6  -5271273.926 6  -4089992.09848  21501186.17748
  22172794.106 7   2303419.691 7   1784998.71148  22172791.76348
  24416092.083 5   7594682.402 5                
 18  5 30  1  5 35.0010000  0  9G03G14G16G22G23G26G27G31G32         -0.000275509
  24416917.153 6   2832980.680 6   2168540.73447  24416918.93847
  21802049.653 6   5078925.879 6   3941501.75047  21802047.64947
  20807877.239 7    776719.879 7    603339.34448  20807873.96248
  24545709.216 5   3705245.453 5   2877715.46946  24545706.19246
  23214955.614 6  -5153720.531 6  -3888019.64547  23214953.20447
  21471849.364 6   3447376.270 6   2672501.18848  21471850.72848
  21498764.224 7  -5283995.410 7  -4099904.93848  21498765.37248
  22173944.567 7   2309462.652 7   1789707.51248  22173941.98148
  24419832.435 4   7614335.371 4                
 18  5 30  1  5 40.0010000  0  9G03G14G16G22G23G26G27G31G32         -0.000274567
  24418473.114 6   2841158.977 6   2174913.39147  24418475.45047
  21804839.872 6   5093587.371 6   3952926.28147  21804838.22447
  20808487.466 7    779927.656 7    605838.92248  20808484.34148
  24547507.669 5   3714693.465 5   2885077.53146  24547503.89946
  23212521.989 6  -5166512.961 6  -3897987.76647  23212519.29847
  21473567.310 7   3456404.789 7   2679536.39848  21473569.27848
  21496345.661 7  -5296707.637 7  -4109810.57048  21496346.51748
  22175094.817 7   2315508.848 7   1794418.82848  22175092.79048
  24423572.872 4   7633989.418 4                
 18  5 30  1  5 45.0010000  0  9G03G14G16G22G23G26G27G31G32         -0.000273628
  24420030.005 6   2849341.352 6   2181289.27047  24420032.56347
  21807631.091 6   5108257.008 6   3964357.16047  21807629.57547
  20809098.669 7    783141.422 7    608343.15248  20809095.69248
  24549305.411 5   3724140.484 5   2892438.82847  24549301.72847
  23210088.685 6  -5179299.555 6  -3907951.33647  23210085.39247
  21475285.208 6   3465434.141 6   2686572.25848  21475287.33348
  21493928.146 6  -5309411.727 6  -4119709.85548  21493929.07948
  22176245.341 7   2321557.145 7   1799131.76648  22176243.57948
  24427312.677 4   7653643.586 4                
 18  5 30  1  5 50.0010000  0  9G03G14G16G22G23G26G27G31G32         -0.000272690
  24421588.044 6   2857528.391 6   2187668.77047  24421590.55647
  21810424.747 6   5122935.539 6   3975794.96947  21810422.80247
  20809711.856 7    786361.957 7    610852.66048  20809708.22048
  24551102.771 6   3733587.219 6   2899799.89146  24551098.94646
  23207656.583 6  -5192079.570 6  -3917909.80547  23207654.16147
  21477003.708 7   3474465.047 7   2693609.32848  21477005.82548
  21491512.106 7  -5322106.938 7  -4129602.22348  21491512.70048
  22177397.028 7   2327608.277 7   1803846.92648  22177394.67748
  24431052.802 4   7673298.453 4                
 18  5 30  1  5 55.0010000  0  9G03G14G16G22G23G26G27G31G32         -0.000271753
  24423146.903 6   2865720.422 6   2194052.15647  24423149.74347
  21813219.481 6   5137623.215 6   3987239.90647  21813217.59547
  20810325.927 7    789589.488 7    613367.60948  20810322.21248
  24552900.567 5   3743033.863 5   2907160.90246  24552896.82146
  23205225.966 6  -5204852.789 6  -3927862.94547  23205223.05647
  21478722.708 7   3483497.762 7   2700647.81648  21478724.78248
  21489098.286 7  -5334792.992 7  -4139487.46148  21489098.25948
  22178549.200 7   2333662.492 7   1808564.49648  22178546.95448
  24434793.427 4   7692954.355 4                
 18  5 30  1  6  0.0010000  0  9G03G14G16G22G23G26G27G31G32         -0.000270817
  24424706.575 6   2873917.023 6   2200439.10547  24424709.75947
  21816015.864 6   5152319.574 6   3998691.60547  21816014.27447
  20810941.122 7    792823.566 7    615887.68048  20810937.34548
  24554698.036 5   3752480.020 5   2914521.53147  24554694.45847
  23202796.685 6  -5217619.652 6  -3937811.14847  23202794.32547
  21480441.544 6   3492531.836 6   2707687.34448  21480443.87248
  21486685.739 6  -5347470.309 6  -4149365.88348  21486686.21248
  22179701.997 7   2339719.406 7   1813284.17648  22179699.45048
  24438533.622 3   7712610.758 3                
 18  5 30  1  6  5.0010000  0  9G03G14G16G22G23G26G27G31G32         -0.000269884
  24426267.114 6   2882117.684 6   2206829.21547  24426270.60647
  21818814.138 6   5167024.191 6   4010149.73447  21818812.54847
  20811558.185 7    796063.777 7    618412.50448  20811553.77848
  24556495.177 5   3761925.324 5   2921881.51247  24556491.46647
  23200367.935 6  -5230380.480 6  -3947754.63747  23200365.75147
  21482161.028 6   3501566.906 6   2714727.64848  21482163.21248
  21484275.028 6  -5360139.250 6  -4159237.79348  21484275.49348
  22180855.021 7   2345778.637 7   1818005.66048  22180852.48948
  24442274.271 3   7732267.348 3                
 18  5 30  1  6 10.0010000  0  9G03G14G16G22G23G26G27G31G32         -0.000268951
  24427828.442 6   2890322.965 6   2213222.92247  24427831.91947
  21821613.521 6   5181737.563 6   4021614.69947  21821612.48147
  20812175.856 7    799310.613 7    620942.49248  20812171.56048
  24558292.638 5   3771370.141 5   2929241.10547  24558288.89947
  23197941.317 6  -5243134.801 6  -3957693.06647  23197938.61047
  21483880.638 6   3510603.359 6   2721769.03548  21483882.72448
  21481865.661 6  -5372799.395 6  -4169102.83248  21481866.04048
  22182008.919 7   2351840.578 7   1822729.24648  22182006.41148
  24446014.724 4   7751924.520 4                
 18  5 30  1  6 15.0010000  0  9G03G14G16G22G23G26G27G31G32         -0.000268021
  24429391.177 5   2898533.379 5   2219620.64147  24429393.75947
  21824415.528 6   5196460.184 6   4033086.86747  21824413.77447
  20812794.771 7    802564.609 7    623478.08248  20812791.25548
  24560090.177 5   3780815.031 5   2936600.75447  24560086.27847
  23195515.216 6  -5255882.156 6  -3967626.06647  23195513.14247
  21485600.950 6   3519641.750 6   2728811.94148  21485602.46648
  21479458.177 7  -5385450.141 7  -4178960.55948  21479458.57548
  22183162.849 7   2357905.828 7   1827455.42248  22183160.22848
  24449755.825 4   7771582.809 4                
 18  5 30  1  6 20.0010000  0  9G03G14G16G22G23G26G27G31G32         -0.000267090
  24430954.622 6   2906748.277 6   2226021.86347  24430957.47447
  21827219.044 6   5211191.406 6   4044565.73447  21827217.23547
  20813415.505 7    805825.117 7    626018.75048  20813411.52148
  24561887.224 5   3790259.387 5   2943959.97747  24561883.65747
  23193090.724 6  -5268622.988 6  -3977553.98847  23193088.68847
  21487320.825 6   3528681.449 6   2735855.87148  21487322.80248
  21477052.731 7  -5398092.148 7  -4188811.47348  21477052.75948
  22184317.372 7   2363973.750 7   1832183.66848  22184314.71248
  24453497.286 3   7791241.543 3                
 18  5 30  1  6 25.0010000  0  9G03G14G16G22G23G26G27G31G32         -0.000266161
  24432518.255 6   2914967.555 6   2232426.46547  24432521.69247
  21830023.771 6   5225931.199 6   4056051.28547  21830022.09547
  20814036.817 7    809092.047 7    628564.41448  20814033.30248
  24563684.224 6   3799703.121 6   2951318.72347  24563680.70847
  23190667.505 6  -5281357.441 6  -3987476.94147  23190665.38047
  21489041.349 6   3537722.422 6   2742900.78948  21489042.86048
  21474648.466 7  -5410725.410 7  -4198655.56648  21474648.64248
  22185472.653 7   2370044.293 7   1836913.96548  22185470.03248
  24457237.372 3   7810900.793 3                
 18  5 30  1  6 30.0010000  0  9G03G14G16G22G23G26G27G31G32         -0.000265234
  24434083.130 6   2923191.938 6   2238835.05547  24434086.37247
  21832830.591 6   5240680.340 6   4067544.10547  21832828.72847
  20814659.849 7    812366.117 7    631115.62148  20814656.40348
  24565481.591 6   3809146.988 6   2958677.55147  24565478.31047
  23188245.903 6  -5294084.727 6  -3997394.30947  23188243.26747
  21490762.052 7   3546765.352 7   2749947.23448  21490764.19648
  21472246.325 6  -5423349.195 6  -4208492.28148  21472246.16948
  22186628.427 7   2376118.180 7   1841646.85548  22186625.66148
  24460978.528 3   7830561.160 3                
 18  5 30  1  6 35.0010000  0  9G03G14G16G22G23G26G27G31G32         -0.000264309
  24435649.606 5   2931420.762 5   2245247.10247  24435651.75147
  21835638.786 6   5255438.023 6   4079043.59447  21835636.81047
  20815284.505 6    815646.621 6    633671.86348  20815280.82148
  24567278.677 5   3818590.199 5   2966035.91047  24567274.92347
  23185824.646 6  -5306805.547 6  -4007306.64547  23185822.44247
  21492483.255 7   3555809.551 7   2756994.66448  21492485.29448
  21469845.575 7  -5435964.203 7  -4218322.16448  21469845.65348
  22187784.849 7   2382194.699 7   1846381.78948  22187782.13848
  24464719.731 3   7850221.930 3                
 18  5 30  1  6 40.0010000  0  9G03G14G16G22G23G26G27G31G32         -0.000263384
  24437215.958 5   2939654.276 5   2251662.81347  24437218.45447
  21838448.622 6   5270204.613 6   4090550.02347  21838447.15747
  20815909.739 6    818933.926 6    636233.40248  20815906.32148
  24569075.997 5   3828033.113 5   2973394.00447  24569071.81047
  23183405.583 6  -5319519.594 6  -4017213.69947  23183403.71647
  21494204.583 7   3564855.367 7   2764043.34448  21494206.95448
  21467447.388 7  -5448570.105 7  -4228144.94548  21467447.02448
  22188941.646 7   2388274.211 7   1851119.04348  22188938.99748
  24468460.903 3   7869883.512 3   5345364.16856  24468467.45056
 18  5 30  1  6 45.0010000  0  9G03G14G16G22G23G26G27G31G32         -0.000262463
  24438784.458 5   2947892.223 5   2258081.96147  24438785.99747
  21841260.239 6   5284979.781 6   4102063.12947  21841259.12647
  20816536.669 6    822227.641 6    638799.92648  20816532.96648
  24570872.114 5   3837475.391 5   2980751.60247  24570868.43847
  23180987.349 6  -5332227.203 6  -4027115.73047  23180985.01347
  21495926.052 7   3573902.418 7   2771093.00448  21495928.36048
  21465050.067 7  -5461167.164 7  -4237960.83248  21465049.54848
  22190098.981 7   2394356.398 7   1855858.40248  22190096.49748
  24472202.341 3   7889545.434 3   5360685.12146  24472208.69646
 18  5 30  1  6 50.0010000  0  9G03G14G16G22G23G26G27G31G32         -0.000261541
  24440352.802 5   2956134.449 5   2264504.48847  24440354.62247
  21844073.153 6   5299763.430 6   4113582.84447  21844072.31047
  20817164.599 7    825527.699 7    641371.40648  20817161.36448
  24572668.989 5   3846916.961 5   2988108.64847  24572665.30247
  23178570.067 5  -5344928.371 5  -4037012.76647  23178568.02847
  21497648.356 6   3582950.656 6   2778143.56648  21497650.59548
  21462654.216 7  -5473755.512 7  -4247769.94148  21462654.41148
  22191256.989 7   2400441.188 7   1860599.79348  22191254.22448
  24475943.935 2   7909207.695 2   5376006.34045  24475950.18545
 18  5 30  1  6 55.0010000  0  9G03G14G16G22G23G26G27G31G32         -0.000260620
  24441922.278 6   2964381.387 6   2270930.64547  24441923.79047
  21846888.349 6   5314555.957 6   4125109.49247  21846887.27447
  20817793.458 7    828834.563 7    643948.18448  20817790.93848
  24574465.810 5   3856358.195 5   2995465.43847  24574462.10647
  23176154.372 6  -5357622.719 6  -4046904.45747  23176152.31047
  21499370.161 7   3592000.492 7   2785195.38748  21499372.16948
  21460260.411 7  -5486334.621 7  -4257571.83648  21460260.64948
  22192415.622 7   2406529.055 7   1865343.58648  22192413.03248
  24479685.692 2   7928870.730 2   5391328.14845  24479692.31045
 18  5 30  1  7  0.0010000  0  9G03G14G16G22G23G26G27G31G32         -0.000259701
  24443492.435 6   2972633.105 6   2277360.54747  24443494.33347
  21849705.427 6   5329357.430 6   4136643.09047  21849704.16147
  20818424.060 7    832148.215 7    646530.25048  20818421.26748
  24576262.294 5   3865799.160 5   3002822.01647  24576258.44647
  23173740.044 6  -5370310.191 6  -4056790.80547  23173738.02147
  21501092.239 7   3601051.969 7   2792248.47748  21501095.04048
  21457868.606 7  -5498904.523 7  -4267366.55948  21457868.68848
  22193574.317 7   2412620.035 7   1870089.80948  22193571.80648
  24483427.481 2   7948534.543 2   5406650.58245  24483433.50545
 18  5 30  1  7  5.0010000  0  9G03G14G16G22G23G26G27G31G32         -0.000258785
  24445063.294 6   2980889.094 6   2283793.80147  24445065.11047
  21852523.606 6   5344167.352 6   4148183.28547  21852522.24347
  20819056.403 7    835468.223 7    649117.25448  20819053.19648
  24578058.200 5   3875239.395 5   3010178.02346  24578054.75946
  23171327.872 6  -5382991.203 6  -4066672.12147  23171325.18847
  21502815.450 7   3610104.586 7   2799302.45748  21502817.63848
  21455478.138 7  -5511465.625 7  -4277154.43448  21455478.61448
  22194733.927 7   2418713.602 7   1874838.03948  22194731.68548
  24487169.997 2   7968198.598 2   5421973.16445  24487176.07145
 18  5 30  1  7 10.0010000  0  9G03G14G16G22G23G26G27G31G32         -0.000257868
  24446635.747 6   2989149.867 6   2290230.73447  24446636.95447
  21855344.114 6   5358986.168 6   4159730.39147  21855342.39947
  20819689.146 6    838795.031 6    651709.59048  20819686.25548
  24579854.560 6   3884679.395 6   3017533.86747  24579851.44247
  23168914.989 6  -5395665.207 6  -4076548.00047  23168913.56747
  21504538.271 7   3619158.883 7   2806357.74648  21504540.19648
  21453089.731 7  -5524017.414 7  -4286935.04348  21453090.28648
  22195894.481 7   2424810.328 7   1879588.72748  22195891.96648
  24490911.661 2   7987863.527 2   5437296.52045  24490918.78645
 18  5 30  1  7 15.0010000  0  9G03G14G16G22G23G26G27G31G32         -0.000256954
  24448208.372 6   2997415.148 6   2296671.23047  24448210.00147
  21858165.200 6   5373813.684 6   4171284.29347  21858163.64247
  20820323.278 6    842128.398 6    654307.02348  20820320.95048
  24581651.278 6   3894118.793 6   3024889.22347  24581647.17347
  23166505.114 6  -5408332.504 6  -4086418.59447  23166502.54047
  21506262.060 7   3628214.516 7   2813414.08648  21506263.48148
  21450702.724 7  -5536560.172 7  -4296708.62148  21450703.23948
  22197054.942 7   2430909.883 7   1884341.63348  22197052.75148
  24494653.575 2   8007528.883 2   5452620.15645  24494660.53245
 18  5 30  1  7 20.0010000  0  9G03G14G16G22G23G26G27G31G32         -0.000256041
  24449781.528 6   3005684.902 6   2303115.16847  24449783.49347
  21860988.560 6   5388649.898 6   4182844.96947  21860987.12247
  20820958.614 6    845468.352 6    656909.59448  20820956.37648
  24583447.606 6   3903557.734 6   3032244.23847  24583443.55247
  23164095.817 6  -5420993.031 6  -4096283.94947  23164093.64947
  21507985.138 7   3637271.605 7   2820471.54348  21507986.69248
  21448317.833 7  -5549093.797 7  -4306475.08248  21448318.43548
  22198215.989 7   2437012.379 7   1889096.82848  22198214.16948
  24498396.013 2   8027194.824 2   5467944.22745  24498402.71245
 18  5 30  1  7 25.0010000  0  9G03G14G16G22G23G26G27G31G32         -0.000255129
  24451356.349 4   3013959.468 4   2309562.85646  24451357.95446
  21863813.739 6   5403495.090 6   4194412.64147  21863811.85347
  20821595.825 6    848815.195 6    659517.53948  20821593.16548
  24585244.083 6   3912996.332 6   3039598.98447  24585239.67747
  23161687.950 6  -5433646.561 6  -4106143.84147  23161685.76347
  21509709.513 7   3646330.352 7   2827530.30548  21509710.52448
  21445934.419 7  -5561618.063 7  -4316234.24248  21445934.86048
  22199377.935 7   2443118.059 7   1893854.50048  22199376.24348
  24502139.099 3   8046861.547 3   5483268.94145  24502144.99345
 18  5 30  1  7 30.0010000  0  9G03G14G16G22G23G26G27G31G32         -0.000254217
  24452931.708 6   3022238.152 6   2316013.77747  24452933.23947
  21866639.614 6   5418348.711 6   4205986.87947  21866638.22447
  20822233.630 6    852168.336 6    662130.37548  20822231.66948
  24587039.505 6   3922434.191 6   3046953.13347  24587035.53647
  23159281.060 6  -5446293.488 6  -4115998.59847  23159279.09147
  21511433.505 7   3655390.219 7   2834589.94548  21511434.22048
  21443552.786 7  -5574133.457 7  -4325986.49648  21443553.37248
  22200540.388 7   2449226.398 7   1898614.24248  22200538.32148
  24505881.817 2   8066528.477 2   5498593.83645  24505887.78245
 18  5 30  1  7 35.0010000  0  9G03G14G16G22G23G26G27G31G32         -0.000253307
  24454508.005 6   3030521.418 6   2322468.28147  24454509.41947
  21869467.872 6   5433211.047 6   4217567.91047  21869466.43547
  20822873.271 6    855528.117 6    664748.37548  20822871.41948
  24588835.466 6   3931871.594 6   3054306.95347  24588831.57947
  23156875.692 6  -5458933.594 6  -4125848.03547  23156873.73947
  21513157.864 7   3664451.563 7   2841650.72748  21513159.07148
  21441173.185 7  -5586639.602 7  -4335731.55148  21441173.64248
  22201703.231 7   2455337.695 7   1903376.28948  22201701.33748
  24509624.317 2   8086196.043 2   5513919.25845  24509630.48945
 18  5 30  1  7 40.0010000  0  9G03G14G16G22G23G26G27G31G32         -0.000252399
  24456085.849 6   3038809.395 6   2328926.41847  24456087.22047
  21872298.153 6   5448082.281 6   4229155.86747  21872296.50547
  20823513.817 6    858894.711 6    667371.68848  20823511.66548
  24590631.239 6   3941308.680 6   3061660.51646  24590626.85346
  23154471.466 5  -5471566.613 5  -4135691.94147  23154469.40347
  21514882.614 7   3673514.520 7   2848712.76648  21514883.65748
  21438794.552 7  -5599136.359 7  -4345469.28548  21438795.10648
  22202866.763 7   2461452.180 7   1908140.82448  22202864.72848
  24513366.364 2   8105864.316 2   5529245.05945  24513373.57945
 18  5 30  1  7 45.0010000  0  9G03G14G16G22G23G26G27G31G32         -0.000251493
  24457664.263 6   3047102.160 6   2335388.30147  24457665.11047
  21875129.864 6   5462962.473 6   4240750.80947  21875128.48147
  20824155.786 6    862268.117 6    670000.32048  20824153.79448
  24592427.161 6   3950745.465 6   3069013.84447  24592422.38047
  23152068.731 6  -5484192.570 6  -4145530.33247  23152066.79047
  21516607.513 7   3682579.180 7   2855776.14148  21516608.51748
  21436418.567 7  -5611623.672 7  -4355199.65648  21436419.10348
  22204030.755 7   2467569.867 7   1912907.84048  22204029.05248
  24517110.317 2   8125533.383 2   5544571.64545  24517116.12245
 18  5 30  1  7 50.0010000  0  9G03G14G16G22G23G26G27G31G32         -0.000250587
  24459242.864 6   3055399.391 6   2341853.66047  24459244.02147
  21877963.044 6   5477851.324 6   4252352.50047  21877961.45047
  20824799.255 6    865648.074 6    672634.05148  20824796.70448
  24594222.497 6   3960181.695 6   3076366.76247  24594218.60347
  23149667.794 6  -5496811.641 6  -4155363.35547  23149665.38447
  21518332.646 7   3691645.184 7   2862840.55548  21518333.70848
  21434044.185 7  -5624101.770 7  -4364922.84448  21434044.82948
  22205195.536 7   2473690.543 7   1917677.18048  22205193.33348
  24520852.481 1   8145202.895 1   5559898.55945  24520859.21245
 18  5 30  1  7 55.0010000  0  9G03G14G16G22G23G26G27G31G32         -0.000249683
  24460822.771 6   3063700.953 6   2348322.38747  24460823.75947
  21880797.950 6   5492748.699 6   4263960.82447  21880796.31747
  20825443.341 6    869034.504 6    675272.82848  20825441.66548
  24596018.185 5   3969617.211 5   3083719.09047  24596013.91547
  23147268.036 6  -5509423.895 6  -4165191.11747  23147265.04447
  21520058.099 7   3700712.500 7   2869905.99248  21520059.46248
  21431671.247 7  -5636570.758 7  -4374638.94148  21431672.11048
  22206361.372 7   2479814.059 7   1922448.74248  22206358.98148
  24524595.200 1   8164872.840 1   5575225.74245  24524602.02445
 18  5 30  1  8  0.0010000  0  9G03G14G16G22G23G26G27G31G32         -0.000248781
  24462402.450 6   3072007.336 6   2354794.87947  24462404.09147
  21883634.505 6   5507655.078 6   4275576.16847  21883632.77447
  20826089.200 6    872427.840 6    677916.98848  20826087.18148
  24597813.606 5   3979052.516 5   3091071.27346  24597809.51746
  23144869.380 6  -5522028.898 6  -4175013.19547  23144866.72847
  21521783.841 7   3709781.531 7   2876972.76648  21521785.47448
  21429300.606 7  -5649030.184 7  -4384347.58648  21429301.14948
  22207526.599 7   2485940.898 7   1927222.88748  22207524.65348
  24528338.669 2   8184543.574 2   5590553.61345  24528345.58345
 18  5 30  1  8  5.0010000  0  9G03G14G16G22G23G26G27G31G32         -0.000247879
  24463984.067 6   3080317.965 6   2361270.68847  24463985.34947
  21886472.427 6   5522569.941 6   4287198.12147  21886471.22047
  20826736.333 6    875827.531 6    680566.08648  20826733.94248
  24599608.677 5   3988487.074 5   3098422.85947  24599604.98947
  23142471.474 6  -5534627.184 6  -4184830.04347  23142468.97047
  21523509.653 7   3718851.770 7   2884040.48048  21523511.00548
  21426931.021 7  -5661480.496 7  -4394049.12148  21426931.92348
  22208693.427 7   2492070.539 7   1931999.21548  22208691.21648
  24532082.802 1   8204214.594 1   5605881.69545  24532088.51745
 18  5 30  1  8 10.0010000  0  9G03G14G16G22G23G26G27G31G32         -0.000246979
  24465566.653 6   3088633.281 6   2367750.16847  24465567.84947
  21889312.169 6   5537493.730 6   4298827.03547  21889310.91947
  20827384.724 6    879234.102 6    683220.55148  20827382.69248
  24601404.255 5   3997921.352 5   3105774.25447  24601400.49347
  23140075.810 6  -5547218.223 6  -4194641.25047  23140073.10647
  21525235.942 7   3727923.707 7   2891109.51648  21525237.79848
  21424563.599 7  -5673921.238 7  -4403743.21548  21424564.20848
  22209860.278 7   2498203.512 7   1936778.15248  22209858.37248
  24535826.192 2   8223886.344 2   5621210.30945  24535831.82145
 18  5 30  1  8 15.0010000  0  9G03G14G16G22G23G26G27G31G32         -0.000246078
  24467149.630 6   3096953.055 6   2374233.11747  24467150.82147
  21892154.021 6   5552426.176 6   4310462.69947  21892152.65347
  20828033.888 6    882647.238 6    685880.14848  20828031.74748
  24603199.661 5   4007355.070 5   3113125.16847  24603195.86047
  23137681.036 6  -5559802.270 6  -4204446.99647  23137678.56747
  21526962.294 6   3736997.051 6   2898179.64148  21526964.03648
  21422197.896 7  -5686352.688 7  -4413430.05548  21422198.93848
  22211028.192 7   2504339.516 7   1941559.44548  22211025.79448
  24539569.528 2   8243558.629 2   5636539.32445  24539575.32545
 18  5 30  1  8 20.0010000  0  9G03G14G16G22G23G26G27G31G32         -0.000245182
  24468733.481 6   3105276.980 6   2380719.27747  24468734.84947
  21894996.802 6   5567366.918 6   4322104.81347  21894995.45847
  20828684.935 6    886066.555 6    688544.54348  20828682.53248
  24604994.606 5   4016787.875 5   3120475.39147  24604990.52447
  23135287.669 6  -5572379.688 6  -4214247.58647  23135285.25947
  21528689.153 7   3746071.426 7   2905250.57848  21528690.37248
  21419834.028 7  -5698775.148 7  -4423109.89548  21419834.93148
  22212195.950 7   2510478.215 7   1946342.84448  22212194.08748
  24543313.521 2   8263231.055 2   5651868.52045  24543318.98945
 18  5 30  1  8 25.0010000  0  9G03G14G16G22G23G26G27G31G32         -0.000244286
  24470318.396 6   3113605.297 6   2387208.85947  24470319.19247
  21897840.981 6   5582316.336 6   4333753.70347  21897840.25947
  20829336.646 6    889492.422 6    691214.05148  20829334.53648
  24606789.677 5   4026220.051 5   3127825.11746  24606785.33746
  23132895.528 6  -5584950.129 6  -4224042.74247  23132892.81347
  21530416.036 7   3755147.176 7   2912322.60248  21530417.24348
  21417471.849 6  -5711188.273 6  -4432782.46548  21417472.70448
  22213365.106 7   2516619.918 7   1951128.59048  22213362.94248
  24547056.896 3   8282903.938 3   5667197.97745  24547062.79045
 18  5 30  1  8 30.0010000  0  9G03G14G16G22G23G26G27G31G32         -0.000243391
  24471903.903 6   3121938.691 6   2393702.40647  24471905.35647
  21900687.856 6   5597275.031 6   4345409.80947  21900687.22047
  20829989.880 6    892925.516 6    693889.18048  20829987.89948
  24608584.466 5   4035652.320 5   3135174.93046  24608580.37646
  23130504.919 6  -5597512.879 6  -4233831.90247  23130502.11447
  21532143.216 7   3764224.977 7   2919396.21148  21532144.33348
  21415111.669 6  -5723591.379 6  -4442447.21948  21415112.67348
  22214534.981 7   2522765.406 7   1955917.27748  22214532.39948
  24550801.583 2   8302577.883 2   5682528.30545  24550806.29845
 18  5 30  1  8 35.0010000  0  9G03G14G16G22G23G26G27G31G32         -0.000242496
  24473490.099 6   3130276.270 6   2400199.21947  24473492.41147
  21903536.513 6   5612242.168 6   4357072.51647  21903534.93847
  20830644.825 6    896364.949 6    696569.25448  20830642.50948
  24610379.052 6   4045083.762 6   3142524.09046  24610375.54046
  23128115.614 6  -5610068.844 6  -4243615.77747  23128112.91547
  21533871.153 7   3773303.984 7   2926470.75448  21533872.31348
  21412753.114 6  -5735985.305 6  -4452104.82048  21412754.48148
  22215704.474 7   2528913.719 7   1960708.16048  22215702.24348
  24554543.560 2   8322252.148 2   5697858.91845  24554550.72845
 18  5 30  1  8 40.0010000  0  9G03G14G16G22G23G26G27G31G32         -0.000241604
  24475077.942 5   3138618.273 5   2406699.46947  24475079.43847
  21906385.950 6   5627217.875 6   4368741.88347  21906384.71647
  20831300.888 6    899810.891 6    699254.39848  20831298.24348
  24612174.013 5   4054514.488 5   3149872.69946  24612170.70046
  23125727.825 5  -5622617.730 5  -4253394.13347  23125725.08747
  21535598.552 6   3782384.348 6   2933546.36748  21535600.13448
  21410396.349 6  -5748369.867 6  -4461755.11748  21410397.35648
  22216874.966 7   2535065.113 7   1965501.44548  22216872.96248
  24558289.169 2   8341926.836 2   5713189.73845  24558294.71245
 18  5 30  1  8 45.0010000  0  9G03G14G16G22G23G26G27G31G32         -0.000240711
  24476666.505 6   3146965.008 6   2413203.41047  24476667.88847
  21909237.513 5   5642202.535 5   4380418.22747  21909236.84147
  20831957.552 6    903263.723 6    701944.91448  20831955.23148
  24613968.247 5   4063944.938 5   3157221.10546  24613965.13046
  23123341.450 5  -5635159.250 5  -4263166.75447  23123338.52447
  21537327.052 6   3791466.449 6   2940623.32448  21537328.45448
  21408041.646 6  -5760744.672 6  -4471397.82048  21408042.79848
  22218046.372 7   2541219.887 7   1970297.35248  22218043.99348
  24562032.653 1   8361602.281 1   5728521.28945  24562038.54045
 18  5 30  1  8 50.0010000  0  9G03G14G16G22G23G26G27G31G32         -0.000239820
  24478255.091 6   3155316.262 6   2419710.89147  24478257.18847
  21912090.888 6   5657195.902 6   4392101.35247  21912089.96247
  20832615.692 7    906723.184 7    704640.59448  20832613.38048
  24615763.458 5   4073374.883 5   3164569.09046  24615759.19246
  23120956.036 5  -5647693.590 5  -4272933.77347  23120953.03647
  21539055.911 6   3800549.992 6   2947701.41448  21539057.02148
  21405689.138 6  -5773109.988 6  -4481033.12148  21405689.07948
  22219218.060 7   2547377.855 7   1975095.76248  22219215.91948
  24565776.169 1   8381278.238 1   5743853.20745  24565783.32145
 18  5 30  1  8 55.0010000  0  9G03G14G16G22G23G26G27G31G32         -0.000238932
  24479845.036 5   3163671.605 5   2426221.52747  24479846.51347
  21914945.489 6   5672197.672 6   4403791.02747  21914944.34947
  20833275.286 7    910188.953 7    707341.18448  20833272.80248
  24617557.028 5   4082804.020 5   3171916.45346  24617553.14946
  23118572.302 6  -5660221.039 6  -4282695.42647  23118568.70447
  21540784.325 6   3809634.684 6   2954780.38748  21540786.30248
  21403337.130 6  -5785466.059 6  -4490661.22748  21403338.10348
  22220390.630 7   2553538.715 7   1979896.42248  22220388.18548
  24569521.138 1   8400954.340 1                
 18  5 30  1  9  0.0010000  0  9G03G14G16G22G23G26G27G31G32         -0.000238045
  24481435.919 5   3172032.336 5   2432736.38747  24481437.67347
  21917801.442 5   5687209.012 5   4415488.15647  21917801.09947
  20833936.310 6    913662.277 6    710047.67648  20833933.54448
  24619351.419 5   4092233.434 5   3179264.04346  24619348.04846
  23116190.294 6  -5672740.410 6  -4292450.78947  23116186.53247
  21542514.036 6   3818721.699 6   2961861.17248  21542515.79448
  21400987.724 6  -5797811.703 6  -4500281.21548  21400988.48148
  22221563.630 7   2559703.602 7   1984700.24248  22221561.16148
  24573264.466 1   8420631.891 1                
 18  5 30  1  9  5.0010000  0  9G03G14G16G22G23G26G27G31G32         -0.000237158
  24483028.630 5   3180397.777 5   2439254.88747  24483029.44247
  21920660.255 6   5702229.328 6   4427192.29747  21920659.87247
  20834598.685 6    917142.480 6    712759.51648  20834595.82148
  24621146.138 5   4101662.578 5   3186611.42646  24621142.30646
  23113809.271 6  -5685252.270 6  -4302200.28947  23113804.88847
  21544243.505 7   3827810.473 7   2968943.33648  21544245.34948
  21398640.583 6  -5810147.484 6  -4509893.51648  21398640.86448
  22222737.356 7   2565872.016 7   1989506.80548  22222735.14648
  24577009.23111   8440310.14811                
 18  5 30  1  9 10.0010000  0  9G03G14G16G22G23G26G27G31G32         -0.000236273
  24484620.935 6   3188767.488 6   2445776.73447  24484621.77447
  21923519.669 5   5717258.156 5   4438903.06347  21923519.56347
  20835262.224 6    920629.090 6    715476.35548  20835259.34148
  24622940.153 6   4111090.938 6   3193958.19146  24622936.45046
  23111429.591 5  -5697757.074 5  -4311944.30547  23111425.72447
  21545973.396 7   3836900.492 7   2976026.46148  21545975.05248
  21396295.200 6  -5822473.887 6  -4519498.51248  21396295.34548
  22223911.966 7   2572043.477 7   1994315.73448  22223909.18148
  24580754.911 1   8459988.758 1                
 18  5 30  1  9 15.0010000  0  9G03G14G16G22G23G26G27G31G32         -0.000235388
  24486214.419 5   3197141.695 5   2452302.07846  24486215.63846
  21926381.708 5   5732295.691 5   4450620.60247  21926380.89647
  20835926.692 7    924122.324 7    718198.35948  20835924.27148
  24624734.505 6   4120518.801 6   3201304.56346  24624730.59146
  23109051.653 5  -5710254.582 5  -4321682.62147  23109047.50947
  21547703.224 7   3845992.031 7   2983110.77748  21547705.05248
  21393951.489 6  -5834790.641 6  -4529095.98448  21393951.14248
  22225086.880 7   2578218.164 7   1999127.17648  22225084.04048
  24584500.622 1   8479667.949 1                
 18  5 30  1  9 20.0010000  0  9G03G14G16G22G23G26G27G31G32         -0.000234505
  24487808.747 6   3205520.910 6   2458831.31347  24487809.64247
  21929245.161 6   5747342.449 6   4462345.35547  21929244.37647
  20836592.810 7    927622.758 7    720925.96548  20836590.16548
  24626528.114 6   4129946.668 6   3208650.95747  24626524.72047
  23106674.286 5  -5722744.230 5  -4331414.80947  23106670.46647
  21549433.536 6   3855085.605 6   2990196.67648  21549434.93548
  21391609.419 6  -5847097.207 6  -4538685.51648  21391609.32948
  22226262.950 7   2584396.688 7   2003941.60248  22226260.07548
  24588244.997 1   8499348.070 1                
 18  5 30  1  9 25.0010000  0  9G03G14G16G22G23G26G27G31G32         -0.000233622
  24489404.474 6   3213904.734 6   2465364.17647  24489405.28647
  21932110.364 6   5762398.016 6   4474076.94947  21932109.24747
  20837260.372 7    931129.953 7    723658.84048  20837257.59148
  24628322.200 6   4139374.098 6   3215996.99246  24628318.89246
  23104299.989 6  -5735226.434 6  -4341141.20347  23104295.35647
  21551163.849 7   3864180.781 7   2997283.81648  21551165.53248
  21389269.513 6  -5859393.977 6  -4548267.41448  21389269.52848
  22227438.958 7   2590578.629 7   2008758.68448  22227436.22048
  24591991.216 2   8519028.980 2                
 18  5 30  1  9 30.0010000  0  9G03G14G16G22G23G26G27G31G32         -0.000232740
  24490999.919 6   3222292.727 6   2471900.25447  24491001.45447
  21934976.786 6   5777461.941 6   4485815.06347  21934975.62247
  20837928.302 6    934643.504 6    726396.67648  20837926.08748
  24630116.231 5   4148800.660 5   3223342.36346  24630112.98946
  23101925.630 6  -5747701.625 6  -4350862.13347  23101921.32947
  21552894.880 6   3873277.141 6   3004371.87948  21552896.12648
  21386931.536 6  -5871681.344 6  -4557841.98448  21386931.40348
  22228616.364 7   2596763.578 7   2013578.11348  22228613.50548
  24595736.185 1   8538709.961 1                
 18  5 30  1  9 35.0010000  0  9G03G14G16G22G23G26G27G31G32         -0.000231859
  24492597.708 6   3230685.898 6   2478440.36747  24492598.93547
  21937845.278 6   5792535.371 6   4497560.57847  21937844.19247
  20838598.778 6    938164.461 6    729140.27048  20838596.27148
  24631909.216 5   4158227.473 5   3230687.91046  24631906.47046
  23099553.427 6  -5760168.695 6  -4360576.73047  23099548.91947
  21554626.653 6   3882375.785 6   3011461.73448  21554627.79848
  21384594.567 6  -5883958.215 6  -4567408.38348  21384595.06348
  22229793.880 7   2602952.598 7   2018400.72348  22229791.27148
  24599481.341 1   8558392.266 1                
 18  5 30  1  9 40.0010000  0  9G03G14G16G22G23G26G27G31G32         -0.000230980
  24494195.724 6   3239083.449 6   2484983.87947  24494196.95847
  21940715.216 6   5807617.422 6   4509312.81347  21940714.23547
  20839270.106 6    941691.945 6    731888.96948  20839267.70448
  24633703.692 5   4167653.582 5   3238032.93447  24633700.63847
  23097181.903 6  -5772628.492 6  -4370285.66447  23097177.83747
  21556358.513 6   3891475.781 6   3018552.63748  21556359.35648
  21382260.981 7  -5896225.473 7  -4576967.29348  21382260.95048
  22230971.911 7   2609144.805 7   2023225.82048  22230969.79048
  24603226.669 1   8578074.938 1                
 18  5 30  1  9 45.0010000  0  9G03G14G16G22G23G26G27G31G32         -0.000230103
  24495795.052 5   3247485.203 5   2491530.69146  24495795.56746
  21943587.192 6   5822707.891 6   4521071.60547  21943585.66147
  20839942.294 6    945225.883 6    734642.68048  20839940.38048
  24635497.771 5   4177078.898 5   3245377.34046  24635494.34146
  23094812.310 6  -5785081.117 6  -4379989.02347  23094808.35647
  21558090.060 6   3900577.023 6   3025644.50848  21558091.26748
  21379928.036 7  -5908483.246 7  -4586518.79748  21379928.87248
  22232150.747 7   2615340.094 7   2028053.30548  22232148.81048
  24606972.919 1   8597757.914 1                
 18  5 30  1  9 50.0010000  0  9G03G14G16G22G23G26G27G31G32         -0.000229225
  24497394.278 5   3255891.574 5   2498081.10947  24497395.34947
  21946460.247 6   5837807.266 6   4532837.34047  21946459.29447
  20840616.067 6    948766.633 6    737401.71548  20840613.52848
  24637290.536 6   4186503.879 6   3252721.45746  24637287.65746
  23092443.935 6  -5797526.070 6  -4389686.39147  23092440.02447
  21559822.810 7   3909680.004 7   3032737.74248  21559823.35348
  21377597.646 7  -5920731.000 7  -4596062.50448  21377598.22848
  22233331.075 7   2621538.938 7   2032883.55548  22233328.24748
  24610719.606 1   8617441.469 1                
