     2.11           OBSERVATION DATA    G (GPS)             RINEX VERSION / TYPE
DAT2RINW 3.10 001   TBYT                30MAY18 21:28:12    PGM / RUN BY / DATE 
TBYT                TBYT                                    OBSERVER / AGENCY   
10555               TRIMBLE 4000SSI     Nav 7.32 Sig 3.08   REC # / TYPE / VERS 
00000000            TRM14532.00                             ANT # / TYPE        
----------------------------------------------------------- COMMENT             
Offset from BOTTOM OF ANTENNA to PHASE CENTER is  69.2 mm   COMMENT             
----------------------------------------------------------- COMMENT             
I256                                                        MARKER NAME         
I256                                                        MARKER NUMBER       
 -2967170.1596  5004741.2850  2604970.0855                  APPROX POSITION XYZ 
        1.6732        0.0000        0.0000                  ANTENNA: DELTA H/E/N
*** Above antenna height is from mark to PHASE CENTER.      COMMENT             
----------------------------------------------------------- COMMENT             
Note: The above height is to the antenna phase center.      COMMENT             
      The RINEX specification calls for this to be the      COMMENT             
      height from the bottom surface of the antenna mount   COMMENT             
      to the survey mark.                                   COMMENT             
Note: The above offsets are CORRECTED.                      COMMENT             
Raw Offsets: H=      1.6800 E=      0.0000 N=      0.0000   COMMENT             
----------------------------------------------------------- COMMENT             
     1     1     0                                          WAVELENGTH FACT L1/2
     4    L1    C1    L2    P2                              # / TYPES OF OBSERV 
     5.000                                                  INTERVAL            
  2018     5    30     0    21   35.0000000                 TIME OF FIRST OBS   
  2018     5    30     1    36   10.0000000                 TIME OF LAST OBS    
     0                                                      RCV CLOCK OFFS APPL 
    12                                                      # OF SATELLITES     
     3   628   628   597   597                              PRN / # OF OBS      
     8   340   340   324   324                              PRN / # OF OBS      
    14   894   896   888   888                              PRN / # OF OBS      
    16   896   896   893   893                              PRN / # OF OBS      
    21   293   293   278   278                              PRN / # OF OBS      
    22   552   552   552   552                              PRN / # OF OBS      
    23   802   803   765   765                              PRN / # OF OBS      
    26   893   895   887   887                              PRN / # OF OBS      
    27   896   896   896   896                              PRN / # OF OBS      
    29    92    92    92    92                              PRN / # OF OBS      
    31   896   896   894   894                              PRN / # OF OBS      
    32   601   601   593   593                              PRN / # OF OBS      
                                                            END OF HEADER       
 18  5 30  0 21 35.0000000  0  9  3 14 16 22 26 27 29 31 32
     80314.64616  24051998.46906     52505.49956  24052005.79746
    139955.60317  20881627.97707    102075.00157  20881632.33647
      7539.84418  20978028.07008         0.00000         0.00000
    105573.09516  23923644.17206     20410.30656  23923645.88346
    105566.17516  20921713.83606     28634.42358  20921720.85948
   -137835.32916  23227493.39106    -33269.04656  23227501.37546
    212749.67516  23863416.36706    152539.61856  23863420.99646
     41182.35018  21897405.77308         0.00000         0.00000
     87244.47616  22797234.51606         0.00000         0.00000
 18  5 30  0 21 40.0000000  0  9  3 14 16 22 26 27 29 31 32
     86583.91606  24053191.65606     57390.64146  24053199.27746
    150973.65907  20883724.53107    110660.49747  20883729.13747
      8283.44008  20978169.66408         0.00000         0.00000
    115615.68706  23925554.97706     28235.68546  23925556.80546
    114708.07006  20923453.45306     35757.97748  20923460.52348
   -151225.87606  23224944.89106    -43703.24046  23224952.92246
    229527.29406  23866608.94506    165613.07146  23866613.63346
     48457.59108  21898790.23408         0.00000         0.00000
    107025.75507  22800998.68007         0.00000         0.00000
 18  5 30  0 21 45.0000000  0  9  3 14 16 22 26 27 29 31 32
     92838.83406  24054381.75806     62264.61446  24054389.19146
    161979.57207  20885818.89107    119236.52947  20885823.76647
      9012.83808  20978308.57808         0.00000         0.00000
    125639.83306  23927462.03906     36046.68946  23927463.98446
    123831.67306  20925189.64806     42867.27848  20925196.68448
   -164639.23406  23222392.00006    -54155.21346  23222400.19546
    246290.05006  23869798.77306    178674.93646  23869803.61346
     55709.06708  21900170.09408      3386.77857  21900173.55147
    126789.25707  22804759.46107         0.00000         0.00000
 18  5 30  0 21 50.0000000  0  9  3 14 16 22 26 27 29 31 32
     99080.30606  24055569.25806     67128.09646  24055576.42246
    172974.24207  20887911.09407    127803.80247  20887916.08647
      9728.94708  20978444.81308       220.94757  20978447.70747
    135646.41706  23929366.48406     43844.02646  23929368.53546
    132937.91906  20926922.53106     49963.05448  20926929.52048
   -178074.43806  23219835.90606    -64624.20646  23219843.72746
    263038.83306  23872985.91406    191725.92446  23872990.67246
     62937.71808  21901545.68808      9019.49647  21901549.13347
    146535.90207  22808517.02307         0.00000         0.00000
 18  5 30  0 21 55.0000000  0  9  3 14 16 22 26 27 29 31 32
    105309.03606  24056754.82006     71981.64246  24056761.68046
    183958.42107  20890001.32007    136362.90247  20890006.52347
     10432.47908  20978578.75808       769.16147  20978581.53547
    145636.14606  23931266.97706     51628.22646  23931269.52046
    142027.52106  20928652.12506     57045.86248  20928659.10248
   -191530.80906  23217275.27306    -75109.69246  23217283.28146
    279774.35106  23876170.53906    204766.59346  23876175.39146
     70144.24108  21902917.10208     14634.96247  21902920.44147
    166266.38807  22812271.70307         0.00000         0.00000
 18  5 30  0 22  0.0000000  0  9  3 14 16 22 26 27 29 31 32
    111525.77206  24057937.49206     76825.85146  24057943.91446
    194932.85107  20892089.64107    144914.40547  20892094.94947
     11124.15908  20978710.32808      1308.14347  20978713.05947
    155609.70606  23933165.18806     59399.83746  23933167.75446
    151101.18806  20930378.75806     64116.25148  20930385.65248
   -205007.56706  23214710.71906    -85611.06846  23214718.73846
    296497.30706  23879352.86706    217797.47446  23879357.37946
     77329.36808  21904284.42208     20233.75447  21904287.78547
    185981.43707  22816023.53107         0.00000         0.00000
 18  5 30  0 22  5.0000000  0  9  3 14 16 22 26 27 29 31 32
    117730.47006  24059118.50006     81660.68046  24059125.15646
    205897.45507  20894176.12507    153458.25147  20894181.50447
     11803.95008  20978839.57808      1837.85547  20978842.37947
    165567.12706  23935059.68006     67158.86446  23935062.83246
    160158.90306  20932102.57806     71174.21147  20932109.34047
   -218504.72006  23212142.25806    -96128.33746  23212149.64546
    313207.69006  23882532.82006    230818.55046  23882536.91046
     84493.07708  21905647.73408     25815.85147  21905651.01647
    205681.00107  22819772.34407         0.00000         0.00000
 18  5 30  0 22 10.0000000  0  9  3 14 16 22 26 27 29 31 32
    123923.27106  24060296.94506     86486.23946  24060303.60246
    216852.38507  20896260.64107    161994.56247  20896265.98447
     12471.97708  20978966.69508      2358.39847  20978969.70747
    175508.50406  23936951.57806     74905.39146  23936954.67246
    169200.75606  20933823.08606     78219.81048  20933829.81348
   -232022.11806  23209569.65606   -106661.37146  23209576.66846
    329905.64206  23885710.34406    243829.93446  23885714.44546
     91635.50708  21907006.78908     31381.37547  21907009.97747
    225365.21607  22823518.02307         0.00000         0.00000
 18  5 30  0 22 15.0000000  0  9  3 14 16 22 26 27 29 31 32
    130104.24206  24061473.35906     91302.58346  24061479.52346
    227797.76807  20898343.71907    170523.43647  20898349.13347
     13128.35808  20979091.69508      2869.86547  20979094.88347
    185433.92606  23938840.33606     82639.48046  23938843.37146
    178226.88006  20935540.64806     85253.15247  20935547.38747
   -245559.62506  23206993.78106   -117210.07046  23207000.15646
    346591.24406  23888885.76606    256831.69246  23888889.68046
     98756.78908  21908361.84408     36930.42447  21908364.87947
    245034.19107  22827261.07807      9191.07856  22827267.05546
 18  5 30  0 22 20.0000000  0  9  3 14 16 22 26 27 29 31 32
    136274.13806  24062647.09406     96110.28846  24062653.72746
    238734.28307  20900424.71107    179045.40447  20900430.25447
     13773.81008  20979214.63308      3372.81647  20979217.87947
    195344.14506  23940726.31306     90361.71946  23940728.82046
    187237.98706  20937255.28106     92274.79147  20937261.91447
   -259116.50506  23204413.89806   -127773.85346  23204420.08646
    363265.20706  23892058.60206    269824.38246  23892062.45746
    105857.71008  21909713.18008     42463.61147  21909716.22747
    264688.63807  22831000.86707     24506.23246  22831006.98446
 18  5 30  0 22 25.0000000  0  9  3 14 16 22 26 27 29 31 32
    142433.14506  24063819.21906    100909.51046  24063825.75846
    249662.16907  20902504.03907    187560.64147  20902509.68847
     14408.54308  20979335.36708      3867.41247  20979338.70747
    205239.32206  23942609.00006     98072.25146  23942611.01646
    196234.27507  20938967.23407     99284.88447  20938973.98447
   -272692.55706  23201830.46106   -138352.58246  23201836.43846
    379927.68106  23895229.29706    282808.13346  23895233.38746
    112938.38507  21911060.69507     47981.01847  21911063.76647
    284328.75707  22834738.68007     39810.22246  22834744.80946
 18  5 30  0 22 30.0000000  0  9  3 14 16 22 26 27 29 31 32
    148582.14506  24064989.27306    105700.94446  24064995.97746
    260582.30107  20904582.25007    196069.83147  20904587.87547
     15033.44708  20979453.95308      4354.34947  20979457.36347
    215120.36206  23944489.75006    105771.76046  23944491.93046
    205216.63607  20940676.55507    106284.12747  20940683.31647
   -286286.74606  23199243.21106   -148945.46146  23199248.96546
    396579.56006  23898397.79706    295783.62446  23898401.78146
    119999.65308  21912404.30508     53483.30147  21912407.52747
    303955.41706  22838472.85906     55103.72546  22838479.16446
 18  5 30  0 22 35.0000000  0  9  3 14 16 22 26 27 29 31 32
    154721.17006  24066157.55506    110484.60146  24066164.22346
    271494.68107  20906658.78907    204572.98047  20906664.21547
     15648.55108  20979571.10908      4833.65147  20979574.53147
    224987.29006  23946367.63306    113460.27046  23946370.11746
    214185.07207  20942383.19507    113272.52247  20942389.85247
   -299898.82206  23196652.97706   -159552.13046  23196652.74246
    413220.90806  23901564.46106    308750.90246  23901567.83646
    127041.59008  21913744.41408     58970.52547  21913747.78947
    323568.65606  22842205.64106     70386.76346  22842212.37946
 18  5 30  0 22 40.0000000  0  9  3 14 16 22 26 27 29 31 32
    160850.27406  24067323.82006    115260.52246  24067330.76246
    282399.39007  20908734.09407    213070.15647  20908739.25047
     16253.91608  20979686.53108      5305.36247  20979689.98847
    234840.15006  23948242.69506    121137.81546  23948244.72346
    223139.65607  20944087.15607    120250.11947  20944093.93047
   -313529.45606  23194059.26606   -170173.20346  23194061.18846
    429851.76406  23904729.29706    321710.00446  23904733.08246
    134064.26108  21915080.71908     64442.73447  21915084.28147
    343168.50506  22845935.14106     85659.36546  22845942.07046
 18  5 30  0 22 45.0010000  0  9  3 14 16 22 26 27 29 31 32
    166971.20206  24068488.40306    120030.06746  24068495.22446
    293299.18707  20910808.24707    221563.50047  20910813.13447
     16850.19008  20979799.73908      5769.99047  20979803.37247
    244681.42606  23950115.55206    128806.32846  23950117.32146
    232082.69807  20945788.91107    127218.71947  20945795.74347
   -327180.40006  23191461.20806   -180810.21046  23191465.57946
    446475.94406  23907893.18506    334663.90646  23907897.49746
    141069.65108  21916413.90308     69901.47447  21916417.38447
    362759.42206  22849663.32506    100925.00446  22849670.50146
 18  5 30  0 22 50.0010000  0  9  3 14 16 22 26 27 29 31 32
    173081.45606  24069651.27106    124791.29946  24069657.52846
    304189.63607  20912880.68507    230049.56247  20912885.44247
     17437.03908  20979911.63008      6227.27547  20979915.35647
    254507.09806  23951985.27106    136462.68046  23951987.05246
    241010.53607  20947487.96607    134175.47447  20947494.88447
   -340846.29606  23188860.58306   -191458.95446  23188866.67746
    463086.75906  23911053.83306    347607.39846  23911058.50946
    148054.88808  21917742.88808     75344.51347  21917746.29847
    382333.50606  22853387.93506    116177.53046  22853395.28646
 18  5 30  0 22 55.0010000  0  9  3 14 16 22 26 27 29 31 32
    179183.00506  24070812.60606    129545.74946  24070818.74746
    315073.65907  20914951.70007    238530.61447  20914956.34147
     18015.38908  20980021.54408      6677.94047  20980025.27147
    264319.89506  23953852.48906    144109.01046  23953854.61046
    249925.73608  20949184.42708    141122.38447  20949191.45047
   -354529.03206  23186256.85606   -202120.82546  23186263.52446
    479688.31906  23914213.02806    360543.68146  23914217.39946
    155022.15808  21919068.92708     80773.55747  21919072.33747
    401895.42706  22857110.51306    131420.58246  22857117.81746
 18  5 30  0 23  0.0010000  0  9  3 14 16 22 26 27 29 31 32
    185276.07106  24071972.09106    134293.59146  24071978.23146
    325951.49307  20917021.72407    247006.84247  20917026.20047
     18585.45208  20980130.08308      7122.14647  20980133.66947
    274120.04606  23955716.81706    151745.49146  23955718.61046
    258828.50508  20950878.32508    148059.60747  20950885.39647
   -368228.41106  23183649.94206   -212795.67446  23183656.93146
    496280.79806  23917370.30206    373472.87446  23917375.15346
    161971.68708  21920391.27808     86188.76947  21920394.61847
    421445.40206  22860830.95006    146654.32446  22860838.26746
 18  5 30  0 23  5.0010000  0  9  3 14 16 22 26 27 29 31 32
    191360.53806  24073129.91906    139034.73346  24073135.80246
    336822.98707  20919090.77807    255478.13047  20919095.02147
     19147.08108  20980236.92708      7559.77647  20980240.50147
    283907.41806  23957579.52106    159372.00546  23957581.80646
    267718.70408  20952570.13808    154987.03747  20952577.19647
   -381944.49906  23181039.73106   -223483.54846  23181046.67346
    512864.08005  23920526.03605    386394.92146  23920531.05246
    168903.33708  21921710.44208     91590.05247  21921713.68847
    440983.27207  22864548.70807    161878.63546  22864556.17746
 18  5 30  0 23 10.0010000  0  9  3 14 16 22 26 27 29 31 32
    197436.96806  24074285.93506    143769.60146  24074292.01746
    347688.73507  20921158.51307    263944.94247  20921162.69647
     19700.86607  20980342.19207      7991.29247  20980345.82547
    293682.59406  23959439.51306    166989.01446  23959442.04446
    276596.93108  20954259.73908    161905.13347  20954266.78647
   -395676.70006  23178426.15306   -234183.96046  23178433.08346
    529438.74305  23923680.16905    399310.24646  23923685.22046
    175817.69108  21923026.09108     96977.85847  21923029.36047
    460509.66307  22868264.52807    177094.00146  22868271.97446
 18  5 30  0 23 15.0010000  0  9  3 14 16 22 26 27 29 31 32
    203505.11206  24075440.72406    148498.02846  24075446.48946
    358548.49307  20923224.91907    272407.09247  20923228.89247
     20246.56107  20980446.16907      8416.51247  20980449.66147
    303445.31206  23961297.54406    174596.31846  23961300.06346
    285462.91908  20955946.84108    168813.69647  20955953.89947
   -409425.25506  23175810.36406   -244897.11346  23175817.68146
    546004.53505  23926832.47405    412218.65946  23926837.41946
    182714.52708  21924338.66908    102352.02147  21924341.90347
    480024.27707  22871978.02807    192300.18346  22871985.43846
 18  5 30  0 23 20.0010000  0  9  3 14 16 22 26 27 29 31 32
    209565.37306  24076593.98906    153220.30546  24076600.38846
    369402.67907  20925290.43507    280864.89247  20925294.44247
     20784.56407  20980548.29407      8835.73747  20980551.70447
    313195.96406  23963152.38006    182194.22046  23963155.48546
    294317.07408  20957631.68508    175713.03847  20957638.79047
   -423189.73506  23173191.19206   -255622.68446  23173198.68546
    562561.84806  23929983.03606    425120.45946  23929988.06346
    189594.26108  21925647.73108    107712.85547  21925651.06047
    499527.53807  22875689.29407    207497.51646  22875696.78646
 18  5 30  0 23 25.0010000  0  9  3 14 16 22 26 27 29 31 32
    215618.12206  24077745.56006    157936.73246  24077752.08746
    380251.65707  20927354.94207    289318.63747  20927359.07947
     21315.26907  20980649.54407      9249.27247  20980653.04847
    322934.90306  23965005.78606    189783.00246  23965009.12646
    303159.76008  20959314.45808    182603.44247  20959321.57547
   -436969.76006  23170569.09906   -266360.35746  23170577.03646
    579111.03005  23933132.53605    438015.92946  23933136.69646
    196457.27008  21926954.51308    113060.65447  21926957.71247
    519019.80506  22879398.88806    222686.28746  22879406.31046
 18  5 30  0 23 30.0010000  0  9  3 14 16 22 26 27 29 31 32
    221663.06305  24078896.21605    162647.18146  24078903.07546
    391095.19106  20929418.79406    297768.24746  20929421.47846
     21838.37006  20980749.26306      9656.99847  20980751.52447
    332661.88405  23966857.16105    197362.59346  23966859.42346
    311990.70607  20960995.19207    189484.80947  20961001.74347
   -450765.56605  23167944.02105   -277110.21246  23167949.68146
    595651.79405  23936280.30205    450904.95045  23936283.85345
    203303.28707  21928257.07507    118395.32346  21928259.11446
    538500.79506  22883106.18506    237866.38446  22883112.25546
 18  5 30  0 23 35.0010000  0  9  3 14 16 22 26 27 29 31 32
    227701.34205  24080045.57505    167352.42746  24080051.92746
    401934.35406  20931481.16906    306214.43246  20931484.05246
     22355.04306  20980847.69206     10059.69047  20980850.23547
    342377.99905  23968705.86405    204933.68646  23968708.47846
    320811.00507  20962673.72407    196357.85747  20962680.36847
   -464576.06005  23165316.37205   -287871.56146  23165322.46646
    612185.29804  23939426.00504    463788.29545  23939429.34545
    210133.43607  21929556.67707    123717.60447  21929558.83347
    557971.63806  22886811.61406    253038.54746  22886818.00146
 18  5 30  0 23 40.0010000  0  9  3 14 16 22 26 27 29 31 32
    233732.68005  24081193.05205    172052.19346  24081199.56746
    412768.89606  20933543.26306    314656.95046  20933546.56746
     22864.98906  20980944.87206     10457.06947  20980947.69647
    352082.96405  23970552.86405    212496.01446  23970555.73546
    329620.40507  20964350.06707    203222.34347  20964356.96247
   -478401.42505  23162685.34905   -298644.52846  23162692.23146
    628711.28604  23942570.52104    476665.69445  23942574.07145
    216947.46607  21930853.26307    129027.25446  21930855.98146
    577432.04106  22890514.59906    268202.50046  22890521.14946
 18  5 30  0 23 45.0010000  0  9  3 14 16 22 26 27 29 31 32
    239756.57205  24082339.16905    176746.11746  24082345.93146
    423598.31506  20935603.71606    323095.43946  20935607.61846
     23367.69406  20981040.38006     10848.76847  20981043.35647
    361776.25405  23972397.73905    220049.21046  23972400.61046
    338418.38807  20966024.52807    210077.90047  20966031.48147
   -492242.19705  23160051.48105   -309429.55046  23160059.03246
    645229.22304  23945714.40304    489536.77345  23945718.78645
    223744.89207  21932147.06007    134323.93147  21932150.00147
    596881.50006  22894215.65306    283357.89346  22894222.14646
 18  5 30  0 23 50.0010000  0  9  3 14 16 22 26 27 29 31 32
    245773.47905  24083484.12205    181434.60046  24083491.01746
    434423.10106  20937663.43506    331530.30946  20937667.33746
     23863.64206  20981134.79406     11235.19547  20981137.65347
    371458.37505  23974240.11405    227593.69346  23974242.93846
    347205.44407  20967696.35607    216924.93247  20967703.23947
   -506097.86805  23157415.24705   -320226.19746  23157422.42346
    661739.54804  23948856.61404    502401.91645  23948861.20845
    230526.17207  21933437.61407    139608.01947  21933440.39247
    616320.48606  22897914.84106    298505.11646  22897921.40346
 18  5 30  0 23 55.0010000  0  9  3 14 16 22 26 27 29 31 32
    251783.72105  24084628.42705    186117.88946  24084634.72046
    445243.52906  20939722.69206    339961.79346  20939726.73546
     24353.11706  20981227.71606     11616.58547  20981230.48147
    381129.61705  23976081.01305    235129.70446  23976083.94246
    355981.85107  20969366.53607    223763.67747  20969373.36847
   -519968.11105  23154775.73905   -331034.20046  23154782.69246
    678242.61704  23951996.32504    515261.41945  23952000.79045
    237291.64007  21934724.81707    144879.79547  21934727.39647
    635749.30206  22901612.13806    313644.42646  22901618.79446
 18  5 30  0 24  0.0010000  0  9  3 14 16 22 26 27 29 31 32
    257787.44405  24085770.76305    190796.11746  24085777.12646
    456059.80306  20941780.74706    348390.04946  20941784.70846
     24836.29006  20981319.90306     11993.07947  20981322.57547
    390790.12705  23977919.28605    242657.36446  23977921.95846
    364747.76607  20971034.68507    230594.25647  20971041.32947
   -533852.74505  23152133.38005   -341853.39646  23152140.45046
    694738.54704  23955136.18504    528115.39445  23955140.40345
    244041.47507  21936009.39607    150139.40447  21936011.93847
    655168.10506  22905307.47406    328775.94246  22905313.75546
 18  5 30  0 24  5.0010000  0  9  3 14 16 22 26 27 29 31 32
    263784.66605  24086912.16105    195469.27846  24086918.72446
    466871.91806  20943838.37206    356815.07046  20943842.27446
     25313.19906  20981410.70006     12364.69947  20981413.34947
    400439.95305  23979755.88805    250176.70846  23979758.00946
    373503.23407  20972700.71607    237416.70147  20972707.36047
   -547751.72405  23149488.65305   -352683.76546  23149495.21646
    711227.37504  23958272.93504    540963.85945  23958277.35345
    250775.69307  21937290.98107    155386.84447  21937293.34947
    674576.92606  22909000.99706    343899.69346  22909007.24346
 18  5 30  0 24 10.0010000  0  9  3 14 16 22 26 27 29 31 32
    269776.55405  24088051.92705    200138.28246  24088059.03246
    477680.97406  20945895.13806    365237.71247  20945899.18147
     25784.96906  20981500.41106     12732.31847  20981503.00147
    410080.18105  23981590.28605    257688.56646  23981592.26746
    382249.35807  20974365.13807    244231.86547  20974371.72447
   -561663.90505  23146840.98105   -363524.41946  23146847.62646
    727710.20404  23961410.88004    553807.61645  23961415.86045
    257495.42907  21938569.59907    160623.00047  21938571.95447
    693976.84906  22912692.49706    359016.50946  22912698.86046
 18  5 30  0 24 15.0010000  0  9  3 14 16 22 26 27 29 31 32
    275762.95605  24089191.22405    204803.00646  24089198.17746
    488486.94006  20947951.73906    373657.94947  20947955.88847
     26251.52806  20981589.27806     13095.87147  20981591.89247
    419710.68806  23983423.29406    265192.84846  23983425.13446
    390986.05407  20976027.75507    251039.68347  20976034.36447
   -575589.34205  23144191.42705   -374375.39946  23144197.79046
    744186.93105  23964546.54405    566646.63345  23964550.58745
    264200.60307  21939845.57507    165847.80947  21939847.76747
    713367.81906  22916382.44206    374126.35346  22916389.05246
 18  5 30  0 24 20.0010000  0  9  3 14 16 22 26 27 29 31 32
    281744.30305  24090329.68505    209463.80846  24090335.86046
    499290.18106  20950007.36406    382076.06147  20950011.60647
     26713.25106  20981677.03606     13455.65847  20981679.77847
    429331.92005  23985253.98905    272689.90246  23985255.68846
    399713.71007  20977688.54407    257840.45647  20977695.10647
   -589527.64105  23141538.73905   -385236.40046  23141544.52846
    760658.03305  23967680.55205    579481.25945  23967685.49745
    270891.61107  21941118.68507    171061.58447  21941120.66547
    732750.23506  22920070.97406    389229.52946  22920077.72446
 18  5 30  0 24 25.0010000  0  9  3 14 16 22 26 27 29 31 32
    287719.96905  24091466.98105    214120.17546  24091473.08746
    510090.09006  20952062.41906    390491.57347  20952066.86047
     27169.51806  20981763.85606     13811.19247  20981766.62247
    438943.24105  23987082.52105    280179.23346  23987084.23146
    408431.69807  20979347.41907    264633.69147  20979353.94647
   -603479.40605  23138884.04405   -396107.91046  23138890.44246
    777122.80005  23970813.11405    592310.94645  23970818.31745
    277567.81307  21942389.17707    176263.82147  21942391.18147
    752123.41806  22923757.04406    404325.50546  22923763.99746
 18  5 30  0 24 30.0010000  0  9  3 14 16 22 26 27 29 31 32
    293690.41805  24092602.75505    218772.45946  24092608.73146
    520887.16706  20954117.00506    398904.87947  20954121.48147
     27620.84206  20981849.78606     14162.87547  20981852.55247
    448545.14705  23988909.78605    287661.23646  23988911.62646
    417140.50907  20981004.65307    271419.77847  20981011.16947
   -617444.10005  23136226.56705   -406989.46946  23136233.01346
    793581.70405  23973945.13005    605136.05845  23973949.71245
    284229.75807  21943656.85607    181454.94647  21943658.84947
    771487.88905  22927441.90305    419414.69746  22927449.02146
 18  5 30  0 24 35.0010000  0  9  3 14 16 22 26 27 29 31 32
    299655.56805  24093738.14605    223420.60346  24093743.74746
    531681.30906  20956171.60606    407315.89647  20956176.10647
     28067.11806  20981934.74706     14510.62447  20981937.54847
    458137.52705  23990735.12205    295135.81546  23990737.16146
    425840.03507  20982660.02807    278198.63047  20982666.55647
   -631421.83805  23133567.02105   -417881.20246  23133573.80646
    810034.61605  23977076.34105    617956.50045  23977081.67345
    290877.31507  21944921.82507    186634.85947  21944923.94647
    790843.54805  22931125.26305    434497.01646  22931132.38046
 18  5 30  0 24 40.0010000  0  9  3 14 16 22 26 27 29 31 32
    305615.41906  24094872.15306    228064.63446  24094877.47446
    542472.52606  20958224.66106    415724.63547  20958228.99747
     28508.33106  20982018.73906     14854.42947  20982021.49347
    467720.41605  23992557.95005    302602.98746  23992560.22446
    434530.28707  20984313.86407    284970.25547  20984320.47447
   -645412.57805  23130904.28605   -428783.07146  23130910.80246
    826481.60305  23980206.06005    630772.33645  23980210.99345
    297510.53607  21946184.11407    191803.59947  21946186.31747
    810190.38805  22934807.12205    449572.46046  22934813.95446
 18  5 30  0 24 45.0010000  0  9  3 14 16 22 26 27 29 31 32
    311570.61405  24096005.70005    232705.04346  24096011.33746
    553261.46406  20960277.80206    424131.59947  20960282.07947
     28945.13406  20982101.92706     15194.79647  20982104.65747
    477294.38805  23994379.85605    310063.22346  23994382.71646
    443211.88407  20985965.90307    291735.13447  20985972.58347
   -659415.63505  23128239.38805   -439694.53646  23128245.85646
    842923.23305  23983335.20805    643583.99045  23983340.30645
    304130.07707  21947443.81707    196961.67747  21947446.04447
    829529.05405  22938487.36405    464641.53746  22938493.90346
 18  5 30  0 24 50.0010000  0  9  3 14 16 22 26 27 29 31 32
    317521.42106  24097137.87206    237342.04246  24097143.87246
    564048.39806  20962330.62206    432537.00047  20962334.88847
     29377.83006  20982184.24706     15531.96247  20982187.01347
    486859.71205  23996200.20005    317516.71646  23996202.93146
    451885.12807  20987616.51307    298493.50447  20987623.15747
   -673430.77705  23125572.56705   -450615.42546  23125578.63846
    859359.81705  23986462.90305    656391.71845  23986467.04045
    310736.19307  21948700.87207    202109.29547  21948703.19247
    848859.77606  22942165.52806    479704.42546  22942171.93846
 18  5 30  0 24 55.0010000  0  9  3 14 16 22 26 27 29 31 32
    323467.28306  24098269.53606    241975.17146  24098275.03246
    574832.75406  20964383.00506    440940.39247  20964387.13047
     29805.80206  20982265.53606     15865.44647  20982268.34947
    496415.86505  23998018.72405    324963.07046  23998021.51346
    460549.43707  20989265.36407    305244.90947  20989271.97447
   -687458.50505  23122903.16905   -461546.11546  23122909.52146
    875790.81905  23989589.23105    669195.08745  23989593.08745
    317328.37907  21949955.32507    207246.06247  21949957.70447
    868182.03206  22945842.89606    494760.71746  22945849.04846
 18  5 30  0 25  0.0010000  0  9  3 14 16 22 26 27 29 31 32
    329409.00306  24099399.84906    246605.07046  24099405.35646
    585615.35406  20966434.67706    449342.41847  20966438.79047
     30229.89106  20982346.29406     16195.90947  20982349.24747
    505963.63505  23999835.44205    332402.88846  23999837.92746
    469205.60407  20990912.23907    311989.97147  20990918.79047
   -701497.99205  23120231.76305   -472485.97246  23120238.41946
    892217.00205  23992715.07505    681994.70146  23992719.00146
    323907.41407  21951207.06707    212372.58747  21951209.39947
    887496.62806  22949518.34906    509811.04146  22949524.52446
 18  5 30  0 25  5.0010000  0  9  3 14 16 22 26 27 29 31 32
    335346.85706  24100529.81706    251231.96246  24100535.61846
    596396.48606  20968486.11406    457743.29747  20968490.29847
     30650.36706  20982426.38806     16523.54947  20982429.54047
    515503.23505  24001651.02105    339836.35046  24001653.69246
    477853.89606  20992558.06006    318728.90147  20992564.61047
   -715548.95405  23117557.88805   -483434.78346  23117564.68546
    908638.55605  23995840.18505    694790.73945  23995844.86045
    330473.55107  21952456.66907    217489.06547  21952459.01347
    906803.80206  22953192.59906    524855.56646  22953198.28246
 18  5 30  0 25 10.0010000  0  9  3 14 16 22 26 27 29 31 32
    341280.48705  24101658.79405    255855.56246  24101665.59146
    607175.80706  20970537.59106    466142.75847  20970541.69247
     31066.91706  20982505.73106     16848.12847  20982508.95447
    525034.39105  24003464.81005    347263.25146  24003467.04846
    486494.00806  20994201.97406    325461.45947  20994208.53647
   -729611.71105  23114881.72405   -494392.79446  23114888.42746
    925055.31005  23998963.83305    707583.02545  23998968.55645
    337026.53307  21953703.53607    222595.29447  21953705.64647
    926103.23806  22956864.66106    539894.06946  22956870.20446
 18  5 30  0 25 15.0010000  0  9  3 14 16 22 26 27 29 31 32
    347210.24505  24102787.37205    260476.16546  24102794.19246
    617953.70106  20972588.39606    474541.11147  20972592.50947
     31479.89106  20982584.09906     17169.92547  20982587.28647
    534557.47405  24005277.34105    354683.84846  24005279.25146
    495126.29607  20995844.72407    332187.91847  20995851.21647
   -743685.84605  23112203.47405   -505359.67346  23112210.04846
    941467.58505  24002087.09905    720371.80645  24002091.43545
    343566.72307  21954948.33307    227691.55147  21954950.44247
    945395.27106  22960535.98906    554926.80646  22960541.39246
 18  5 30  0 25 20.0010000  0  9  3 14 16 22 26 27 29 31 32
    353136.81405  24103914.71605    265094.27846  24103921.24346
    628730.76706  20974639.19206    482938.82347  20974643.23547
     31889.91906  20982662.16106     17489.42747  20982665.25547
    544073.03305  24007088.03605    362098.55146  24007089.88846
    503751.34507  20997485.98907    338908.73147  20997492.43547
   -757770.76105  23109523.26305   -516334.92846  23109529.88446
    957875.94805  24005209.41905    733157.53745  24005214.31745
    350094.67207  21956190.56007    232778.26347  21956192.68147
    964680.55406  22964206.09106    569954.30446  22964211.47046
 18  5 30  0 25 25.0010000  0  9  3 14 16 22 26 27 29 31 32
    359060.35805  24105042.02805    269710.02246  24105048.82546
    639507.25606  20976690.15306    491336.08347  20976693.98547
     32297.21906  20982739.58306     17806.80747  20982742.79447
    553581.29905  24008897.57505    369507.55146  24008899.39246
    512369.40107  20999126.01307    345624.09747  20999132.58747
   -771866.16705  23106840.70805   -527318.35446  23106847.51746
    974280.61505  24008331.42705    745940.39245  24008335.49345
    356610.70207  21957430.43507    237855.68647  21957432.64947
    983959.27906  22967874.61406    584976.67946  22967879.98146
 18  5 30  0 25 30.0010000  0  9  3 14 16 22 26 27 29 31 32
    364980.82505  24106168.95005    274323.36646  24106174.88046
    650283.05806  20978740.67706    499732.80447  20978744.54447
     32701.69606  20982816.69206     18121.98447  20982819.81047
    563082.17106  24010705.80206    376910.79546  24010707.10346
    520980.36007  21000764.63007    352333.93647  21000771.25147
   -785972.16205  23104156.81705   -538310.04146  23104163.67746
    990681.50805  24011452.60605    758720.30045  24011456.95445
    363114.74507  21958668.20807    242923.76447  21958670.34147
   1003231.37206  22971541.73106    599993.88146  22971547.04046
 18  5 30  0 25 35.0010000  0  9  3 14 16 22 26 27 29 31 32
    370898.17805  24107294.89605    278934.29846  24107300.94246
    661058.19406  20980791.12206    508129.00947  20980794.88447
     33103.33606  20982892.96606     18434.94947  20982896.10647
    572575.67806  24012512.19206    384308.31746  24012513.20046
    529584.22507  21002401.91907    359038.24447  21002408.80247
   -800088.73405  23101470.23905   -549309.96046  23101477.14646
   1007078.58205  24014572.36405    771497.24045  24014576.14945
    369606.73907  21959903.72407    247982.45247  21959905.86847
   1022496.79806  22975207.71606    615005.89646  22975212.87246
 18  5 30  0 25 40.0010000  0  9  3 14 16 22 26 27 29 31 32
    376812.89605  24108420.57505    283543.17246  24108426.13046
    671833.13406  20982841.49706    516525.05846  20982845.14246
     33502.60106  20982968.96606     18746.06347  20982972.11847
    582062.26605  24014317.39605    391700.45546  24014318.22846
    538181.46507  21004037.90307    365737.38647  21004044.93847
   -814215.36505  23098782.48105   -560317.71646  23098788.79846
   1023472.36505  24017692.23105    784271.61245  24017696.80245
    376087.17507  21961136.77807    253032.13647  21961138.91147
   1041756.05206  22978872.73106    630013.09046  22978878.38046
 18  5 30  0 25 45.0010000  0  9  3 14 16 22 26 27 29 31 32
    382725.17705  24109545.84105    288150.13846  24109551.44246
    682608.04506  20984891.73906    524921.08746  20984895.14946
     33899.73306  20983044.73906     19055.51247  20983047.84547
    591542.12705  24016121.38005    399087.35846  24016122.11846
    546772.26007  21005672.70007    372431.50647  21005679.71247
   -828351.87105  23096092.00505   -571333.16546  23096098.49746
   1039863.04605  24020811.30205    797043.55845  24020816.15345
    382556.26507  21962367.73907    258072.98247  21962369.80247
   1061009.30306  22982536.48106    645015.61546  22982542.18846
 18  5 30  0 25 50.0010000  0  9  3 14 16 22 26 27 29 31 32
    388635.81105  24110670.17705    292755.81646  24110675.97846
    693383.74706  20986942.22406    533317.73346  20986945.52846
     34295.53406  20983119.73906     19363.92747  20983122.92747
    601016.02805  24017924.07505    406469.60546  24017925.15346
    555357.39407  21007306.25507    379121.22047  21007313.36047
   -842497.41605  23093400.45005   -582355.66546  23093407.14246
   1056251.35405  24023929.98105    809813.65845  24023934.90345
    389014.80707  21963596.84107    263105.61747  21963598.90347
   1080257.34106  22986199.38006    660014.06246  22986205.34546
 18  5 30  0 25 55.0010000  0  9  3 14 16 22 26 27 29 31 32
    394544.18105  24111794.83305    297359.73246  24111800.55246
    704159.62306  20988992.73906    541714.51846  20988996.17346
     34689.38206  20983194.87206     19670.82147  20983198.02447
    610483.42805  24019725.74705    413846.79046  24019727.15346
    563936.28307  21008938.69207    385806.07047  21008945.84547
   -856652.60105  23090706.51305   -593385.67246  23090712.95846
   1072636.71505  24027047.56705    822581.46745  24027052.73545
    395462.19707  21964823.70807    268129.55947  21964825.97047
   1099499.54506  22989860.77806    675007.97846  22989866.68546
 18  5 30  0 26  0.0010000  0  9  3 14 16 22 26 27 29 31 32
    400450.25505  24112918.41905    301961.86546  24112924.32546
    714935.67106  20991043.35606    550111.43446  20991046.81346
     35081.21106  20983269.40306     19976.14147  20983272.56747
    619944.26905  24021525.66905    421218.85946  24021527.68546
    572508.86307  21010570.11407    392486.00347  21010577.32547
   -870817.43805  23088011.20005   -604423.19946  23088017.51746
   1089019.07505  24030165.22405    835346.93745  24030170.01745
    401898.43207  21966048.23107    273144.81047  21966050.54047
   1118735.91105  22993521.27805    689997.34746  22993527.34946
 18  5 30  0 26  5.0010000  0  9  3 14 16 22 26 27 29 31 32
    406354.58205  24114042.66905    306562.63946  24114048.28246
    725712.42906  20993094.06006    558508.90546  20993097.73946
     35471.60106  20983343.62206     20280.34247  20983346.82147
    629399.04905  24023324.79405    428586.22146  24023326.98546
    581075.69407  21012200.18507    399161.45647  21012207.37247
   -884991.35305  23085313.51305   -615467.79346  23085319.75946
   1105398.99405  24033282.29405    848110.50645  24033286.94645
    408324.05107  21967271.25507    278151.78847  21967273.77447
   1137966.95705  22997181.03605    704982.57646  22997187.02446
 18  5 30  0 26 10.0010000  0  9  3 14 16 22 26 27 29 31 32
    412256.51605  24115165.54405    311161.54446  24115170.72446
    736489.25706  20995144.81006    566906.42946  20995148.68846
     35859.89406  20983417.49706     20582.90847  20983420.77847
    638847.13305  24025122.60605    435948.37246  24025124.56346
    589636.12707  21013829.36407    405831.91947  21013836.58747
   -899174.86405  23082614.39605   -626519.88146  23082620.32546
   1121775.79804  24036398.87204    860871.65845  24036402.99745
    414738.41407  21968491.94207    283149.99547  21968494.74347
   1157192.03806  23000839.54406    719963.16146  23000845.47446
 18  5 30  0 26 15.0010000  0  9  3 14 16 22 26 27 29 31 32
    418156.87405  24116288.35605    315759.21646  24116294.04046
    747266.96606  20997195.80206    575304.64546  20997199.75146
     36246.94506  20983491.31706     20884.50547  20983494.41147
    648289.33305  24026919.21605    443305.92646  24026921.06746
    598190.96807  21015457.33307    412498.03047  21015464.42747
   -913367.36505  23079914.19205   -637578.98046  23079920.18146
   1138150.33005  24039514.66105    873631.03245  24039518.76345
    421142.35807  21969710.38807    288140.08547  21969713.18847
   1176411.96806  23004496.97406    734939.73046  23004503.11446
 18  5 30  0 26 20.0010000  0  9  3 14 16 22 26 27 29 31 32
    424056.40105  24117410.93505    320356.25046  24117416.60646
    758046.36506  20999247.03606    583704.17246  20999251.13846
     36633.49906  20983564.85606     21185.71747  20983567.95047
    657726.42305  24028715.13805    450659.49146  24028717.04846
         0.00000  21017084.42706         0.00000         0.00000
   -927567.95505  23077211.95005   -648644.38346  23077217.96246
   1154523.30205  24042630.66105    886389.16445  24042634.62245
    427536.67707  21970927.09107    293122.67047  21970929.93847
   1195627.49005  23008153.63005    749912.85946  23008159.72446
 18  5 30  0 26 25.0010000  0  8  3 14 16 22 27 29 31 32
    429954.11605  24118533.32505    324951.86846  24118538.91546
         0.00000  21001299.91106         0.00000         0.00000
     37018.53206  20983637.98106     21485.73947  20983641.01747
    667157.37705  24030509.90305    458008.28746  24030512.28246
   -941777.60005  23074508.20005   -659716.84146  23074514.17746
   1170893.76505  24045745.85605    899145.37045  24045750.01745
    433920.36007  21972142.06707    298096.96247  21972144.86847
   1214837.64206  23011809.35606    764881.79746  23011815.15746
 18  5 30  0 26 30.0010000  0  9  3 14 16 22 26 27 29 31 32
    435849.64705  24119655.27105    329545.79746  24119661.03646
         0.00000  21003350.14606         0.00000         0.00000
     37401.71306  20983711.03606     21784.32047  20983713.98947
    676581.82905  24032303.45005    465352.01946  24032306.23946
         0.00000  21020334.91107         0.00000         0.00000
   -955996.66205  23071801.98105   -670796.62346  23071807.93546
   1187261.29205  24048860.71605    911899.27245  24048866.42345
    440293.07907  21973354.51307    303062.70947  21973357.12647
   1234042.01806  23015463.79406    779846.23646  23015469.82946
 18  5 30  0 26 35.0010000  0  9  3 14 16 22 26 27 29 31 32
    441742.96305  24120776.42705    334137.98546  24120782.61446
      8622.32106  21005401.23906         0.00000         0.00000
     37782.96206  20983783.31706     22081.39647  20983786.30647
    685999.74705  24034095.34905    472690.65946  24034098.18546
      6822.90007  21021958.48107         0.00000         0.00000
   -970225.16205  23069094.66105   -681883.76846  23069100.49746
   1203625.86405  24051974.29405    924650.88045  24051978.51345
    446654.82307  21974565.35607    308019.91347  21974567.72447
   1253240.59406  23019117.12206    794806.14946  23019122.94646
 18  5 30  0 26 40.0010000  0  9  3 14 16 22 26 27 29 31 32
    447635.15605  24121897.60605    338729.31346  24121903.78246
     19404.25706  21007453.31706         0.00000         0.00000
     38163.42706  20983855.96606     22377.86547  20983858.86047
    695412.22005  24035886.91105    480025.04346  24035889.41946
     15349.51507  21023581.00507         0.00000         0.00000
   -984461.94205  23066385.50505   -692977.35746  23066391.52846
   1219988.64805  24055087.51305    937401.06345  24055092.20045
    453006.68207  21975773.90307    312969.41347  21975776.30647
   1272434.47906  23022769.64606    809762.40546  23022775.77446
 18  5 30  0 26 45.0010000  0  9  3 14 16 22 26 27 29 31 32
    453525.86005  24123018.61405    343319.48046  24123024.74346
     30187.17106  21009505.06006         0.00000         0.00000
     38542.72406  20983928.23106     22673.42147  20983931.17347
    704818.90505  24037677.14605    487354.91946  24037679.54846
     23870.64707  21025202.77107         0.00000         0.00000
   -998707.35705  23063674.56005   -704077.68146  23063680.26746
   1236349.24504  24058200.72404    950149.57845  24058206.68845
    459348.28707  21976980.70807    317910.92547  21976983.00547
   1291623.30306  23026421.06006    824714.72746  23026427.27146
 18  5 30  0 26 50.0010000  0  9  3 14 16 22 26 27 29 31 32
    459415.64605  24124139.96605    347908.92346  24124146.63446
     40971.61406  21011557.43506         0.00000         0.00000
     38921.41306  20984000.17706     22968.50347  20984003.22447
    714220.31405  24039465.86405    494680.68946  24039468.20846
     32386.81407  21026823.41907         0.00000         0.00000
  -1012960.86205  23060962.29405   -715184.30146  23060968.30646
   1252708.13204  24061314.37204    962896.77045  24061319.51745
    465680.18407  21978185.63807    322844.87047  21978188.06347
   1310807.59206  23030071.81706    839663.52046  23030078.21646
 18  5 30  0 26 55.0010000  0  9  3 14 16 22 26 27 29 31 32
    465304.32705  24125260.38005    352497.49546  24125267.33346
     51757.47206  21013609.65306         0.00000         0.00000
     39299.33006  20984072.25506     23262.98447  20984075.20847
    723616.27005  24041253.86405    502002.19946  24041256.06746
     40897.86707  21028442.96607         0.00000         0.00000
  -1027222.57605  23058248.16905   -726297.32046  23058254.00546
   1269065.22105  24064427.27805    975642.55145  24064432.62245
    472002.25307  21979388.63807    327771.15547  21979391.15747
   1329987.18806  23033721.51306    854608.65246  23033727.66546
 18  5 30  0 27  0.0010000  0  9  3 14 16 22 26 27 29 31 32
    471192.19505  24126380.68505    357085.43646  24126387.15346
     62545.04306  21015662.59106         0.00000         0.00000
     39676.79306  20984144.09106     23557.11047  20984146.95047
    733007.12605  24043041.16105    509319.74146  24043043.31746
     49404.10507  21030061.42707         0.00000         0.00000
  -1041492.18405  23055533.34905   -737416.48346  23055538.56346
   1285420.76004  24067539.63004    988387.12145  24067543.82545
    478314.80607  21980589.98107    332690.02247  21980592.61847
   1349162.39606  23037370.41106    869550.35146  23037375.87246
 18  5 30  0 27  5.0010000  0  9  3 14 16 22 26 27 29 31 32
    477079.08505  24127500.90305    361672.61646  24127507.79846
     73334.15206  21017715.61406      6723.68257  21017720.02147
     40053.59206  20984215.75506     23850.72147  20984218.79047
    742392.63505  24044827.43505    516633.11446  24044829.73146
     57905.33107  21031679.20007      1322.74657  21031685.96247
  -1055769.87005  23052816.15305   -748541.95446  23052821.88446
   1301774.57205  24070651.59905   1001130.33245  24070654.90345
    484617.65807  21981789.25507    337601.32847  21981791.84547
   1368333.02506  23041018.69206    884488.47046  23041024.54046
 18  5 30  0 27 10.0010000  0  9  3 14 16 22 26 27 29 31 32
    482965.14705  24128620.93505    366259.16146  24128627.41546
     84124.95306  21019769.21606     15132.10247  21019773.36447
     40429.90706  20984287.23906     24143.95347  20984290.28647
    751772.95105  24046612.52105    523942.45746  24046614.71246
     66401.69407  21033296.09107      7943.29247  21033302.86447
  -1070055.46605  23050097.61405   -759673.58946  23050103.19246
   1318126.82905  24073763.09105   1013872.35645  24073766.77145
    490910.96207  21982986.94207    342505.20247  21982989.59147
   1387499.21505  23044665.74705    899423.14446  23044671.70046
 18  5 30  0 27 15.0010000  0  9  3 14 16 22 26 27 29 31 32
    488849.91505  24129740.83305    370844.69246  24129747.43146
     94916.95706  21021822.79406     23541.46647  21021827.08347
     40805.29906  20984358.68506     24436.46747  20984361.81347
    761147.65905  24048396.34905    531247.41546  24048398.41146
     74892.73507  21034911.92707     14559.69647  21034918.74747
  -1084349.32905  23047377.56005   -770811.66146  23047382.91546
   1334477.04504  24076874.31704   1026612.76945  24076878.32545
    497194.26907  21984182.77107    347401.28147  21984185.57147
   1406660.50206  23048311.91106    914354.01146  23048318.01746
 18  5 30  0 27 20.0010000  0  9  3 14 16 22 26 27 29 31 32
    494734.40705  24130860.56005    375430.00246  24130866.72446
    105711.19306  21023876.77106     31952.56647  21023881.06047
     41180.75906  20984429.96606     24729.03047  20984432.97847
    770517.72605  24050179.19205    538548.75546  24050180.85646
     83379.49607  21036526.74707     21172.76747  21036533.68847
  -1098650.51605  23044656.46605   -781955.44546  23044661.50546
   1350826.23705  24079986.70805   1039352.38745  24079990.59945
    503468.60207  21985376.59107    352290.36647  21985379.23947
   1425817.90405  23051957.30205    929281.86746  23051963.81746
 18  5 30  0 27 25.0010000  0  9  3 14 16 22 26 27 29 31 32
    500618.60005  24131980.37205    380015.08346  24131985.97446
    116507.67206  21025931.41906     40365.40147  21025935.73147
     41556.29706  20984501.70006     25021.65847  20984504.61847
    779883.17305  24051961.14605    545846.49346  24051962.69246
     91861.93107  21038140.97407     27782.45947  21038147.95047
  -1112958.96205  23041933.43505   -793104.87746  23041938.53246
   1367174.36205  24083097.12205   1052091.19045  24083101.34145
    509734.01107  21986569.01307    357172.49547  21986571.49747
   1444971.44205  23055602.41105    944206.69446  23055608.99746
 18  5 30  0 27 30.0010000  0  9  3 14 16 22 26 27 29 31 32
    506501.93805  24133099.80205    384599.50446  24133106.14246
    127305.83306  21027985.98906     48779.54647  21027990.02147
     41931.33806  20984572.95806     25313.89347  20984575.82947
    789243.40305  24053742.48105    553140.17146  24053744.54446
    100339.49007  21039754.28607     34388.34847  21039761.27447
  -1127275.22105  23039208.80205   -804260.38746  23039213.82946
   1383520.88805  24086207.68505   1064828.73845  24086212.45445
    515989.92107  21987759.49707    362047.22447  21987761.80647
   1464120.49905  23059245.94205    959128.02346  23059252.83746
 18  5 30  0 27 35.0010000  0  9  3 14 16 22 26 27 29 31 32
    512384.99805  24134219.06005    389183.70046  24134224.47446
    138106.25606  21030041.38006     57195.45647  21030045.36447
     42306.45006  20984644.31706     25606.18947  20984647.22447
    798598.97505  24055522.59105    560430.23546  24055525.00546
    108812.75407  21041366.62207     40990.88747  21041373.56347
  -1141598.69805  23036483.07505   -815421.52946  23036488.14946
   1399866.36205  24089318.15305   1077565.46745  24089322.03245
    522236.89407  21988948.18507    366914.99747  21988950.38847
   1483265.66305  23062889.19205    974046.31046  23062896.42746
 18  5 30  0 27 40.0010000  0  9  3 14 16 22 26 27 29 31 32
    518267.80505  24135338.89605    393767.69846  24135344.01746
    148908.98306  21032096.84106     65613.16547  21032100.87247
     42681.68206  20984715.54406     25898.58347  20984718.43847
    807949.93905  24057301.54405    567716.69546  24057304.14646
    117281.73707  21042978.22407     47590.08947  21042985.27147
  -1155929.33805  23033755.98905   -826588.26246  23033761.54446
   1416210.80005  24092427.78605   1090301.40045  24092431.46645
    528474.97407  21990135.30207    371775.83847  21990137.42347
   1502406.98005  23066531.75505    988961.61346  23066538.84946
 18  5 30  0 27 45.0010000  0  9  3 14 16 22 26 27 29 31 32
    524150.46205  24136458.00505    398351.57946  24136462.88046
    159714.09406  21034152.95006     74032.72646  21034157.14646
     43057.12606  20984787.06006     26191.14547  20984789.87247
    817296.38705  24059080.09105    574999.64346  24059083.75946
    125746.52507  21044588.97407     54186.02047  21044595.92747
  -1170267.03405  23031027.88805   -837760.48446  23031033.48946
   1432554.38004  24095538.25504   1103036.64545  24095541.60645
    534704.26207  21991320.48107    376629.83347  21991322.56747
   1521544.51505  23070173.58305   1003873.96046  23070180.22846
 18  5 30  0 27 50.0010000  0  9  3 14 16 22 26 27 29 31 32
    530033.21905  24137577.43505    402935.52946  24137582.42746
    170521.87506  21036209.95806     82454.37446  21036214.03646
     43433.02606  20984858.58306     26484.05447  20984861.56047
    826638.59705  24060858.46605    582279.28146  24060862.08746
    134207.39207  21046198.91907     60778.90047  21046205.90747
  -1184611.48405  23028298.15305   -848937.97446  23028304.02446
   1448897.29204  24098647.56704   1115771.32345  24098652.85345
    540925.03207  21992504.42707    381477.18547  21992506.53647
   1540678.53705  23073814.64605   1018783.58546  23073821.65746
 18  5 30  0 27 55.0010000  0  9  3 14 16 22 26 27 29 31 32
    535916.05505  24138696.94205    407519.55446  24138701.48946
    181332.30606  21038266.94206     90878.07546  21038270.89246
     43809.39106  20984930.16106     26777.32647  20984933.18547
    835976.48005  24062635.25505    589555.55946  24062638.05646
    142664.30807  21047808.25507     67368.70347  21047815.31347
  -1198962.73205  23025567.13005   -860120.76246  23025573.31746
   1465239.50604  24101757.31704   1128505.51545  24101765.02145
    547137.29507  21993686.58307    386317.90447  21993688.81047
   1559809.01705  23077455.11405   1033690.44846  23077462.04446
 18  5 30  0 28  0.0010000  0  9  3 14 16 22 26 27 29 31 32
    541798.89405  24139815.69205    412103.58445  24139820.97845
    192145.25406  21040324.75506     99303.74146  21040328.65746
     44186.12006  20985001.81706     27070.87847  20985004.93547
    845310.04305  24064411.17705    596828.46746  24064414.13046
    151117.19207  21049416.93507     73955.37147  21049424.07547
  -1213320.78205  23022834.82505   -871308.83746  23022841.45846
   1481580.93504  24104867.04404   1141239.11945  24104873.16145
    553340.96507  21994866.98907    391151.92747  21994869.28647
   1578935.87205  23081094.63805   1048594.48846  23081101.88446
 18  5 30  0 28  5.0010000  0  9  3 14 16 22 26 27 29 31 32
    547682.01605  24140936.27105    416687.84345  24140941.77845
    202961.08706  21042382.79406    107731.66046  21042386.63846
     44563.51906  20985073.76306     27364.95547  20985076.93847
    854639.50505  24066186.52105    604098.18046  24066188.64246
    159566.34407  21051024.68507     80539.12347  21051031.86047
  -1227685.35805  23020101.56705   -882502.01346  23020108.31746
   1497921.94605  24107977.35605   1153972.38845  24107983.14645
    559536.34206  21996045.95806    395979.49147  21996048.38447
   1598059.41005  23084733.88805   1063495.93646  23084740.89946
 18  5 30  0 28 10.0010000  0  9  3 14 16 22 26 27 29 31 32
    553565.18905  24142055.41905    421272.14245  24142061.64245
    213779.51506  21044441.64606    116161.60246  21044445.52446
     44941.32206  20985145.54406     27659.35147  20985148.72047
    863964.63905  24067961.56005    611364.50746  24067963.75146
    168011.50707  21052631.76307     87119.76747  21052638.84547
  -1242056.65605  23017366.55205   -893700.42946  23017372.98546
   1514262.18205  24111086.16105   1166705.04145  24111090.79045
    565723.21006  21997223.27806    400800.42747  21997225.84547
   1617179.36405  23088372.48905   1078394.59546  23088379.53646
 18  5 30  0 28 15.0010000  0  9  3 14 16 22 26 27 29 31 32
    559449.18205  24143175.62205    425857.09646  24143181.61046
    224601.32006  21046500.67706    124594.17546  21046504.84946
     45320.31406  20985217.70006     27954.66747  20985221.11047
    873286.21905  24069735.45005    618628.05446  24069737.10346
    176453.44407  21054238.36407     93697.89847  21054245.24747
  -1256433.91605  23014630.65305   -904903.49046  23014637.14646
   1530602.49105  24114195.37205   1179437.74245  24114201.47845
    571902.32606  21998399.15306    405615.32247  21998401.77847
   1636296.50805  23092010.16905   1093291.05246  23092016.96646
 18  5 30  0 28 20.0010000  0  9  3 14 16 22 26 27 29 31 32
    565333.92305  24144295.19205    430442.60246  24144300.87646
    235426.41206  21048560.54406    133029.30946  21048564.56346
     45700.42106  20985290.01306     28250.85547  20985293.48147
    882604.14405  24071508.64605    625888.75946  24071510.11046
    184892.08907  21055843.99707    100273.46647  21055850.80647
  -1270817.15905  23011893.56005   -916111.21246  23011900.16946
   1546942.79805  24117305.52105   1192170.44945  24117310.10345
    578073.65406  21999573.38806    410424.14647  21999576.01347
   1655410.77306  23095647.87206   1108185.26446  23095654.87246
 18  5 30  0 28 25.0010000  0  9  3 14 16 22 26 27 29 31 32
    571218.98405  24145414.77105    435028.35946  24145420.71246
    246254.41006  21050621.15306    141466.70746  21050625.11446
     46081.27406  20985362.61406     28547.62447  20985366.03647
    891917.98405  24073280.98105    633146.28746  24073282.29446
    193327.02807  21057449.15307    106846.14347  21057455.76347
  -1285206.81605  23009155.53605   -927323.92346  23009162.20446
   1563282.59105  24120414.57505   1204902.76145  24120418.20845
    584236.80306  22000746.31006    415226.59547  22000749.01747
   1674521.70106  23099284.25506   1123076.87346  23099291.17346
 18  5 30  0 28 30.0010000  0  9  3 14 16 22 26 27 29 31 32
    577104.74905  24146535.30205    439614.66046  24146541.13846
    257085.70806  21052682.26306    149906.67546  21052686.37646
     46463.24206  20985435.37206     28845.26647  20985438.73547
    901228.16505  24075053.05205    640400.96746  24075054.75146
    201758.61207  21059053.88807    113416.20947  21059060.29847
  -1299602.46905  23006416.11405   -938541.31446  23006422.17346
   1579622.27405  24123524.20005   1217634.98045  24123526.61445
    590392.10506  22001917.48906    420022.92747  22001920.32547
   1693629.69506  23102920.70806   1137966.20646  23102927.29446
 18  5 30  0 28 35.0010000  0  9  3 14 16 22 26 27 29 31 32
    582991.66705  24147655.20805    444201.86746  24147660.98546
    267920.77606  21054744.16906    158349.58046  21054748.27146
     46846.77006  20985508.34906     29144.11547  20985511.63047
    910535.08805  24076823.84905    647653.10946  24076825.67746
    210187.32807  21060657.56007    119984.03947  21060663.94647
  -1314003.62205  23003675.64605   -949762.99446  23003681.89246
   1595962.34405  24126633.84105   1230367.50845  24126637.21645
    596540.13406  22003087.66906    424813.58647  22003090.50547
   1712735.22106  23106556.42706   1152853.62546  23106563.16546
 18  5 30  0 28 40.0010000  0  9  3 14 16 22 26 27 29 31 32
    588879.30705  24148775.66905    448789.63546  24148781.36446
    278759.18206  21056806.87206    166795.08947  21056810.72847
     47231.45906  20985581.81006     29443.87147  20985585.06747
    919838.33805  24078593.88005    654902.39146  24078595.59146
    218612.72407  21062261.02107    126549.28047  21062267.33747
  -1328410.71205  23000934.00505   -960989.29046  23000939.78246
   1612302.30405  24129741.93505   1243099.94245  24129745.06345
    602680.36206  22004256.02806    429598.18247  22004258.88847
   1731837.83206  23110191.56006   1167738.77046  23110198.23946
 18  5 30  0 28 45.0010000  0  9  3 14 16 22 26 27 29 31 32
    594768.14405  24149896.23905    453378.33446  24149902.11046
    289601.37806  21058870.01306    175243.55047  21058873.84547
     47617.76006  20985655.17706     29744.87847  20985658.30647
    929138.43105  24080363.63805    662149.21246  24080365.93546
    227035.26507  21063863.56007    133112.29947  21063869.85347
  -1342823.25205  22998191.16905   -972219.84346  22998196.72446
   1628642.65105  24132852.20805   1255832.66345  24132856.59145
    608813.28706  22005423.05206    434377.08547  22005425.68847
   1750937.98806  23113825.98106   1182621.99546  23113832.31046
 18  5 30  0 28 50.0010000  0  9  3 14 16 22 26 27 29 31 32
    600658.42505  24151017.18505    457968.16146  24151023.32546
    300447.63206  21060934.13006    183695.17447  21060938.13847
     48005.87706  20985728.87206     30047.30347  20985732.09547
    938435.54005  24082132.48905    669393.71846  24082134.57546
    235455.21507  21065465.99707    139673.29847  21065472.31347
  -1357240.93105  22995447.45805   -983454.39846  22995453.34146
   1644983.64905  24135961.61405   1268565.87845  24135966.14945
    614939.20606  22006588.70006    439150.52947  22006591.37247
   1770035.94106  23117460.04406   1197503.50646  23117466.46646
 18  5 30  0 28 55.0010000  0  9  3 14 16 22 26 27 29 31 32
    606550.08905  24152138.17705    462559.06946  24152143.77846
    311297.85906  21062998.70806    192149.89247  21063002.76347
     48395.77406  20985803.32506     30351.11947  20985806.64247
    947729.59505  24083901.22405    676635.83146  24083903.39246
    243872.47807  21067067.91907    146232.20247  21067074.21247
  -1371663.85305  22992702.91905   -994693.03546  22992708.73146
   1661325.21205  24139071.31705   1281299.54645  24139075.44245
    621058.06106  22007752.95006    443918.46747  22007755.49347
   1789131.62306  23121094.25506   1212383.24346  23121100.75946
 18  5 30  0 29  0.0010000  0  9  3 14 16 22 26 27 29 31 32
    612443.19405  24153260.13805    467151.08146  24153265.93846
    322152.17906  21065064.15306    200607.80147  21065068.25547
     48787.55106  20985877.68506     30656.40147  20985881.00147
    957020.71705  24085668.90305    683875.67346  24085671.49346
    252287.17207  21068669.04407    152789.10747  21068675.32547
  -1386091.85005  22989957.59105  -1005935.62246  22989963.43846
   1677667.44105  24142180.69205   1294033.74645  24142184.68845
    627169.90706  22008916.18506    448680.94047  22008918.77447
   1808225.10306  23124727.52106   1227261.26246  23124733.87246
 18  5 30  0 29  5.0010000  0  9  3 14 16 22 26 27 29 31 32
    618338.05505  24154380.79405    471744.47246  24154386.56046
    333010.84006  21067130.77806    209069.09147  21067134.89247
     49181.51406  20985952.66906     30963.38847  20985956.04447
    966309.17805  24087436.24705    691113.43946  24087439.58746
    260699.58207  21070269.93507    159344.22947  21070276.23947
  -1400524.62905  22987211.39605  -1017181.93646  22987216.79846
   1694010.64205  24145291.39605   1306768.72245  24145295.43845
    633275.07506  22010078.06006    453438.21147  22010080.72047
   1827316.69406  23128360.49706   1242137.81446  23128366.81346
 18  5 30  0 29 10.0010000  0  9  3 14 16 22 26 27 29 31 32
    624234.50705  24155503.60605    476339.09946  24155510.27446
    343873.68306  21069197.77806    217533.63847  21069201.85647
     49577.47506  20986027.99706     31271.92847  20986031.37247
    975594.82405  24089203.74705    698349.00746  24089206.84146
    269109.52307  21071870.09907    165897.43047  21071876.36847
  -1414962.35405  22984463.67705  -1028432.10346  22984468.81046
   1710354.60705  24148401.51305   1319504.27945  24148405.96645
    639373.39606  22011238.43506    458190.14347  22011240.96647
   1846406.20906  23131993.16106   1257012.75146  23131999.61846
 18  5 30  0 29 15.0010000  0  8  3 14 16 22 26 27 31 32
    630132.44605  24156625.78605    480934.88746  24156632.13846
    354740.67306  21071265.54406    226001.42147  21071269.79847
     49975.34306  20986103.65306     31581.95247  20986107.06347
    984877.56105  24090969.81705    705582.31346  24090973.35646
    277516.92107  21073470.01307    172448.64747  21073476.20047
  -1429405.07105  22981715.09105  -1039686.15846  22981719.97846
    645464.80706  22012397.70006    462936.69147  22012400.14947
   1865493.56706  23135625.06706   1271886.00746  23135631.25546
 18  5 30  0 29 20.0010000  0  9  3 14 16 22 23 26 27 31 32
    636031.95205  24157748.73905    485531.90146  24157754.95046
    365611.85206  21073334.48906    234472.47047  21073338.87247
     50375.20106  20986179.66906     31893.52947  20986182.98547
    994157.44405  24092735.88005    712813.39546  24092739.26746
         0.00000  24660806.02803         0.00000         0.00000
    285921.81407  21075069.47407    178997.91247  21075075.68547
  -1443852.72505  22978965.79405  -1050944.06746  22978970.95046
    651549.37906  22013555.41906    467677.90847  22013557.79847
   1884578.82506  23139257.02806   1286757.63146  23139263.07546
 18  5 30  0 29 25.0010000  0  9  3 14 16 22 23 26 27 31 32
    641933.07705  24158871.32505    490130.16546  24158877.04446
    376487.30506  21075404.10606    242946.84847  21075408.63047
     50777.12906  20986256.54406     32206.71947  20986259.76747
   1003434.49305  24094501.91905    720042.26346  24094505.31746
         2.12303  24658211.06003         0.00000         0.00000
    294324.30307  21076668.27107    185545.30647  21076674.44647
  -1458305.18905  22976215.45805  -1062205.72246  22976220.48546
    657627.21106  22014712.15306    472413.87747  22014714.55647
   1903662.05606  23142888.48906   1301627.65846  23142893.97446
 18  5 30  0 29 30.0010000  0  9  3 14 16 22 23 26 27 31 32
    647835.77905  24159994.35605    494729.66946  24159999.44246
    387366.98706  21077474.32506    251424.51547  21077478.68547
     51181.07906  20986333.05206     32521.48247  20986336.25147
   1012708.68505  24096266.45005    727268.89946  24096270.01346
    -13643.96603  24655614.52103         0.00000         0.00000
    302724.33207  21078266.84107    192090.78547  21078272.97047
  -1472762.50005  22973464.35605  -1073471.15146  22973469.78246
    663698.23607  22015867.43507    477144.54047  22015869.86047
   1922743.18506  23146519.52806   1316496.05846  23146525.17746
 18  5 30  0 29 35.0010000  0  9  3 14 16 22 23 26 27 31 32
    653740.55805  24161118.32505    499330.80146  24161124.33746
    398251.31206  21079545.34906    259905.80547  21079549.81347
     51587.49906  20986410.46606     32838.17147  20986413.61847
   1021980.50705  24098030.41905    734493.69146  24098033.74746
    -27295.99803  24653016.23903         0.00000         0.00000
    311122.33607  21079864.96607    198634.68547  21079871.20047
  -1487224.17105  22970712.66905  -1084739.97646  22970718.07146
    669762.93507  22017021.37207    481870.27247  22017023.77447
   1941822.70206  23150150.22406   1331363.20146  23150155.75546
 18  5 30  0 29 40.0010000  0  9  3 14 16 22 23 26 27 31 32
    659647.72105  24162242.06005    503933.78446  24162248.11846
    409140.74006  21081617.50506    268391.07847  21081622.05247
     51996.79406  20986488.43506     33157.10347  20986491.78647
   1031250.27805  24099795.05205    741716.87646  24099797.70046
    -40953.59303  24650417.59103         0.00000         0.00000
    319518.73107  21081462.67707    205177.32747  21081469.02847
  -1501689.79905  22967959.95805  -1096011.88446  22967965.64246
    675821.72207  22018174.44207    486591.40347  22018176.79847
   1960900.98606  23153780.42706   1346229.38746  23153785.99346
 18  5 30  0 29 45.0010000  0  9  3 14 16 22 23 26 27 31 32
    665556.97505  24163366.75505    508538.39245  24163372.77845
    420034.88806  21083690.59906    276880.02547  21083695.00547
     52408.60106  20986566.65306     33477.99047  20986569.93547
   1040517.71105  24101558.58305    748938.25346  24101561.09146
    -54617.09003  24647817.46603         0.00000         0.00000
    327913.13807  21083060.02807    211718.42147  21083066.49747
  -1516159.71805  22965206.20805  -1107287.13346  22965212.54846
    681874.25507  22019326.17707    491307.66347  22019328.39247
   1979977.66306  23157410.65306   1361094.32246  23157416.03246
 18  5 30  0 29 50.0010000  0  9  3 14 16 22 23 26 27 31 32
    671467.87605  24164491.56005    513144.28346  24164497.46646
    430933.34106  21085764.56006    285372.32647  21085769.00147
     52822.49806  20986645.47406     33800.50447  20986648.75547
   1049782.35105  24103321.45005    756157.44146  24103323.19646
    -68286.79804  24645216.32504         0.00000         0.00000
    336305.13007  21084657.05207    218257.63247  21084663.62647
  -1530634.31505  22962451.98905  -1118566.01546  22962458.66946
    687920.16106  22020476.64606    496018.76247  22020478.86047
   1999052.30806  23161040.66106   1375957.67446  23161046.31046
 18  5 30  0 29 55.0010000  0  9  3 14 16 22 23 26 27 31 32
    677380.85305  24165616.65305    517751.77546  24165622.61846
    441836.53906  21087839.24706    293868.31846  21087843.77146
     53238.90406  20986724.77806     34124.97747  20986727.97847
   1059044.62105  24105084.26305    763374.77546  24105085.85646
    -81962.33804  24642613.45804         0.00000         0.00000
    344695.15907  21086253.66907    224795.31447  21086260.43147
  -1545113.17005  22959696.65305  -1129848.22546  22959703.54846
    693959.82106  22021625.95806    500724.99747  22021628.23147
   2018125.26106  23164670.23906   1390819.69746  23164676.11046
 18  5 30  0 30  0.0010000  0  9  3 14 16 22 23 26 27 31 32
    683296.52705  24166742.92705    522361.38845  24166748.44645
    452745.09506  21089915.30206    302368.48946  21089919.62646
     53658.45606  20986804.52106     34451.89947  20986807.72047
   1068305.18905  24106845.98905    770590.78446  24106847.73546
    -95643.12403  24640010.02803         0.00000         0.00000
    353083.84607  21087849.91107    231331.94947  21087856.74347
  -1559595.58105  22956940.65305  -1141133.22146  22956947.36846
    699993.91106  22022774.32506    505426.88647  22022776.69247
   2037197.35806  23168299.41906   1405681.05646  23168305.13846
 18  5 30  0 30  5.0010000  0  9  3 14 16 22 23 26 27 31 32
    689214.22305  24167868.81705    526972.59245  24167874.45445
    463658.30706  21091991.66906    310872.28446  21091995.82946
     54080.48606  20986884.95006     34780.75147  20986888.13847
   1077563.30205  24108608.28605    777804.88346  24108610.43146
   -109329.78003  24637405.48103         0.00000         0.00000
    361470.46807  21089445.90307    237866.97647  21089452.74747
  -1574082.27505  22954184.21605  -1152421.55946  22954191.33346
    706021.71306  22023921.19206    510123.87447  22023923.63047
   2056267.75206  23171928.36406   1420541.08746  23171933.84946
 18  5 30  0 30 10.0010000  0  9  3 14 16 22 23 26 27 31 32
    695134.42205  24168994.97405    531585.73646  24169000.97446
    474576.71006  21094069.59106    319380.12646  21094073.63446
     54505.48406  20986965.84106     35111.92147  20986968.95847
   1086819.46905  24110369.44205    785017.48545  24110371.91545
   -123021.78604  24634800.50504         0.00000         0.00000
    369855.54607  21091041.55207    244400.80247  21091048.45847
  -1588572.72405  22951426.73905  -1163712.83146  22951433.56046
    712043.75606  22025067.27806    514816.37047  22025069.78647
   2075336.98606  23175557.15306   1435400.21546  23175563.10646
 18  5 30  0 30 15.0010000  0  9  3 14 16 22 23 26 27 31 32
    701056.69205  24170122.26305    536200.50646  24170128.42746
    485499.88506  21096148.27806    327891.68646  21096152.19246
     54933.03806  20987047.15306     35445.08347  20987050.15347
   1096073.28005  24112130.06705    792228.23745  24112132.43545
   -136719.54604  24632194.05204         0.00000         0.00000
    378238.65907  21092636.79407    250933.09647  21092643.68847
  -1603067.30505  22948668.33305  -1175007.31046  22948675.36846
    718059.63006  22026212.04406    519504.05747  22026214.49347
   2094404.63906  23179185.49706   1450258.10946  23179191.26346
 18  5 30  0 30 20.0010000  0  9  3 14 16 22 23 26 27 31 32
    706981.66805  24171249.51305    540817.37346  24171255.57146
    496428.43606  21098227.88006    336407.43746  21098231.74746
     55363.76506  20987129.20806     35780.71747  20987132.14947
   1105325.32505  24113890.62205    799437.63745  24113892.81345
   -150422.42604  24629586.43504         0.00000         0.00000
    386620.42407  21094231.77807    257464.33747  21094238.66147
  -1617565.37605  22945909.73905  -1186304.50246  22945916.46646
    724069.96906  22027355.53606    524187.43947  22027357.96247
   2113471.29506  23182814.22406   1465115.23146  23182820.25946
 18  5 30  0 30 25.0010000  0  9  3 14 16 22 23 26 27 31 32
    712909.32605  24172378.31005    545436.32046  24172384.02846
    507362.33206  21100308.35606    344927.35146  21100312.07146
     55797.64306  20987211.57506     36118.80547  20987214.72847
   1114575.58805  24115651.17705    806645.63545  24115654.10645
   -164130.46604  24626978.22404         0.00000         0.00000
    395000.79807  21095826.63007    263994.49547  21095833.54847
  -1632066.96305  22943150.09905  -1197604.43646  22943156.73146
    730074.72206  22028498.34106    528866.46347  22028500.88447
   2132536.94606  23186442.10606   1479971.58046  23186447.80246
 18  5 30  0 30 30.0010000  0  9  3 14 16 22 23 26 27 31 32
    718839.93805  24173506.63805    550057.57746  24173512.53246
    518301.88206  21102390.20806    353451.66946  21102393.89946
     56234.94006  20987294.95806     36459.55547  20987297.89947
   1123824.32705  24117410.82505    813852.45545  24117414.31745
   -177843.36705  24624368.52105         0.00000         0.00000
    403380.06507  21097421.07507    270523.78947  21097428.00547
  -1646571.75005  22940390.10605  -1208906.86646  22940396.63446
    736074.18806  22029640.13806    533541.36847  22029642.72847
   2151601.83706  23190070.05206   1494827.31646  23190075.81746
 18  5 30  0 30 35.0010000  0  9  3 14 16 22 23 26 27 31 32
    724773.62205  24174635.68505    554681.23046  24174641.68546
    529247.21406  21104472.87206    361980.49446  21104476.72846
     56675.78006  20987378.78606     36803.06847  20987381.75147
   1133071.72405  24119170.40305    821058.21145  24119173.42745
   -191560.97005  24621758.11405         0.00000         0.00000
    411758.34407  21099015.49707    277052.31247  21099022.31747
  -1661079.61605  22937629.12205  -1220211.69146  22937635.74346
    742068.51206  22030780.66906    538212.26447  22030783.16547
   2170666.11706  23193697.74706   1509682.58146  23193703.61846
 18  5 30  0 30 40.0010000  0  9  3 14 16 22 23 26 27 31 32
    730710.45905  24175765.26305    559307.32946  24175770.72446
    540198.43706  21106557.27106    370513.91146  21106561.30246
     57120.25806  20987463.32506     37149.41547  20987466.27847
   1142317.81605  24120930.01305    828262.96345  24120934.78245
   -205283.18505  24619146.90305         0.00000         0.00000
    420135.72607  21100609.56007    283580.13647  21100616.45447
  -1675590.44505  22934867.62205  -1231518.82846  22934874.16146
    748057.77006  22031920.38006    542879.21347  22031922.95847
   2189729.86506  23197325.45006   1524537.43346  23197330.70046
 18  5 30  0 30 45.0010000  0  9  3 14 16 22 23 26 27 31 32
    736650.69305  24176895.66105    563936.07746  24176900.84146
    551155.77106  21108642.16906    379052.08746  21108646.25946
     57568.62006  20987548.64606     37498.78847  20987551.43547
   1151562.82305  24122689.98905    835466.86845  24122694.02145
   -219009.71005  24616535.05205     -8555.50055  24616536.99745
    428512.44907  21102203.70007    290107.44947  21102210.57147
  -1690103.94205  22932105.89605  -1242828.03846  22932112.02446
    754042.24506  22033059.45806    547542.43847  22033062.07147
   2208793.31106  23200953.25506   1539392.04746  23200958.35346
 18  5 30  0 30 50.0010000  0  9  3 14 16 22 23 26 27 31 32
    742594.00705  24178026.73905    568567.24546  24178032.54046
    562118.88006  21110728.61406    387594.76546  21110732.73946
     58020.56906  20987634.59906     37850.95347  20987637.29447
   1160806.44905  24124448.23105    842669.67645  24124450.90345
   -232740.84605  24613921.66905    -19255.07745  24613923.38045
    436888.20507  21103797.43507    296634.01247  21103804.25547
  -1704620.42405  22929343.66905  -1254139.57546  22929349.78646
    760021.63606  22034197.06006    552201.70747  22034199.56747
   2227856.16206  23204580.73906   1554246.20346  23204586.10646
 18  5 30  0 30 55.0010000  0  9  3 14 16 22 23 26 27 31 32
    748540.33805  24179157.69205    573200.75846  24179163.90346
    573087.69706  21112815.35606    396141.89146  21112819.41146
     58475.97306  20987721.34106     38205.81647  20987724.21247
   1170048.56805  24126207.38005    849871.33745  24126209.50145
   -246476.67705  24611308.07505    -29958.32945  24611309.98545
    445262.90207  21105391.16907    303159.74447  21105397.95447
  -1719139.96105  22926580.88805  -1265453.50846  22926586.79446
    765995.89006  22035333.88806    556856.97547  22035336.37247
   2246918.29906  23208208.27106   1569099.80046  23208213.91946
 18  5 30  0 31  0.0010000  0  9  3 14 16 22 23 26 27 31 32
    754490.07505  24180289.77105    577836.92845  24180296.42745
    584062.65706  21114904.17706    404693.80746  21114908.39646
     58935.30106  20987808.73906     38563.73847  20987811.57547
   1179289.58605  24127966.13005    857072.13045  24127968.68545
   -260216.76705  24608693.56005    -40664.88445  24608694.56745
    453636.93207  21106984.70807    309684.95847  21106991.37647
  -1733662.10205  22923817.16105  -1276769.47546  22923822.70446
    771965.40406  22036470.00506    561508.54147  22036472.43147
   2265980.14406  23211835.48106   1583953.17846  23211841.04846
 18  5 30  0 31  5.0010000  0  9  3 14 16 22 23 26 27 31 32
    760442.37305  24181422.27105    582475.10546  24181428.47046
    595042.90206  21116993.80206    413249.84646  21116998.09146
     59397.70306  20987896.75506     38924.05747  20987899.62647
   1188528.71905  24129724.26305    864271.43445  24129726.10345
   -273961.93305  24606077.75505    -51375.38345  24606079.14945
    462009.47507  21108577.84107    316209.01747  21108584.36847
  -1748187.69005  22921052.71605  -1288088.11146  22921057.68546
    777929.32706  22037605.02106    566155.74547  22037607.54047
   2285040.84505  23215462.46605   1598805.67046  23215468.06746
 18  5 30  0 31 10.0010000  0  9  3 14 16 22 23 26 27 31 32
    766398.50105  24182555.99705    587116.22846  24182563.77146
    606029.69306  21119084.31706    421810.98046  21119088.72446
     59864.42206  20987985.44206     39287.73347  20987988.24347
   1197767.20305  24131481.93505    871470.24145  24131484.13845
   -287710.87205  24603461.85605    -62088.84645  24603462.45445
    470381.78407  21110171.03607    322732.89547  21110177.52847
  -1762715.42505  22918288.74705  -1299408.41046  22918293.76346
    783888.95706  22038738.91906    570799.60247  22038741.54447
   2304101.66905  23219089.23105   1613658.24746  23219095.09146
 18  5 30  0 31 15.0010000  0  9  3 14 16 22 23 26 27 31 32
    772357.98005  24183690.91105    591759.89346  24183699.68146
    617022.57106  21121176.34106    430376.85747  21121180.67747
     60335.00606  20988074.94206     39654.41847  20988077.90747
   1207004.55105  24133240.34905    878668.15145  24133241.56745
   -301464.06705  24600844.31705    -72805.63145  24600845.10345
    478753.37307  21111764.31007    329256.20747  21111770.63847
  -1777245.74705  22915523.13005  -1310730.73146  22915528.09946
    789843.83106  22039872.07506    575439.76147  22039874.47847
   2323162.12205  23222716.38805   1628510.53446  23222722.25946
 18  5 30  0 31 20.0010000  0  9  3 14 16 22 23 26 27 31 32
    778321.38305  24184824.70805    596406.67246  24184832.73946
    628022.10206  21123269.22406    438947.91947  21123273.43147
     60809.99906  20988165.13806     40024.53747  20988168.17347
   1216241.30304  24134997.85604    885865.60145  24134999.69645
   -315220.92105  24598226.02105    -83525.24745  24598227.02845
    487124.81707  21113357.29407    335779.40947  21113363.64647
  -1791778.09205  22912757.80205  -1322054.62846  22912763.26346
    795794.54806  22041004.31006    580076.68547  22041006.59547
   2342222.78505  23226343.78605   1643362.98546  23226349.62246
 18  5 30  0 31 25.0010000  0  9  3 14 16 22 23 26 27 31 32
    784288.22805  24185961.00505    601056.18846  24185967.39246
    639027.86606  21125363.92706    447523.83547  21125368.12247
     61288.99806  20988256.54406     40397.78647  20988259.72047
   1225477.01104  24136755.36404    893062.25645  24136757.08745
   -328981.83505  24595607.48905    -94248.03845  24595608.80245
    495495.68707  21114950.04407    342302.16147  21114956.30247
  -1806312.87505  22909991.90305  -1333380.43246  22909997.58746
    801740.63406  22042135.92706    584709.99847  22042138.37647
   2361283.22605  23229970.98105   1658215.26746  23229976.89946
 18  5 30  0 31 30.0010000  0  9  3 14 16 22 23 26 27 31 32
    790258.45605  24187097.06705    605708.32946  24187104.14946
    650039.72706  21127459.21606    456104.50547  21127463.52847
     61771.86306  20988348.64606     40774.05047  20988351.82147
   1234711.59704  24138512.64604    900258.06345  24138514.42745
   -342746.92705  24592988.29405   -104974.06645  24592989.04445
    503865.84407  21116542.79407    348824.35747  21116548.95847
  -1820850.18905  22907225.77105  -1344708.20546  22907231.41946
    807682.02906  22043266.77106    589339.65647  22043269.22047
   2380343.30905  23233597.95805   1673067.26546  23233603.86446
 18  5 30  0 31 35.0010000  0  9  3 14 16 22 23 26 27 31 32
    796232.57605  24188233.45005    610363.47146  24188240.03646
    661058.22306  21129555.90306    464690.33947  21129560.28647
     62259.15506  20988441.10606     41153.75847  20988444.24747
   1243945.59304  24140269.34904    907453.36245  24140271.59945
   -356515.67005  24590367.65305   -115702.95745  24590368.52145
    512235.83207  21118135.59907    355346.42547  21118141.90347
  -1835389.45505  22904458.78605  -1356037.50246  22904464.76346
    813619.23907  22044396.23907    593966.05447  22044398.73547
   2399403.56005  23237225.16905   1687919.41246  23237231.29846
 18  5 30  0 31 40.0010000  0  9  3 14 16 22 23 26 27 31 32
    802210.00305  24189371.12205    615021.21046  24189377.76746
    672082.76806  21131654.16906    473280.88847  21131658.72847
     62750.25906  20988534.41906     41536.42947  20988537.44247
   1253178.37104  24142026.51304    914647.71145  24142028.93845
   -370288.63405  24587747.24705   -126435.12945  24587747.90345
    520605.05307  21119728.15307    361867.89547  21119734.58747
  -1849931.27505  22901691.69205  -1367368.78146  22901698.02146
    819551.71007  22045525.31707    598588.75947  22045527.77847
   2418463.40005  23240851.85605   1702771.22846  23240857.78646
 18  5 30  0 31 45.0010000  0  9  3 14 16 22 23 26 27 31 32
    808190.85405  24190508.86405    619681.60346  24190514.89946
    683113.52906  21133752.97406    481876.28447  21133757.45047
     63245.32306  20988628.84106     41922.18847  20988631.88847
   1262410.08803  24143783.11403    921841.25245  24143784.27445
   -384065.63005  24585125.55205   -137170.41945  24585126.25545
    528973.64707  21121320.78607    368388.87747  21121327.23147
  -1864475.46005  22898923.79405  -1378701.88346  22898929.81746
    825479.57407  22046653.31707    603207.87547  22046655.75547
   2437522.96105  23244478.98105   1717622.81246  23244485.13446
 18  5 30  0 31 50.0010000  0  9  3 14 16 22 23 26 27 31 32
    814175.81305  24191648.09105    624345.20946  24191654.39646
    694151.12706  21135853.32506    490477.00447  21135857.75547
     63744.99106  20988724.05206     42311.54247  20988727.12247
   1271641.38203  24145539.35603    929034.44545  24145542.35645
   -397845.98105  24582503.21605   -147908.34245  24582504.90345
    537342.27307  21122913.26307    374909.88347  21122919.64947
  -1879021.34705  22896155.79405  -1390036.33646  22896162.07546
    831403.47907  22047780.51307    607823.90447  22047783.16147
   2456582.89005  23248106.10605   1732474.68546  23248112.04846
 18  5 30  0 31 55.0010000  0  9  3 14 16 22 23 26 27 31 32
    820164.89805  24192787.73905    629012.03146  24192793.64646
    705195.61706  21137955.29406    499083.09947  21137959.52447
     64249.31606  20988819.92706     42704.52347  20988822.98547
   1280872.30003  24147296.09903    936227.40845  24147299.15745
   -411629.61305  24579880.82505   -158648.84345  24579882.63045
    545710.97807  21124505.73107    381430.95147  21124512.08347
  -1893568.88005  22893387.84905  -1401372.07346  22893394.09546
    837323.53807  22048907.19207    612436.93847  22048909.91147
   2475643.24105  23251733.23105   1747326.88346  23251739.41946
 18  5 30  0 32  0.0010000  0  9  3 14 16 22 23 26 27 31 32
    826158.15905  24193927.84105    633682.10346  24193933.92346
    716247.09006  21140057.95806    507694.63647  21140062.23547
     64758.33306  20988916.90306     43101.15947  20988919.95047
   1290102.89303  24149052.87203    943420.06845  24149054.94645
   -425416.52005  24577257.00505   -169391.90345  24577259.02145
    554079.79107  21126098.47407    387952.10147  21126104.87247
  -1908117.96005  22890619.14605  -1412709.02146  22890625.23946
    843239.77906  22050032.87206    617046.99947  22050035.81347
   2494704.01605  23255360.45005   1762179.42246  23255366.88446
 18  5 30  0 32  5.0010000  0  9  3 14 16 22 23 26 27 31 32
    832155.54305  24195069.65305    638355.39346  24195075.64246
    727305.44106  21142162.40306    516311.53046  21142166.58746
     65272.02906  20989014.58306     43501.44047  20989017.70047
   1299333.10003  24150809.85603    950612.43745  24150812.88045
   -439206.71305  24574632.54405   -180137.52145  24574633.83345
    562448.66107  21127690.76307    394473.29647  21127697.07947
  -1922668.67305  22887850.37205  -1424047.24146  22887856.71246
    849152.13106  22051158.27806    621654.02847  22051161.17347
   2513765.20405  23258987.46605   1777032.29246  23258993.92346
 18  5 30  0 32 10.0010000  0  9  3 14 16 22 23 26 27 31 32
    838156.98905  24196211.35605    643031.84446  24196217.75546
    738370.62406  21144268.00506    524933.74846  21144272.15346
     65790.33306  20989113.21606     43905.31247  20989116.18147
   1308562.88803  24152565.50503    957804.45845  24152568.70445
   -453000.21805  24572008.05205   -190885.68445  24572009.01345
    570817.52807  21129283.35607    400994.49047  21129289.67347
  -1937220.99305  22885081.38005  -1435386.71946  22885088.03646
    855060.58806  22052282.37206    626258.01547  22052285.37247
   2532826.72705  23262614.62205   1791885.41146  23262621.16146
 18  5 30  0 32 15.0010000  0  9  3 14 16 22 23 26 27 31 32
    844162.31305  24197354.33305    647711.31046  24197360.59146
    749442.49806  21146375.00506    533561.17546  21146379.09546
     66313.04606  20989212.54406     44312.62047  20989215.43847
   1317791.99803  24154321.78603    964995.97745  24154326.25145
   -466797.21305  24569382.61405   -201636.57945  24569383.77445
    579186.18107  21130875.89607    407515.51347  21130882.23547
  -1951775.17105  22882311.55205  -1446727.64346  22882318.16146
    860964.93807  22053405.97407    630858.80347  22053408.96247
   2551888.37305  23266241.81005   1806738.61946  23266248.68146
 18  5 30  0 32 20.0010000  0  9  3 14 16 22 23 26 27 31 32
    850171.77405  24198498.10605    652393.99946  24198504.47046
    760521.27806  21148483.29406    542193.98746  21148487.29046
     66840.45706  20989312.94206     44723.59147  20989315.64947
   1327020.68703  24156078.52803    972187.17145  24156082.86445
   -480597.42805  24566756.86405   -212389.98045  24566758.64645
    587554.91107  21132468.43507    414036.60047  21132474.71647
  -1966330.85405  22879541.70805  -1458069.73346  22879548.09546
    866865.47407  22054528.56007    635456.62247  22054531.53647
   2570950.40705  23269869.42705   1821592.13746  23269876.50946
 18  5 30  0 32 25.0010000  0  9  3 14 16 22 23 26 27 31 32
    856185.31705  24199642.06005    657079.88046  24199648.82146
    771606.93006  21150592.77106    550832.15646  21150596.76746
     67372.50806  20989414.24706     45138.17847  20989417.02447
   1336248.97803  24157833.18503    979378.06745  24157836.22045
   -494400.85105  24564130.15305   -223145.90045  24564132.05245
    595923.66407  21134060.81707    420557.70447  21134067.12247
  -1980888.05205  22876771.82505  -1469413.00346  22876777.75546
    872762.20207  22055650.94207    640051.46947  22055653.96647
   2590012.83605  23273497.01305   1836445.95746  23273504.25946
 18  5 30  0 32 30.0010000  0  9  3 14 16 22 23 26 27 31 32
    862203.15905  24200787.45805    661769.11046  24200793.61046
    782699.67606  21152703.44206    559475.85446  21152707.39246
     67909.39706  20989516.37206     45556.53247  20989519.07947
   1345477.00002  24159589.35602    986568.72645  24159593.52845
   -508207.30605  24561502.40305   -233904.17145  24561504.45445
    604292.65907  21135653.54407    427078.99347  21135659.91947
  -1995446.58806  22874001.73906  -1480757.32546  22874007.51746
    878655.32007  22056772.48107    644643.50247  22056775.29447
   2609075.80405  23277124.39605   1851300.19646  23277131.95846
 18  5 30  0 32 35.0010000  0  9  3 14 16 22 23 26 27 31 32
    868225.57505  24201933.23105    666461.89646  24201939.34946
    793799.79906  21154815.79406    568125.30146  21154819.80246
     68451.40806  20989619.52106     45978.87847  20989622.21647
   1354705.07902  24161345.45802    993759.44145  24161348.10645
   -522016.45805  24558874.77105   -244664.56045  24558876.92745
    612662.15607  21137246.23107    433600.67747  21137252.61847
  -2010006.13606  22871231.12206  -1492102.43546  22871236.97046
    884545.07907  22057893.27807    649232.91647  22057895.90347
   2628139.60205  23280752.38805   1866155.09146  23280760.23146
 18  5 30  0 32 40.0010000  0  9  3 14 16 22 23 26 27 31 32
    874252.44305  24203080.31005    671158.15346  24203086.56746
    804907.18306  21156929.64606    576780.40646  21156933.63046
     68998.42106  20989723.68506     46405.12247  20989726.42747
   1363933.08002  24163102.63002   1000950.07245  24163105.50145
   -535828.42905  24556246.63005   -255427.14145  24556248.08345
    621032.02907  21138838.96607    440122.65447  21138845.41147
  -2024566.79506  22868459.96606  -1503448.40446  22868465.32146
    890431.38907  22059013.49707    653819.63847  22059015.98147
   2647204.12105  23284379.91105   1881010.55246  23284388.17746
 18  5 30  0 32 45.0010000  0  9  3 14 16 22 23 26 27 31 32
    880283.95305  24204228.20805    675858.03846  24204234.27846
    816022.02706  21159044.81706    585441.31546  21159048.81346
     69550.65206  20989828.78606     46835.43647  20989831.42347
   1373161.10603  24164858.98903   1008140.75945  24164860.52445
   -549643.02905  24553617.20805   -266191.76645  24553618.80245
    629402.45907  21140431.67707    446645.06847  21140438.04047
  -2039128.39806  22865689.14606  -1514795.09146  22865694.20846
    896314.45107  22060133.02107    658403.83447  22060135.51747
   2666269.50905  23288008.28605   1895866.68346  23288016.54046
 18  5 30  0 32 50.0010000  0  9  3 14 16 22 23 26 27 31 32
    886320.25605  24205376.46605    680561.64646  24205382.70046
    827144.52006  21161161.24706    594108.18546  21161165.13846
     70108.28506  20989934.69206     47269.95947  20989937.24747
   1382389.47403  24166614.92703   1015331.68645  24166615.25545
   -563459.98705  24550988.18505   -276958.22745  24550989.68545
    637773.64707  21142024.70807    453168.07047  21142031.15347
  -2053690.65906  22862917.82506  -1526142.29746  22862922.95846
    902194.43307  22061251.79407    662985.63547  22061254.13847
   2685335.98205  23291636.23905   1910723.66146  23291644.68146
 18  5 30  0 32 55.0010000  0  9  3 14 16 22 23 26 27 31 32
    892361.09605  24206526.31705    685268.78846  24206532.27146
    838274.34906  21163279.12206    602780.77246  21163283.01346
     70670.97806  20990041.79406     47708.42147  20990044.50147
   1391617.81602  24168370.81002   1022522.58845  24168372.32145
   -577279.66205  24548358.07505   -287726.78845  24548359.23545
    646145.27807  21143617.67707    459691.41847  21143624.12247
  -2068253.92306  22860146.68506  -1537490.28646  22860151.29046
    908071.06607  22062370.06707    667564.82847  22062372.54047
   2704403.22405  23295264.81705   1925581.23446  23295273.21246
 18  5 30  0 33  0.0010000  0  9  3 14 16 22 23 26 27 31 32
    898406.64305  24207676.91905    689979.59946  24207683.27146
    849411.70306  21165398.46606    611459.22146  21165402.25146
     71238.94406  20990149.88006     48150.99447  20990152.62247
   1400846.27002  24170126.72402   1029713.57945  24170128.70445
   -591101.83505  24545728.11405   -298497.32545  24545730.31745
    654517.53807  21145211.06007    466215.25747  21145217.47047
  -2082817.96406  22857374.94206  -1548838.87446  22857379.66546
    913944.56207  22063487.74707    672141.58147  22063490.16147
   2723471.38505  23298893.24705   1940439.52546  23298901.66546
 18  5 30  0 33  5.0010000  0  9  3 14 16 22 23 26 27 31 32
    904456.86105  24208827.90305    694694.04046  24208834.22046
    860556.58206  21167519.38006    620143.53646  21167522.98946
     71812.14606  20990259.11406     48597.64247  20990261.73947
   1410074.86602  24171882.80202   1036904.67245  24171883.24745
   -604926.47305  24543097.48905   -309269.77245  24543099.73945
    662890.40307  21146804.24707    472739.56347  21146810.68147
  -2097382.77206  22854603.45806  -1560188.07546  22854608.14646
    919814.93007  22064604.84907    676715.89047  22064607.16947
   2742540.49605  23302522.05205   1955298.56546  23302530.10646
 18  5 30  0 33 10.0010000  0  9  3 14 16 22 23 26 27 31 32
    910511.75205  24209980.33305    699412.14146  24209986.66146
    871708.96306  21169641.58306    628833.70146  21169645.25146
     72390.61406  20990369.08306     49048.39847  20990371.60347
   1419303.58202  24173639.44202   1044095.84945  24173641.93845
   -618753.49505  24540466.28605   -320044.07045  24540468.89945
    671263.88507  21148397.71607    479264.35547  21148404.09147
  -2111948.32806  22851831.67706  -1571537.85546  22851836.32946
    925682.26107  22065721.52807    681287.83047  22065723.90747
   2761610.53805  23306150.79405   1970158.33246  23306158.61446
 18  5 30  0 33 15.0010000  0  9  3 14 16 22 23 26 27 31 32
    916571.73805  24211133.52105    704134.20546  24211139.84946
    882869.26406  21171765.49706    637530.03546  21171769.18846
     72974.78006  20990480.38806     49503.59147  20990482.91947
   1428532.79202  24175394.85602   1051287.40945  24175399.77845
   -632582.55205  24537834.21605   -330819.96445  24537836.22045
    679638.38307  21149991.25507    485789.93547  21149997.60647
  -2126514.18606  22849059.84906  -1582887.87146  22849064.60646
    931546.84407  22066837.29407    685857.63447  22066839.76747
   2780681.89505  23309780.33305   1985019.11546  23309788.32946
 18  5 30  0 33 20.0010000  0  9  3 14 16 22 23 26 27 31 32
    922636.27105  24212287.50505    708859.81046  24212293.99746
    894036.93506  21173890.50506    646232.10846  21173894.30246
     73564.02306  20990592.34906     49962.74447  20990594.92747
   1437762.03801  24177151.75501   1058479.02745  24177158.55245
   -646414.16905  24535202.13005   -341597.83745  24535204.04045
    688013.36107  21151584.96607    492315.89447  21151591.16547
  -2141080.89305  22846287.49705  -1594238.54646  22846292.48946
    937408.12007  22067952.69207    690424.86147  22067955.07147
   2799754.05505  23313409.45005   1999880.52846  23313417.22446
 18  5 30  0 33 25.0010000  0  9  3 14 16 22 23 26 27 31 32
    928705.99005  24213442.64605    713589.45546  24213448.83346
    905212.61906  21176017.13806    654940.43247  21176020.85347
     74159.05806  20990705.52106     50426.40847  20990708.11047
   1446991.92102  24178908.11402   1065671.20545  24178913.49345
   -660247.65405  24532569.98905   -352377.17445  24532572.00545
    696389.45007  21153179.07507    498842.71747  21153185.31047
  -2155647.76605  22843515.37205  -1605589.34946  22843521.00946
    943266.79907  22069067.77107    694990.06347  22069070.11447
   2818827.64405  23317038.95005   2014743.05046  23317046.73546
 18  5 30  0 33 30.0010000  0  9  3 14 16 22 23 26 27 31 32
    934780.88605  24214598.97405    718323.13846  24214605.75946
    916396.35906  21178145.54406    663655.03047  21178149.25947
     74759.88806  20990819.93506     50894.58947  20990822.47847
   1456222.43802  24180664.96602   1072863.81245  24180667.88445
   -674082.95305  24529937.28605   -363157.91945  24529939.26745
    704766.66307  21154772.96607    505370.41647  21154779.20047
  -2170214.79305  22840743.46605  -1616940.27646  22840749.73546
    949122.88207  22070181.94207    699553.23947  22070184.27447
   2837902.64005  23320669.16105   2029606.66746  23320676.68846
 18  5 30  0 33 35.0010000  0  9  3 14 16 22 23 26 27 31 32
    940861.09205  24215755.52105    723060.96246  24215762.18846
    927588.23906  21180275.29406    672375.97747  21180278.96247
     75366.61206  20990935.57506     51367.36347  20990938.09547
   1465453.66802  24182420.73902   1080056.88845  24182427.73945
   -687920.03405  24527304.20005   -373940.04645  24527305.81745
    713145.07907  21156367.30207    511899.04847  21156373.63047
  -2184781.85105  22837971.35605  -1628291.21646  22837977.35646
    954976.36407  22071296.00507    704114.38847  22071298.38447
   2856979.17605  23324298.89605   2044471.48446  23324306.22446
 18  5 30  0 33 40.0010000  0  9  3 14 16 22 23 26 27 31 32
    946946.28005  24216913.68505    727802.65946  24216920.42346
    938787.98306  21182406.63006    681103.04747  21182410.40347
     75978.95106  20991052.27806     51844.51447  20991054.76347
   1474685.32902  24184177.72402   1087250.38245  24184181.81345
   -701759.14405  24524670.59905   -384723.74245  24524671.84145
    721524.43907  21157961.88807    518428.41547  21157968.21647
  -2199349.21005  22835199.60605  -1639642.39746  22835205.64246
    960827.15507  22072409.23107    708673.44147  22072411.66947
   2876056.93505  23327929.81705   2059337.25246  23327937.21646
 18  5 30  0 33 45.0010000  0  9  3 14 16 22 23 26 27 31 32
    953036.28105  24218072.45005    732548.11046  24218079.53246
    949995.40506  21184539.24706    689836.10647  21184543.03247
     76596.69906  20991169.48106     52325.88047  20991171.91947
   1483917.22702  24185934.06002   1094444.08445  24185937.44645
   -715600.43905  24522036.52105   -395509.14945  24522038.09145
    729904.52907  21159556.56707    524958.35647  21159562.89647
  -2213916.98705  22832427.72405  -1650993.89846  22832434.00546
    966675.02407  22073522.10607    713230.21947  22073524.42747
   2895135.75205  23331560.38805   2074203.84846  23331567.32946
 18  5 30  0 33 50.0010000  0  9  3 14 16 22 23 26 27 31 32
    959131.39805  24219232.23905    737297.54746  24219239.42746
    961210.81606  21186673.42706    698575.39046  21186677.31746
     77220.15406  20991288.17706     52811.69347  20991290.80247
   1493149.67702  24187691.86402   1101638.20445  24187696.17745
   -729443.58905  24519402.56705   -406295.99945  24519404.52445
    738285.67907  21161151.41907    531489.12547  21161157.64247
  -2228484.91405  22829655.26305  -1662345.52346  22829661.60346
    972520.34207  22074634.40307    717785.00647  22074636.82947
   2914215.90905  23335190.89605   2089071.49146  23335197.62246
 18  5 30  0 33 55.0010000  0  9  3 14 16 22 23 26 27 31 32
    965230.75805  24220393.02105    742050.28946  24220399.56046
    972433.30106  21188808.92706    707320.17947  21188812.93547
     77848.45906  20991407.77106     53301.28347  20991410.44247
   1502381.71901  24189447.98101   1108831.99245  24189454.40345
   -743289.48705  24516767.82505   -417084.98645  24516769.60645
    746666.97607  21162746.34107    538020.00347  21162752.62247
  -2243053.82305  22826883.03605  -1673697.92246  22826889.20046
    978362.19907  22075746.07507    722337.09647  22075748.59547
   2933296.52505  23338822.42705   2103939.48746  23338829.23546
 18  5 30  0 34  0.0010000  0  9  3 14 16 22 23 26 27 31 32
    971335.49005  24221554.89605    746807.21646  24221561.63446
    983664.06206  21190946.11406    716071.41347  21190950.07547
     78482.75906  20991528.32506     53795.54247  20991531.11447
   1511614.60501  24191204.91901   1116026.49145  24191211.64645
   -757136.91005  24514132.95005   -427875.18045  24514134.79045
    755049.58407  21164341.41907    544551.90247  21164347.73547
  -2257622.57905  22824110.84905  -1685050.20246  22824117.01346
    984201.72807  22076857.18507    726887.37247  22076859.68147
   2952378.74605  23342453.38805   2118808.73446  23342460.32946
 18  5 30  0 34  5.0010000  0  9  3 14 16 22 23 26 27 31 32
    977445.92105  24222717.70805    751568.58646  24222723.81346
    994903.42906  21193084.77106    724829.35947  21193088.59147
     79123.38906  20991650.48106     54294.73147  20991653.21247
   1520848.61501  24192963.02801   1123221.82645  24192968.59545
   -770985.56305  24511497.63005   -438666.31246  24511498.76746
    763433.81107  21165937.02807    551085.06147  21165943.39247
  -2272190.78505  22821338.67705  -1696402.06046  22821344.87646
    990039.29107  22077968.13807    731436.11947  22077970.69247
   2971462.90005  23346084.91105   2133679.47846  23346091.62646
 18  5 30  0 34 10.0010000  0  9  3 14 16 22 23 26 27 31 32
    983560.75205  24223880.99705    756333.38046  24223886.61046
   1006150.07606  21195224.80206    733592.97847  21195228.52847
     79769.03006  20991773.23106     54797.83047  20991776.12647
   1530082.47102  24194720.48102   1130417.06045  24194727.75145
   -784836.71105  24508862.10605   -449459.41545  24508862.96245
    771818.37007  21167532.45807    557618.47947  21167538.84547
  -2286759.73805  22818566.10605  -1707754.48846  22818572.28246
    995873.58607  22079078.28607    735982.32347  22079080.75947
   2990547.66105  23349716.64605   2148550.69946  23349723.14946
 18  5 30  0 34 15.0010000  0  9  3 14 16 22 23 26 27 31 32
    989680.97705  24225045.68505    761102.37446  24225051.26346
   1017405.01706  21197366.60606    742363.06146  21197370.33346
     80420.71106  20991897.21606     55305.63247  20991900.08747
   1539317.12002  24196476.88802   1137612.87945  24196480.79045
   -798689.32005  24506225.70805   -460253.66245  24506225.93145
    780204.26007  21169128.18507    564152.93947  21169134.59547
  -2301328.44205  22815793.63805  -1719106.72446  22815799.86046
   1001705.65307  22080188.19207    740526.79447  22080190.75947
   3009634.05205  23353348.80205   2163423.19146  23353355.13046
 18  5 30  0 34 20.0010000  0  9  3 14 16 22 23 26 27 31 32
    995807.32205  24226211.71605    765876.13946  24226217.28246
   1028668.94006  21199510.09906    751140.14346  21199514.10646
     81079.10806  20992022.51306     55818.67047  20992025.41947
   1548553.25302  24198234.64602   1144809.85645  24198240.03645
   -812542.67105  24503589.50505   -471048.48045  24503589.73945
    788592.18007  21170724.18507    570688.97847  21170730.64247
  -2315896.14105  22813021.85605  -1730458.17146  22813028.03246
   1007536.17607  22081297.68507    745070.05747  22081300.13447
   3028722.76405  23356981.30205   2178297.49646  23356987.51346
 18  5 30  0 34 25.0010000  0  9  3 14 16 22 23 26 27 31 32
   1001938.81406  24227378.38006    770653.92546  24227383.70046
   1039940.90506  21201654.91106    759923.49346  21201659.02446
     81743.30606  20992149.02106     56336.22647  20992151.86847
   1557789.98502  24199991.88002   1152007.30245  24199994.37645
   -826397.69105  24500953.00505   -481844.59845  24500952.58345
    796981.18107  21172320.73107    577225.86347  21172327.16547
  -2330463.76006  22810249.70806  -1741809.55346  22810255.94246
   1013364.23007  22082406.78607    749611.39547  22082409.44647
   3047812.85605  23360613.75505   2193172.87946  23360620.00146
 18  5 30  0 34 30.0010000  0  9  3 14 16 22 23 26 27 31 32
   1008075.64105  24228545.76305    775435.86646  24228551.08346
   1051221.09206  21203801.81706    768713.24646  21203805.84946
     82413.44406  20992276.53606     56858.41347  20992279.36047
   1567027.42202  24201750.41102   1159205.26245  24201753.73945
   -840254.22105  24498316.64605   -492641.88645  24498316.68145
    805371.44007  21173917.41907    583763.72347  21173923.89947
  -2345031.10106  22807477.67706  -1753160.72446  22807483.93546
   1019189.99807  22083515.48907    754150.95447  22083517.96247
   3066904.49405  23364246.89605   2208049.46346  23364253.08346
 18  5 30  0 34 35.0010000  0  9  3 14 16 22 23 26 27 31 32
   1014218.03405  24229715.35605    780222.14446  24229720.72446
   1062509.77306  21205949.88006    777509.61746  21205953.70046
     83089.77706  20992405.01306     57385.42247  20992407.90747
   1576265.84701  24203508.31701   1166404.01745  24203513.21645
   -854111.97805  24495679.00505   -503440.14745  24495679.42745
    813763.19107  21175514.29407    590302.74747  21175520.93847
  -2359597.92306  22804705.50506  -1764511.48946  22804711.90346
   1025013.70207  22084623.47407    758688.89647  22084625.92347
   3085997.91205  23367880.24705   2222927.43746  23367886.51746
 18  5 30  0 34 40.0010000  0  9  3 14 16 22 23 26 27 31 32
   1020365.80206  24230884.84106    785012.61446  24230890.67746
   1073806.69606  21208099.26306    786312.40846  21208102.94246
     83772.11406  20992535.04406     57917.11047  20992537.85647
   1585505.02201  24205265.61401   1173603.36245  24205271.89645
   -867971.11105  24493042.22405   -514239.47145  24493043.05645
    822156.24607  21177111.56707    596842.78747  21177118.32947
  -2374164.37606  22801933.62206  -1775861.96146  22801939.95046
   1030835.20407  22085731.42707    763225.12947  22085733.95847
   3105092.91005  23371513.81005   2237806.63546  23371519.81046
 18  5 30  0 34 45.0010000  0  9  3 14 16 22 23 26 27 31 32
   1026519.48205  24232056.02805    789807.67546  24232061.32546
   1085112.45306  21210250.95806    795122.08646  21210254.59146
     84460.98606  20992666.09106     58453.89147  20992668.89247
   1594745.47101  24207024.38001   1180803.66245  24207027.60345
   -881831.09005  24490404.35605   -525039.43845  24490404.80245
    830551.12907  21178709.14607    603384.25347  21178715.96647
  -2388729.92806  22799161.75506  -1787211.73746  22799167.98946
   1036655.03907  22086838.85607    767760.06447  22086841.27147
   3124190.01105  23375147.98105   2252687.46946  23375153.97046
 18  5 30  0 34 50.0010000  0  9  3 14 16 22 23 26 27 31 32
   1032678.45606  24233228.06706    794606.87646  24233233.69246
   1096426.46606  21212404.10606    803938.20246  21212407.47046
     85155.83606  20992798.41906     58995.33147  20992801.31347
   1603986.62501  24208782.51301   1188004.57445  24208789.89945
   -895692.45605  24487766.49705   -535840.50845  24487767.00145
    838947.25407  21180306.55207    609926.68947  21180313.44647
  -2403295.12406  22796390.04406  -1798561.22646  22796396.23146
   1042472.64907  22087945.99707    772293.25947  22087948.45847
   3143288.65405  23378782.37205   2267569.51746  23378788.91146
 18  5 30  0 34 55.0010000  0  9  3 14 16 22 23 26 27 31 32
   1038843.51406  24234401.02806    799410.81746  24234406.63046
   1107749.47206  21214558.67706    812761.32846  21214561.91146
     85857.43706  20992931.98106     59542.03147  20992934.94647
   1613229.29301  24210542.13801   1195206.71745  24210544.98545
   -909554.42305  24485128.27105   -546642.05045  24485129.30245
    847345.39007  21181904.93507    616470.69147  21181911.91147
  -2417859.16906  22793618.56706  -1809909.82846  22793624.84946
   1048288.79607  22089052.68507    776825.32347  22089055.09947
   3162389.56805  23382417.39605   2282453.33546  23382423.98146
 18  5 30  0 35  0.0010000  0  9  3 14 16 22 23 26 27 31 32
   1045014.24306  24235575.09906    804219.17746  24235581.18146
   1119081.06806  21216715.23106    821591.13646  21216718.38446
     86565.32606  20993066.59106     60093.63347  20993069.54447
   1622473.04501  24212301.25501   1202409.65445  24212302.07545
   -923417.40905  24482490.56005   -557444.36145  24482491.97845
    855745.12007  21183503.30207    623015.93747  21183510.25547
  -2432422.48106  22790847.37206  -1821257.85446  22790853.60646
   1054103.07407  22090159.12207    781355.92747  22090161.50147
   3181492.35005  23386052.73105   2297338.60746  23386059.17746
 18  5 30  0 35  5.0010000  0  9  3 14 16 22 23 26 27 31 32
   1051190.58606  24236750.62206    809031.91646  24236756.79846
   1130421.23706  21218873.20006    830427.62546  21218876.48146
     87279.49906  20993202.53606     60650.12947  20993205.33747
   1631717.74101  24214060.09101   1209613.27245  24214059.09545
   -937281.44705  24479852.37205   -568247.49846  24479854.32946
    864146.40707  21185101.91107    629562.39347  21185108.78247
  -2446985.06006  22788075.77806  -1832605.32046  22788082.23546
   1059915.47107  22091264.97407    785885.05947  22091267.44647
   3200596.96605  23389688.07505   2312225.30246  23389694.14646
 18  5 30  0 35 10.0010000  0  9  3 14 16 22 23 26 27 31 32
   1057372.58805  24237926.91905    813849.06346  24237933.11846
   1141769.94306  21221032.59106    839270.76546  21221035.68546
     88000.00606  20993339.79406     61211.56047  20993342.45447
   1640963.47701  24215819.09901   1216817.73245  24215818.68845
   -951146.49505  24477214.03605   -579051.41546  24477215.66546
    872549.25706  21186701.09906    636110.06947  21186708.15747
  -2461546.87706  22785304.80206  -1843952.19046  22785311.20046
   1065726.02507  22092370.98107    790412.75647  22092373.54847
   3219703.43005  23393323.69205   2327113.44546  23393329.88046
 18  5 30  0 35 15.0010000  0  9  3 14 16 22 23 26 27 31 32
   1063560.57406  24239104.51306    818670.86346  24239110.79446
   1153127.54906  21223193.97406    848120.83946  21223196.84546
     88727.12606  20993478.20806     61778.14847  20993480.83347
   1650210.60301  24217578.53601   1224023.30045  24217577.25945
   -965012.16405  24474575.43505   -589855.82646  24474577.01746
    880954.00907  21188300.37207    642659.22647  21188307.47847
  -2476107.55606  22782534.04406  -1855298.17346  22782540.54846
   1071535.03707  22093476.20807    794939.25147  22093478.79847
   3238812.05205  23396960.27105   2342003.26746  23396966.66946
 18  5 30  0 35 20.0010000  0  9  3 14 16 22 23 26 27 31 32
   1069754.19206  24240283.14606    823497.05346  24240289.25146
   1164493.74206  21225356.84906    856977.60846  21225359.81346
     89460.56606  20993617.74706     62349.65947  20993620.26747
   1659458.76002  24219339.61402   1231229.67045  24219340.88045
   -978878.76605  24471936.68505   -600660.96346  24471938.02146
    889360.35207  21189899.89607    649209.62247  21189906.97847
  -2490667.42305  22779763.15305  -1866643.51846  22779769.23546
   1077342.23107  22094581.35607    799464.33447  22094583.94647
   3257922.53305  23400596.73905   2356894.54246  23400602.85646
 18  5 30  0 35 25.0010000  0  9  3 14 16 22 23 26 27 31 32
   1075953.67406  24241463.37206    828327.81546  24241469.29046
   1175868.72006  21227521.44206    865841.21846  21227524.33746
     90200.53406  20993758.43506     62926.25547  20993761.01347
   1668708.21202  24221099.26302   1238437.01645  24221100.49345
   -992746.11205  24469297.75505   -611466.67046  24469299.36046
    897768.48807  21191500.09907    655761.41547  21191507.26347
  -2505226.21205  22776993.27105  -1877988.02746  22776999.38846
   1083147.80407  22095686.28607    803988.15947  22095688.91147
   3277035.06205  23404233.40305   2371787.41946  23404239.81346
 18  5 30  0 35 30.0010000  0  9  3 14 16 22 23 26 27 31 32
   1082158.84306  24242643.76306    833163.01246  24242649.77446
   1187252.30106  21229687.56706    874711.53946  21229690.59146
     90946.83006  20993900.47406     63507.78147  20993903.13447
   1677958.70902  24222860.35602   1245645.20745  24222861.83345
  -1006614.38505  24466658.28605   -622273.11446  24466660.09146
    906178.21007  21193100.45807    662314.44447  21193107.63447
  -2519784.13305  22774222.68505  -1889331.85846  22774228.96646
   1088951.55707  22096790.55207    808510.56847  22096793.29447
   3296149.46305  23407870.88005   2386681.74846  23407877.70046
 18  5 30  0 35 35.0010000  0  9  3 14 16 22 23 26 27 31 32
   1088369.87006  24243825.52106    838002.76746  24243831.74346
   1198644.76706  21231855.50506    883588.78046  21231858.55246
     91699.69406  20994043.70806     64094.42847  20994046.21647
   1687210.42402  24224621.03602   1252854.26245  24224622.87645
  -1020483.29505  24464019.55205   -633080.05046  24464021.12246
    914589.75407  21194701.03607    668868.88847  21194708.15347
  -2534340.89805  22771452.74705  -1900674.79246  22771458.93546
   1094753.76407  22097894.60607    813031.77547  22097897.38447
   3315265.93605  23411508.34905   2401577.69246  23411515.52446
 18  5 30  0 35 40.0010000  0  9  3 14 16 22 23 26 27 31 32
   1094586.94906  24245009.16106    842847.24546  24245015.24346
   1210046.19706  21234025.05206    892473.00446  21234028.33346
     92459.26406  20994188.18506     64686.30047  20994190.64647
   1696463.52902  24226380.95002   1260064.48845  24226382.82545
  -1034352.70505  24461380.30205   -643887.38046  24461382.24746
    923003.25507  21196302.11407    675424.85847  21196309.20847
  -2548896.40305  22768682.98905  -1912016.74146  22768689.06046
   1100554.57507  22098998.63007    817551.89047  22099001.63047
   3334384.64105  23415146.81705   2416475.36746  23415153.93546
 18  5 30  0 35 45.0010000  0  9  3 14 16 22 23 26 27 31 32
   1100809.77406  24246192.77806    847696.19146  24246198.82546
   1221456.35706  21236196.23106    901364.03046  21236199.82946
     93225.27706  20994333.88806     65283.19347  20994336.41947
   1705717.73702  24228141.77802   1267275.54745  24228143.41945
  -1048222.83505  24458741.07505   -654695.26146  24458742.91546
    931418.41907  21197903.43507    681982.12747  21197910.44647
  -2563450.84505  22765913.34905  -1923357.87146  22765919.19646
   1106353.72207  22100102.14607    822070.70147  22100105.22847
   3353505.27005  23418784.96605   2431374.54346  23418791.79846
 18  5 30  0 35 50.0010000  0  9  3 14 16 22 23 26 27 31 32
   1107038.75706  24247378.43506    852549.93046  24247384.59946
   1232875.66306  21238369.27106    910262.18546  21238372.91546
     93998.13106  20994480.91906     65885.41547  20994483.69647
   1714973.39402  24229903.05202   1274487.79645  24229905.09145
  -1062093.27305  24456101.30205   -665503.39146  24456103.23546
    939835.68807  21199505.20007    688541.03247  21199512.18847
  -2578003.80705  22763143.88805  -1934697.84246  22763149.70046
   1112151.66007  22101205.43507    826588.57347  22101208.52847
   3372628.25305  23422423.66905   2446275.54946  23422430.76346
 18  5 30  0 35 55.0010000  0  9  3 14 16 22 23 26 27 31 32
   1113274.18706  24248564.92706    857408.70846  24248571.12646
   1244304.38906  21240544.29406    919167.68346  21240548.07946
     94778.19706  20994629.41106     66493.25947  20994632.03647
   1724230.84602  24231664.69202   1281701.38445  24231666.31045
  -1075963.75305  24453462.15305   -676311.55646  24453463.85346
    948255.34507  21201107.44207    695101.79847  21201114.40747
  -2592554.98005  22760375.03605  -1946036.42246  22760380.72046
   1117948.66607  22102308.38807    831105.71447  22102311.66947
   3391753.88005  23426063.41105   2461178.62346  23426069.98546
 18  5 30  0 36  0.0010000  0  9  3 14 16 22 23 26 27 31 32
   1119515.57806  24249752.59106    862272.13046  24249758.80246
   1255742.02406  21242720.56006    928080.11946  21242724.49746
     95564.88206  20994779.11406     67106.26247  20994781.77447
   1733489.67002  24233427.95002   1288916.03945  24233430.55245
  -1089834.73905  24450822.33305   -687120.09846  24450823.90346
    956676.87907  21202710.04407    701664.03047  21202716.96247
  -2607104.85205  22757606.09905  -1957373.98546  22757611.89946
   1123744.24807  22103411.53607    835621.75447  22103414.56047
   3410881.67305  23429703.30205   2476083.38146  23429709.78246
 18  5 30  0 36  5.0010000  0  9  3 14 16 22 23 26 27 31 32
   1125762.93806  24250941.27106    867140.21046  24250947.63446
   1267188.66306  21244898.66906    936999.57646  21244903.01746
     96358.21506  20994930.20806     67724.44347  20994932.84547
   1742749.81702  24235190.08302   1296131.74245  24235194.18545
  -1103706.13505  24448182.79405   -697928.96645  24448184.57545
    965100.31607  21204312.81707    708227.74347  21204319.79447
  -2621653.35906  22754838.29406  -1968710.47146  22754843.91946
   1129538.42907  22104513.80207    840136.69947  22104516.70847
   3430011.60205  23433344.23105   2490989.78646  23433350.43146
 18  5 30  0 36 10.0010000  0  9  3 14 16 22 23 26 27 31 32
   1132016.46106  24252131.29406    872013.08646  24252137.64646
   1278644.44606  21247078.82506    945926.16446  21247083.23146
     97158.42606  20995082.46606     68347.98047  20995084.95047
   1752011.53102  24236951.42702   1303348.65445  24236955.06045
  -1117577.74005  24445542.95005   -708738.00545  24445544.54445
    973525.83707  21205916.22407    714793.08047  21205923.09547
  -2636200.30606  22752069.69206  -1980045.75046  22752074.81346
   1135331.42607  22105616.32507    844650.72447  22105619.06747
   3449143.85505  23436985.06705   2505898.01146  23436991.33746
 18  5 30  0 36 15.0010000  0  9  3 14 16 22 23 26 27 31 32
   1138276.01406  24253322.36406    876890.65946  24253328.76346
   1290109.21906  21249260.38006    954859.75346  21249265.06746
     97965.36506  20995236.08306     68976.76447  20995238.57947
   1761274.64502  24238712.66102   1310566.65545  24238717.97045
  -1131449.69505  24442902.60605   -719547.31346  24442904.52846
    981953.32307  21207519.81007    721359.94347  21207526.71647
  -2650745.80206  22749301.70006  -1991379.89546  22749306.83346
   1141123.12407  22106718.34907    849163.73147  22106721.11447
   3468278.31105  23440626.20005   2520807.95846  23440632.24746
 18  5 30  0 36 20.0010000  0  9  3 14 16 22 23 26 27 31 32
   1144542.19805  24254514.38005    881773.38346  24254520.93146
   1301583.61806  21251443.90306    963800.84846  21251448.62646
     98779.63506  20995390.48906     69611.25847  20995392.97447
   1770539.67602  24240476.21602   1317786.16445  24240481.11445
  -1145321.40804  24440262.78604   -730356.43045  24440264.32145
    990383.35007  21209124.01307    727928.79147  21209130.72847
  -2665289.22706  22746533.85606  -2002712.42946  22746539.00146
   1146914.11207  22107820.31707    853676.18147  22107823.00147
   3487415.58405  23444268.04405   2535720.10246  23444274.02146
 18  5 30  0 36 25.0010000  0  9  3 14 16 22 23 26 27 31 32
   1150814.56606  24255708.56706    886660.93346  24255715.00146
   1313067.22406  21253629.31706    972749.10846  21253633.94646
     99600.85506  20995547.27106     70251.17147  20995549.72047
   1779806.32002  24242240.14602   1325006.95345  24242245.53645
  -1159193.21104  24437622.93504   -741165.63145  24437625.07945
    998815.52807  21210728.77107    734499.31647  21210735.43847
  -2679830.95206  22743766.96606  -2014043.63246  22743771.98146
   1152704.00207  22108922.22407    858187.77747  22108924.73147
   3506555.21705  23447910.06705   2550634.07046  23447916.02146
 18  5 30  0 36 30.0010000  0  9  3 14 16 22 23 26 27 31 32
   1157092.85506  24256903.31706    891553.09746  24256909.78646
   1324559.73406  21255816.37206    981704.30446  21255820.87246
    100428.69006  20995704.64606     70896.24047  20995707.03647
   1789074.20502  24244004.38802   1332228.65445  24244008.61845
  -1173065.41404  24434983.46604   -751975.12846  24434985.57546
   1007249.55607  21212333.42707    741071.28447  21212339.97847
  -2694371.26906  22741000.01306  -2025373.73946  22741005.15746
   1158492.55607  22110023.67707    862698.33347  22110026.03247
   3525696.95205  23451552.44205   2565549.68446  23451558.02146
 18  5 30  0 36 35.0010000  0  9  3 14 16 22 23 26 27 31 32
   1163377.26606  24258099.27106    896450.05046  24258105.91546
   1336061.37906  21258004.83306    990666.62546  21258009.36846
    101263.35006  20995863.56706     71546.62547  20995866.05247
   1798343.51602  24245768.53602   1339451.48145  24245771.38445
  -1186937.77704  24432343.76304   -762784.76245  24432345.69645
   1015685.63507  21213938.95007    747644.84947  21213945.53647
  -2708909.94906  22738233.66906  -2036702.57046  22738239.00146
   1164280.02307  22111125.13007    867208.04247  22111127.53247
   3544840.97405  23455195.36405   2580467.08046  23455201.14246
 18  5 30  0 36 40.0010000  0  9  3 14 16 22 23 26 27 31 32
   1169668.36006  24259296.13806    901352.19946  24259303.00946
   1347572.72306  21260195.52806    999636.50546  21260199.72446
    102105.40806  20996023.74706     72202.77247  20996026.18547
   1807614.86702  24247532.34102   1346675.88345  24247535.95045
  -1200809.68004  24429704.11404   -773594.04745  24429706.47045
   1024124.32607  21215544.76307    754220.45547  21215551.37247
  -2723446.36506  22735467.27806  -2048029.63546  22735472.48146
   1170066.88207  22112226.29407    871717.28147  22112228.77847
   3563987.86005  23458838.66905   2595386.72146  23458844.36446
 18  5 30  0 36 45.0010000  0  9  3 14 16 22 23 26 27 31 32
   1175965.69706  24260494.49706    906259.21646  24260501.13046
   1359093.31706  21262387.94206   1008613.58746  21262392.00946
    102954.40006  20996185.12206     72864.32447  20996187.54847
   1816887.78702  24249296.00502   1353901.56245  24249298.07945
  -1214681.59604  24427064.56004   -784403.32945  24427066.22445
   1032565.18207  21217151.05207    760797.74447  21217157.64947
  -2737980.99206  22732701.35606  -2059355.31946  22732706.95846
   1175852.77807  22113327.33307    876225.76747  22113329.81747
   3583137.16905  23462482.84105   2610308.24746  23462489.29846
 18  5 30  0 36 50.0010000  0  9  3 14 16 22 23 26 27 31 32
   1182269.64306  24261694.20806    911171.37346  24261700.65346
   1370623.53606  21264582.06006   1017598.16746  21264586.18546
    103810.75806  20996348.19206     73531.61847  20996350.54847
   1826162.67002  24251062.29402   1361128.74945  24251065.52845
  -1228553.10804  24424424.84104   -795212.29145  24424425.63845
   1041008.58907  21218757.78607    767377.02147  21218764.36047
  -2752513.43106  22729935.86406  -2070679.29846  22729941.64246
   1181638.05107  22114428.12207    880733.76747  22114430.64247
   3602289.23905  23466127.53605   2625231.93346  23466133.80646
 18  5 30  0 36 55.0010000  0  9  3 14 16 22 23 26 27 31 32
   1188580.19306  24262894.93506    916088.68346  24262901.40346
   1382163.38306  21266777.72406   1026590.24946  21266781.72046
    104674.42306  20996512.45806     74204.60647  20996514.62647
   1835439.52902  24252826.30202   1368357.45845  24252828.18845
  -1242424.22205  24421785.17705   -806020.94745  24421786.44245
   1049454.52707  21220365.09107    773958.27147  21220371.65347
  -2767043.63405  22727171.04405  -2082001.52846  22727176.78646
   1187422.66607  22115529.20807    885241.25647  22115531.75147
   3621444.07305  23469772.64605   2640157.76046  23469778.81046
 18  5 30  0 37  0.0010000  0  9  3 14 16 22 23 26 27 31 32
   1194897.15506  24264096.79406    921010.98846  24264102.54846
   1393712.63506  21268975.59906   1035589.66146  21268979.36046
    105545.22406  20996678.27106     74883.15047  20996680.50947
   1844718.11103  24254593.15303   1375587.50245  24254594.16145
  -1256295.09504  24419145.70804   -816829.40745  24419146.85645
   1057902.81507  21221972.73107    780541.35247  21221979.29447
  -2781571.76805  22724405.97405  -2093322.14846  22724411.85646
   1193206.42707  22116629.49707    889748.08047  22116632.19247
   3640601.48205  23473418.07505   2655085.59346  23473423.98146
 18  5 30  0 37  5.0010000  0  9  3 14 16 22 23 26 27 31 32
   1201221.00706  24265300.52106    925938.66146  24265306.45046
   1405271.81406  21271175.70006   1044596.80546  21271179.27446
    106423.64106  20996845.51306     75567.63247  20996847.63447
   1853998.93103  24256359.91103   1382819.30145  24256360.91945
  -1270165.25705  24416506.35605   -827637.31645  24416507.62245
   1066353.92007  21223580.90307    787126.62547  21223587.38447
  -2796097.38105  22721641.96605  -2104640.79946  22721648.35346
   1198989.85107  22117730.18507    894254.64147  22117732.77447
   3659761.95505  23477064.29405   2670015.80746  23477070.95046
 18  5 30  0 37 10.0010000  0  9  3 14 16 22 23 26 27 31 32
   1207551.18306  24266504.98906    930871.26046  24266510.88446
   1416840.38106  21273376.96606   1053611.26446  21273380.23546
    107309.12706  20997014.02106     76257.62247  20997016.21247
   1863281.40803  24258125.35603   1390052.40445  24258126.96245
  -1284035.21605  24413867.53605   -838445.05945  24413868.49745
   1074807.31207  21225189.64607    793713.68147  21225196.12647
  -2810620.92605  22718877.86405  -2115957.83246  22718884.68546
   1204772.39907  22118830.68507    898760.52447  22118833.13447
   3678924.92705  23480710.81705   2684947.98546  23480717.80646
 18  5 30  0 37 15.0010000  0  9  3 14 16 22 23 26 27 31 32
   1213887.16206  24267710.80206    935808.38346  24267716.21646
   1428417.75706  21275579.87206   1062632.59046  21275583.07146
    108201.14906  20997183.49706     76952.70747  20997185.80647
   1872564.97503  24259892.62203   1397286.30345  24259893.14945
  -1297905.46205  24411227.65305   -849253.04346  24411228.61446
   1083262.42807  21226798.61407    800302.07747  21226805.03647
  -2825142.98305  22716114.57505  -2127273.71846  22716121.65746
   1210553.53907  22119930.65307    903265.30647  22119933.16147
   3698089.84405  23484357.68505   2699881.66846  23484364.36446
 18  5 30  0 37 20.0010000  0  9  3 14 16 22 23 26 27 31 32
   1220229.55306  24268917.81006    940750.51046  24268923.25946
   1440004.59706  21277784.81706   1071661.28946  21277788.07546
    109100.35906  20997354.81706     77653.38847  20997357.32547
   1881850.28303  24261659.33303   1404521.58245  24261659.39245
  -1311775.38405  24408587.84905   -860060.76946  24408589.00946
   1091719.88507  21228407.97407    806892.29847  21228414.37247
  -2839662.89505  22713351.64605  -2138587.93646  22713359.05646
   1216333.92507  22121030.72407    907769.49547  22121033.30247
   3717257.33905  23488005.09105   2714817.37146  23488011.93546
 18  5 30  0 37 25.0010000  0  9  3 14 16 22 23 26 27 31 32
   1226578.68606  24270125.70006    945697.87846  24270131.75946
   1451601.21606  21279991.74706   1080697.60746  21279995.12246
    110007.06006  20997527.45806     78359.90747  20997530.04847
   1891137.64603  24263427.05203   1411758.51245  24263426.75945
  -1325644.63404  24405949.20804   -870867.99645  24405950.47445
   1100180.03607  21230017.96607    813484.62447  21230024.29447
  -2854180.29005  22710588.65305  -2149900.18846  22710595.99346
   1222113.91007  22122130.63007    912273.37747  22122132.92747
   3736427.75405  23491652.83305   2729755.35546  23491659.85646
 18  5 30  0 37 30.0010000  0  9  3 14 16 22 23 26 27 31 32
   1232934.68506  24271335.48106    950650.60146  24271341.41146
   1463207.74306  21282200.35606   1089741.64546  21282203.87246
    110921.38206  20997701.16106     79072.36747  20997703.86847
   1900427.19703  24265194.36403   1418997.12745  24265195.40745
  -1339513.07605  24403310.08305   -881674.57445  24403311.68845
   1108642.99107  21231628.26307    820079.13647  21231634.57947
  -2868695.02305  22707827.21605  -2161210.37146  22707834.41546
   1227893.65607  22123230.55207    916777.07447  22123232.83747
   3755601.18505  23495301.52805   2744695.68346  23495308.93846
 18  5 30  0 37 35.0010000  0  9  3 14 16 22 23 26 27 31 32
   1239297.76506  24272546.51306    955608.84346  24272552.13846
   1474824.41206  21284410.60606   1098793.58546  21284414.15746
    111843.54506  20997876.84906     79790.93447  20997879.62647
   1909719.15002  24266961.75502   1426237.58245  24266964.45045
  -1353380.45404  24400671.18504   -892480.32245  24400672.87245
   1117108.95007  21233239.45807    826675.99047  21233245.77447
  -2883206.90705  22705065.95005  -2172518.33146  22705073.19646
   1233673.37007  22124330.38007    921280.74147  22124332.70047
   3774777.84105  23498950.98105   2759638.51346  23498958.45046
 18  5 30  0 37 40.0010000  0  9  3 14 16 22 23 26 27 31 32
   1245667.76906  24273758.56006    960572.48546  24273764.33746
   1486451.06406  21286623.21606   1107853.31146  21286626.82546
    112773.38906  20998053.87206     80515.48647  20998056.68547
   1919013.33102  24268730.43502   1433479.78345  24268731.72445
  -1367246.94904  24398032.43504   -903285.36045  24398035.01345
   1125577.76007  21234850.84907    833275.05947  21234857.07147
  -2897716.03806  22702304.70006  -2183824.14646  22702311.56046
   1239452.88407  22125430.13807    925784.25147  22125432.51747
   3793957.55205  23502600.82505   2774583.72646  23502608.64646
 18  5 30  0 37 45.0010000  0  9  3 14 16 22 23 26 27 31 32
   1252044.68506  24274971.90306    965541.50646  24274977.75146
   1498087.68206  21288837.62206   1116920.79846  21288841.50146
    113710.93106  20998232.22406     81246.03847  20998235.09547
   1928309.73002  24270499.53602   1440723.69345  24270502.52445
  -1381112.51205  24395393.89605   -914089.68945  24395396.84945
   1134049.42507  21236463.02807    839876.35647  21236469.31047
  -2912222.38806  22699544.43506  -2195127.79746  22699551.10346
   1245232.23707  22126529.91907    930287.63747  22126532.43847
   3813140.34305  23506250.84105   2789531.33546  23506258.54446
 18  5 30  0 37 50.0010000  0  9  3 14 16 22 23 26 27 31 32
   1258428.37205  24276186.81005    970515.79946  24276192.88046
   1509734.11806  21291053.72406   1125995.94046  21291057.62646
    114655.99006  20998412.10606     81982.44347  20998415.11847
   1937608.22803  24272268.89603   1447969.29545  24272271.55645
  -1394977.29804  24392755.25504   -924893.42145  24392758.34945
   1142523.79607  21238075.66107    846479.75947  21238082.07147
  -2926726.08906  22696784.52106  -2206429.38146  22696790.75546
   1251011.26407  22127629.58307    934790.77147  22127632.34947
   3832326.04205  23509902.20805   2804481.22646  23509909.71246
 18  5 30  0 37 55.0010000  0  9  3 14 16 22 23 26 27 31 32
   1264818.95205  24277402.91905    975495.46446  24277409.08346
   1521390.51806  21293271.66106   1135078.84846  21293275.73946
    115608.72306  20998593.37206     82724.83047  20998596.33747
   1946908.87603  24274039.69203   1455216.58845  24274042.09545
  -1408841.11704  24390116.40304   -935696.41145  24390119.77845
   1151000.98607  21239688.98107    853085.35647  21239695.55647
  -2941226.99906  22694025.38006  -2217728.78746  22694031.63846
   1256790.12107  22128729.31007    939293.77547  22128732.16947
   3851514.80705  23513553.88805   2819433.48446  23513561.49746
 18  5 30  0 38  0.0010000  0  9  3 14 16 22 23 26 27 31 32
   1271215.78006  24278620.11406    980479.99846  24278626.53646
   1533056.24006  21295491.95006   1144169.01946  21295496.00546
    116568.45906  20998775.98906     83472.67747  20998778.98947
   1956211.11903  24275809.31703   1462465.09945  24275811.60345
  -1422704.61804  24387477.79404   -946499.14645  24387480.33745
   1159480.35907  21241302.40307    859692.65147  21241308.97847
  -2955725.74406  22691265.93506  -2229026.50646  22691271.95846
   1262568.17607  22129828.74707    943796.15647  22129831.57147
   3870705.95405  23517206.04405   2834387.60246  23517213.56046
 18  5 30  0 38  5.0010000  0  9  3 14 16 22 23 26 27 31 32
   1277619.72306  24279838.53606    985470.07746  24279844.68846
   1544732.15106  21297713.46606   1153267.13446  21297717.68546
    117536.07806  20998960.10606     84226.66547  20998963.21247
   1965515.76603  24277579.52103   1469715.48545  24277581.70045
  -1436566.92004  24384840.07504   -957300.92145  24384843.20445
   1167962.80807  21242916.62207    866302.33947  21242923.04447
  -2970221.40906  22688507.86406  -2240321.84246  22688513.43146
   1268346.31707  22130928.41107    948298.60647  22130931.24747
   3889900.35805  23520858.82505   2849344.25246  23520865.58746
 18  5 30  0 38 10.0010000  0  9  3 14 16 22 23 26 27 31 32
   1284030.46905  24281058.63005    990465.45646  24281064.92346
   1556417.96406  21299937.45806   1162372.96046  21299941.85346
    118511.29906  20999145.74706     84986.57747  20999148.82947
   1974822.51003  24279350.38003   1476967.49045  24279352.33745
  -1450428.24004  24382202.74704   -968101.92145  24382206.79045
   1176448.00907  21244531.21607    872914.18047  21244537.73147
  -2984714.31706  22685750.09906  -2251615.01646  22685755.07946
   1274124.24307  22132027.94207    952800.88547  22132030.88447
   3909097.72005  23524511.46605   2864303.21946  23524517.80646
 18  5 30  0 38 15.0010000  0  9  3 14 16 22 23 26 27 31 32
   1290447.95505  24282279.99705    995466.09146  24282286.51346
   1568113.58806  21302163.00506   1171486.42646  21302167.59946
    119494.06206  20999332.85606     85752.36847  20999335.89247
   1984131.32703  24281122.43503   1484221.10445  24281123.59545
  -1464288.69404  24379565.57504   -978902.26145  24379569.48945
   1184935.88107  21246146.34907    879528.10747  21246152.88847
  -2999204.49106  22682992.56006  -2262906.05846  22682997.18846
   1279901.90807  22133127.06707    957302.95847  22133130.32547
   3928297.95105  23528164.99705   2879264.43546  23528171.14946
 18  5 30  0 38 20.0010000  0  9  3 14 16 22 23 26 27 31 32
   1296872.28405  24283502.09105   1000472.05946  24283508.37246
   1579819.16006  21304390.55206   1180607.64946  21304395.26346
    120484.47306  20999521.16906     86524.11747  20999524.22847
   1993442.29802  24282893.60602   1491476.39445  24282895.79845
  -1478148.11905  24376928.46605   -989701.82045  24376931.41945
   1193426.55407  21247762.02107    886144.21847  21247768.64247
  -3013691.79306  22680235.64606  -2274194.85246  22680240.12246
   1285679.45107  22134226.81007    961804.93647  22134229.89247
   3947501.17705  23531819.66905   2894227.95746  23531825.84546
 18  5 30  0 38 25.0010000  0  9  3 14 16 22 23 26 27 31 32
   1303303.67805  24284725.72405   1005483.53446  24284731.92346
   1591534.87306  21306619.95806   1189736.77146  21306624.70446
    121482.70706  20999711.29406     87301.95947  20999714.48147
   2002755.58602  24284666.77102   1498733.49445  24284669.59545
  -1492006.29405  24374291.09905  -1000500.41245  24374293.92345
   1201920.22307  21249378.47407    892762.66247  21249385.13047
  -3028175.99906  22677479.35606  -2285481.23846  22677483.35346
   1291457.03807  22135326.25507    966306.94947  22135329.30247
   3966707.59705  23535474.41905   2909193.96946  23535481.12246
 18  5 30  0 38 30.0010000  0  9  3 14 16 22 23 26 27 31 32
   1309741.66105  24285951.49705   1010500.13946  24285957.63846
   1603260.31006  21308851.48906   1198873.47146  21308856.32946
    122488.35406  20999902.72406     88085.57747  20999905.95847
   2012070.78503  24286438.98903   1505992.05945  24286441.91945
  -1505863.65405  24371654.16105  -1011298.36245  24371656.69245
   1210416.43507  21250995.13807    899383.08547  21251001.68847
  -3042657.53406  22674723.66906  -2296765.54346  22674727.57146
   1297234.29007  22136425.52807    970808.70247  22136428.41147
   3985916.74805  23539129.81005   2924162.12846  23539136.25546
 18  5 30  0 38 35.0010000  0  9  3 14 16 22 23 26 27 31 32
   1316186.80105  24287177.56005   1015522.31846  24287183.56046
   1614996.00906  21311084.84906   1208018.16846  21311089.50146
    123501.94006  21000095.55206     88875.38547  21000098.66947
   2021388.39703  24288212.38803   1513252.54745  24288214.48545
  -1519719.66105  24369017.59105  -1022095.23845  24369019.41945
   1218915.73907  21252612.56707    906005.91747  21252619.15347
  -3057135.82306  22671968.40306  -2308047.32346  22671972.42346
   1303011.73507  22137525.06007    975310.61047  22137527.95447
   4005129.20305  23542785.74705   2939132.83946  23542791.75946
 18  5 30  0 38 40.0010000  0  9  3 14 16 22 23 26 27 31 32
   1322638.55505  24288405.35605   1020549.64946  24288411.69646
   1626741.40006  21313320.16106   1217170.41746  21313324.53246
    124522.95106  21000289.80206     89670.97447  21000292.77847
   2030707.88203  24289985.70803   1520514.46445  24289986.64645
  -1533574.78905  24366380.97405  -1032891.44745  24366382.59145
   1227417.58007  21254230.38007    912630.72647  21254237.11847
  -3071611.39006  22669213.34106  -2319326.97746  22669217.67746
   1308788.83607  22138624.45007    979812.24547  22138627.35647
   4024344.37605  23546442.36405   2954105.68146  23546448.00146
 18  5 30  0 38 45.0010000  0  9  3 14 16 22 23 26 27 31 32
   1329097.80205  24289635.02105   1025582.82746  24289641.36046
   1638497.41606  21315557.03606   1226330.94147  21315561.25547
    125552.30006  21000485.75506     90473.06247  21000488.67347
   2040030.16303  24291759.84903   1527778.55945  24291760.66945
  -1547428.11805  24363744.80205  -1043686.25845  24363746.95845
   1235922.89007  21255848.84107    919258.23547  21255855.59147
  -3086083.32906  22666459.54406  -2330603.81046  22666464.13846
   1314566.55907  22139723.84907    984314.36647  22139726.48547
   4043563.19505  23550099.66105   2969081.34246  23550105.73146
 18  5 30  0 38 50.0010000  0  9  3 14 16 22 23 26 27 31 32
   1335563.51905  24290865.21605   1030621.04446  24290871.81346
   1650263.01706  21317795.69206   1235498.93647  21317799.82947
    126588.90106  21000683.07506     91280.80547  21000685.95847
   2049354.21803  24293534.52803   1535044.04945  24293537.16545
  -1561280.73505  24361108.94205  -1054480.51245  24361110.89945
   1244430.60807  21257467.95007    925887.62047  21257474.72447
  -3100552.61706  22663705.97406  -2341878.58246  22663710.90746
   1320343.83107  22140823.19207    988816.13447  22140825.85347
   4062784.60505  23553757.31705   2984059.04946  23553762.96646
 18  5 30  0 38 55.0010000  0  9  3 14 16 22 23 26 27 31 32
   1342036.17905  24292096.68505   1035664.66946  24292103.31746
   1662038.69306  21320036.77806   1244674.77947  21320040.75147
    127633.27106  21000881.88806     92094.59947  21000884.54847
   2058680.51103  24295308.57503   1542311.30345  24295311.73945
  -1575132.08505  24358473.18505  -1065273.75046  24358475.13046
   1252941.21307  21259087.49707    932519.26047  21259094.38047
  -3115018.77506  22660953.20006  -2353150.91946  22660958.83746
   1326121.16707  22141922.73107    993317.95147  22141925.45047
   4082009.10805  23557415.56005   2999039.16146  23557420.91546
 18  5 30  0 39  0.0010000  0  9  3 14 16 22 23 26 27 31 32
   1348516.20905  24293329.76305   1040714.04146  24293336.47846
   1673824.85506  21322279.69206   1253858.80047  21322283.64247
    128685.85406  21001082.01306     92914.79247  21001084.74347
   2068009.44403  24297083.88803   1549580.60145  24297086.45445
  -1588981.75205  24355837.71605  -1076065.69645  24355839.34545
   1261455.12707  21260707.52107    939153.47847  21260714.32947
  -3129481.36306  22658201.26306  -2364420.46246  22658207.23946
   1331898.97207  22143022.08307    997820.13547  22143024.89647
   4101237.08305  23561074.20805   3014021.98046  23561079.84546
 18  5 30  0 39  5.0010000  0  9  3 14 16 22 23 26 27 31 32
   1355003.36305  24294564.41905   1045768.96646  24294570.99346
   1685621.26406  21324524.25506   1263050.80546  21324528.19246
    129746.37806  21001283.78606     93741.17447  21001286.41147
   2077340.75802  24298858.68502   1556851.75545  24298861.12245
  -1602829.94805  24353202.69205  -1086856.49545  24353203.97045
   1269972.12207  21262328.31007    945790.09847  21262335.23947
  -3143940.59505  22655449.56705  -2375687.38846  22655455.73146
   1337677.03207  22144121.70807   1002322.52247  22144124.42747
   4120468.32705  23564734.20005   3029007.35246  23564740.27146
 18  5 30  0 39 10.0010000  0  9  3 14 16 22 23 26 27 31 32
   1361497.37305  24295800.41905   1050829.23646  24295806.89946
   1697427.66406  21326771.07506   1272250.58946  21326775.01346
    130814.57306  21001487.06006     94573.53347  21001489.68547
   2086674.19302  24300635.43502   1564124.57345  24300639.32545
  -1616676.91005  24350567.52105  -1097646.33745  24350568.72845
   1278491.90807  21263949.49707    952428.88847  21263956.47447
  -3158396.70906  22652698.45806  -2386951.87846  22652704.49346
   1343455.08907  22145221.20807   1006824.90547  22145223.91547
   4139702.53505  23568394.49705   3043995.04346  23568400.40346
 18  5 30  0 39 15.0010000  0  9  3 14 16 22 23 26 27 31 32
   1367998.42205  24297037.21605   1055894.99246  24297043.13446
   1709244.21806  21329019.66906   1281458.28646  21329023.48946
    131890.61106  21001691.91106     95412.00747  21001694.39647
   2096009.94302  24302411.98902   1571399.18845  24302414.87245
  -1630522.43505  24347932.61405  -1108435.06646  24347934.11446
   1287014.66607  21265571.41907    959069.99547  21265578.25147
  -3172849.52205  22649948.45805  -2398213.81146  22649954.63446
   1349233.34307  22146320.82507   1011327.43747  22146323.52147
   4158939.90805  23572054.84905   3058985.18546  23572061.10646
 18  5 30  0 39 20.0010000  0  9  3 14 16 22 23 26 27 31 32
   1374506.75905  24298275.52105   1060966.41146  24298281.35646
   1721071.20006  21331270.12206   1290674.10646  21331273.96646
    132974.76206  21001897.95806     96256.80047  21001900.52447
   2105348.24503  24304189.99703   1578675.78045  24304194.08745
  -1644366.26405  24345298.35605  -1119222.46346  24345300.12646
   1295540.68107  21267193.94207    965713.63747  21267200.77447
  -3187298.73506  22647198.89606  -2409472.93146  22647204.91946
   1355012.03507  22147420.61407   1015830.31047  22147423.22847
   4178180.69405  23575716.06005   3073977.99346  23575722.90346
 18  5 30  0 39 25.0010000  0  9  3 14 16 22 23 26 27 31 32
   1381022.47305  24299515.34105   1066043.58246  24299521.17746
   1732908.74606  21333522.74706   1299898.16146  21333526.72046
    134067.13306  21002105.88806     97107.99847  21002108.41947
   2114689.23003  24305966.56703   1585954.46445  24305971.27845
  -1658208.27205  24342664.05205  -1130008.44146  24342665.97446
   1304070.02407  21268816.98907    972359.87147  21268823.75147
  -3201744.23806  22644450.22406  -2420729.17446  22644456.30646
   1360791.27507  22148520.15307   1020333.61347  22148522.61447
   4197424.97105  23579378.71605   3088973.51746  23579386.05646
 18  5 30  0 39 30.0010000  0  9  3 14 16 22 23 26 27 31 32
   1387544.86405  24300757.06005   1071125.96146  24300763.22446
   1744756.13606  21335777.05206   1309129.89146  21335781.09546
    135167.02906  21002315.23906     97965.05547  21002317.86447
   2124032.13302  24307743.91902   1593234.64645  24307748.31345
  -1672049.11705  24340030.06705  -1140793.50046  24340032.08346
   1312602.00607  21270440.42707    979008.16547  21270447.09547
  -3216186.71006  22641701.53606  -2431983.04946  22641707.48946
   1366570.41107  22149619.91907   1024836.82947  22149622.45047
   4216672.05405  23583041.22405   3103971.22746  23583049.32546
 18  5 30  0 39 35.0010000  0  9  3 14 16 22 23 26 27 31 32
   1394074.66905  24301999.44205   1076214.13146  24302005.53646
   1756614.04006  21338033.56706   1318369.81346  21338037.76346
    136275.09606  21002526.16106     98828.47847  21002528.71647
   2133377.68402  24309522.73902   1600516.90145  24309526.58345
  -1685888.07405  24337396.74705  -1151577.09446  24337398.83346
   1321137.33107  21272064.87207    985659.06947  21272071.37647
  -3230625.41806  22638954.09106  -2443233.99846  22638960.19646
   1372350.12807  22150719.82507   1029340.50347  22150722.36847
   4235922.66705  23586704.48905   3118971.68446  23586712.74346
 18  5 30  0 39 40.0010000  0  9  3 14 16 22 23 26 27 31 32
   1400611.56405  24303243.09905   1081307.81146  24303249.64946
   1768482.23306  21340292.07506   1327617.75246  21340296.41146
    137391.11406  21002738.23906     99698.09947  21002740.91147
   2142725.60902  24311301.96602   1607800.99045  24311306.52445
  -1699725.41305  24334763.09905  -1162359.42946  24334765.19646
   1329675.72407  21273689.50507    992312.36447  21273695.98547
  -3245060.60406  22636207.52106  -2454482.19146  22636213.50946
   1378130.22107  22151819.69207   1033844.46847  22151822.34147
   4255176.50405  23590368.32505   3133974.65946  23590375.84146
 18  5 30  0 39 45.0010000  0  9  3 14 16 22 23 26 27 31 32
   1407155.65905  24304488.81705   1086407.10646  24304494.82946
   1780360.71806  21342552.45006   1336873.71046  21342556.79846
    138515.15906  21002952.23106    100573.97547  21002954.92747
   2152075.98803  24313081.95803   1615087.00545  24313086.24745
  -1713561.00305  24332130.88005  -1173140.40146  24332133.10646
   1338217.26507  21275315.06007    998968.10747  21275321.45847
  -3259492.17606  22633461.14606  -2465727.57546  22633467.11046
   1383910.71607  22152919.65307   1038348.74747  22152922.41947
   4274433.63405  23594032.93505   3148980.19646  23594040.28646
 18  5 30  0 39 50.0010000  0  9  3 14 16 22 23 26 27 31 32
   1413706.93905  24305734.96605   1091512.00146  24305740.54446
   1792249.54706  21344814.44206   1346137.73046  21344818.76746
    139647.24906  21003167.70806    101456.12447  21003170.49747
   2161428.80203  24314861.38803   1622374.90545  24314865.51345
  -1727394.88405  24329498.09905  -1183920.05146  24329500.52446
   1346761.92907  21276940.95007   1005626.28447  21276947.30247
  -3273920.12206  22630715.69206  -2476970.13046  22630721.49346
   1389691.63207  22154019.69207   1042853.35747  22154022.56347
   4293694.07005  23597697.98905   3163988.32146  23597705.35346
 18  5 30  0 39 55.0010000  0  9  3 14 16 22 23 26 27 31 32
   1420264.95405  24306983.33305   1096622.13146  24306989.26346
   1804148.30606  21347079.14606   1355409.49046  21347083.50546
    140786.96606  21003384.53606    102344.21447  21003387.36047
   2170783.58303  24316640.93503   1629664.34145  24316644.77845
  -1741227.46205  24326865.77805  -1194698.68846  24326868.56746
   1355309.29807  21278567.47407   1012286.56747  21278573.73147
  -3288344.85406  22627970.87206  -2488210.17846  22627976.35646
   1395472.59807  22155119.73107   1047358.00447  22155122.67347
   4312957.37005  23601363.84105   3178998.67046  23601371.16946
 18  5 30  0 40  0.0010000  0  9  3 14 16 22 23 26 27 31 32
   1426830.47105  24308232.44205   1101738.10946  24308238.37246
   1816057.73506  21349344.90306   1364689.56546  21349349.29846
    141935.04606  21003602.92706    103238.82247  21003605.65747
   2180141.14603  24318421.71603   1636955.95445  24318424.18845
  -1755057.87405  24324234.13005  -1205475.62746  24324236.84946
   1363860.11507  21280194.70007   1018949.53847  21280200.88847
  -3302765.61306  22625226.65306  -2499447.12746  22625232.18546
   1401254.31207  22156220.06707   1051863.23447  22156223.06747
   4332224.24905  23605030.35605   3194011.80946  23605037.74346
 18  5 30  0 40  5.0010000  0  9  3 14 16 22 23 26 27 31 32
   1433403.15105  24309483.48905   1106859.67146  24309488.95046
   1827977.50906  21351613.62206   1373977.69946  21351617.98146
    143091.15406  21003823.09906    104139.68547  21003825.89947
   2189501.11903  24320202.93503   1644249.43145  24320205.73545
  -1768886.52205  24321602.84105  -1216251.19846  24321605.57146
   1372414.06007  21281822.31007   1025614.94947  21281828.46247
  -3317182.68006  22622482.90306  -2510681.20146  22622488.27146
   1407036.51007  22157320.21607   1056368.84247  22157323.21647
   4351494.41905  23608696.81705   3209027.51346  23608704.53246
 18  5 30  0 40 10.0010000  0  9  3 14 16 22 23 26 27 31 32
   1439983.27305  24310735.84905   1111987.03546  24310741.08746
   1839907.92306  21353884.01306   1383274.11846  21353888.43146
    144255.58406  21004044.54406    105047.03647  21004047.31047
   2198863.76603  24321984.66103   1651544.95745  24321987.15745
  -1782713.09705  24318971.97405  -1227025.15746  24318974.45846
   1380971.39107  21283450.84907   1032282.99747  21283457.02447
  -3331595.76406  22619740.23906  -2521912.16946  22619745.57146
   1412819.44607  22158420.72407   1060875.01947  22158423.78247
   4370768.15105  23612364.72405   3224045.98846  23612372.36846
 18  5 30  0 40 15.0010000  0  9  3 14 16 22 23 26 27 31 32
   1446570.21705  24311989.12205   1117119.71046  24311994.71246
   1851848.35906  21356156.14606   1392578.34546  21356160.38846
    145427.81306  21004267.56006    105960.46147  21004270.19647
   2208228.50303  24323766.98103   1658842.16145  24323770.07545
  -1796538.14805  24316341.02805  -1237797.92646  24316342.76346
   1389531.54007  21285079.87207   1038953.24347  21285086.14247
  -3346005.42406  22616998.36406  -2533140.46446  22617003.50946
   1418602.55307  22159521.26307   1065381.32947  22159524.22847
   4390044.84605  23616033.19205   3239066.76546  23616040.43846
 18  5 30  0 40 20.0010000  0  9  3 14 16 22 23 26 27 31 32
   1453164.60905  24313243.38805   1122258.18746  24313249.11846
   1863799.40806  21358430.52106   1401890.84546  21358434.55246
    146608.28806  21004492.34906    106880.31347  21004495.07947
   2217595.87103  24325550.16103   1666141.42145  24325553.23145
  -1810361.13305  24313710.31005  -1248569.10346  24313711.89246
   1398095.07207  21286709.27807   1045626.12547  21286715.52447
  -3360411.09006  22614256.93506  -2544365.65346  22614262.16146
   1424386.40607  22160621.74707   1069888.22747  22160624.56047
   4409325.05005  23619702.52805   3254090.28146  23619709.58746
 18  5 30  0 40 25.0010000  0  9  3 14 16 22 23 26 27 31 32
   1459766.43905  24314499.96605   1127402.47046  24314506.10646
   1875761.08506  21360706.80206   1411211.62946  21360710.89246
    147797.07306  21004718.52806    107806.64047  21004721.25947
   2226965.95603  24327332.59903   1673442.79745  24327335.82145
  -1824181.99205  24311080.70005  -1259338.61946  24311082.15346
   1406662.00007  21288339.61407   1052301.65047  21288345.90747
  -3374812.69906  22611516.50506  -2555587.67746  22611521.52146
   1430171.05207  22161722.68507   1074395.74147  22161725.43847
   4428608.78105  23623371.84105   3269116.55046  23623378.80646
 18  5 30  0 40 30.0010000  0  9  3 14 16 22 23 26 27 31 32
   1466375.15105  24315757.73905   1132552.12446  24315763.98546
   1887732.85306  21362984.86406   1420540.27746  21362988.75546
    148993.61406  21004946.20006    108739.00847  21004948.89647
   2236338.19903  24329115.49703   1680745.83445  24329118.88445
  -1838001.21905  24308450.73105  -1270106.86346  24308452.46646
   1415231.78407  21289970.34107   1058979.40147  21289976.61047
  -3389210.77006  22608776.23106  -2566806.94346  22608781.27146
   1435955.95507  22162823.52107   1078903.45747  22162826.22847
   4447895.52505  23627041.70805   3284145.17746  23627048.20046
 18  5 30  0 40 35.0010000  0  9  3 14 16 22 23 26 27 31 32
   1472990.68205  24317016.53605   1137707.07646  24317023.18146
   1899714.61206  21365264.97406   1429876.70746  21365268.85346
    150197.84906  21005175.23106    109677.37547  21005177.97447
   2245712.48103  24330899.56703   1688050.47645  24330903.22445
  -1851818.86605  24305821.34105  -1280873.86546  24305822.58346
   1423804.34507  21291601.62207   1065659.31647  21291607.86847
  -3403605.35506  22606037.13006  -2578023.50546  22606042.09946
   1441741.07307  22163924.25507   1083411.34147  22163926.83347
   4467185.19705  23630712.39605   3299176.07346  23630719.29046
 18  5 30  0 40 40.0010000  0  9  3 14 16 22 23 26 27 31 32
   1479613.52005  24318276.40305   1142867.72546  24318282.81346
   1911706.84506  21367547.17706   1439221.29846  21367551.07946
    151410.29106  21005406.07506    110622.13247  21005408.95847
   2255089.31803  24332684.71603   1695357.11245  24332687.93845
  -1865634.51405  24303192.71605  -1291639.29746  24303194.21646
   1432380.17507  21293233.72407   1072341.77947  21293239.99347
  -3417995.96606  22603298.66106  -2589236.97046  22603303.78246
   1447526.89206  22165025.27106   1087919.76847  22165027.94247
   4486478.25805  23634384.17705   3314209.61146  23634390.90346
 18  5 30  0 40 45.0010000  0  9  3 14 16 22 23 26 27 31 32
   1486243.96905  24319538.39605   1148034.29446  24319544.11446
   1923709.89506  21369831.20006   1448574.32247  21369835.14947
    152631.27206  21005638.40306    111573.54647  21005641.41547
   2264469.00103  24334468.66103   1702665.95045  24334472.86845
  -1879447.65205  24300563.54405  -1302402.77246  24300564.76346
   1440959.58707  21294866.18507   1079027.03647  21294872.50147
  -3432382.21606  22600560.91906  -2600447.03246  22600565.97046
   1453313.74107  22166126.41907   1092429.00147  22166129.16147
   4505775.07205  23638055.83305   3329246.06646  23638062.96246
 18  5 30  0 40 50.0010000  0  9  3 14 16 22 23 26 27 31 32
   1492881.97505  24320801.88805   1153206.75946  24320808.16946
   1935723.66106  21372117.41906   1457935.69346  21372121.29846
    153860.65406  21005872.28606    112531.50847  21005875.38047
   2273851.44603  24336255.09103   1709976.90345  24336258.66545
  -1893258.49205  24297935.48905  -1313164.44346  24297936.39246
   1449542.50107  21296499.53607   1085715.01747  21296505.94647
  -3446764.20906  22597824.22406  -2611653.78046  22597829.23946
   1459101.54107  22167227.94207   1096938.97847  22167230.77847
   4525075.50105  23641728.51305   3344285.32646  23641735.28646
 18  5 30  0 40 55.0010000  0  9  3 14 16 22 23 26 27 31 32
   1499526.84205  24322066.21605   1158384.57546  24322072.90746
   1947747.52606  21374405.38806   1467304.93246  21374409.37246
    155097.80406  21006108.00506    113495.51747  21006111.01747
   2283236.00403  24338039.04403   1717289.53245  24338042.88845
  -1907067.63705  24295307.36405  -1323924.81146  24295308.31346
   1458128.25007  21298133.31707   1092405.21147  21298139.82147
  -3461142.58106  22595088.04406  -2622857.70646  22595093.14246
   1464889.66507  22168329.45007   1101449.20447  22168332.40347
   4544378.90405  23645401.80205   3359326.91046  23645408.17746
 18  5 30  0 41  0.0010000  0  9  3 14 16 22 23 26 27 31 32
   1506178.78205  24323331.74705   1163567.90746  24323338.70046
   1959781.70706  21376695.43506   1476682.21146  21376699.64246
    156342.91906  21006344.79406    114465.73447  21006347.86447
   2292622.84902  24339825.47402   1724603.95945  24339830.30245
  -1920874.83305  24292680.32505  -1334683.64946  24292681.29846
   1466717.05107  21299767.48107   1099097.78047  21299774.14947
  -3475517.07806  22592352.64606  -2634058.61146  22592358.10646
   1470678.31807  22169430.88007   1105959.83947  22169433.93847
   4563685.47905  23649075.58305   3374370.98146  23649081.51346
 18  5 30  0 41  5.0010000  0  9  3 14 16 22 23 26 27 31 32
   1512838.23505  24324599.59105   1168757.09246  24324605.60346
   1971826.60906  21378987.57506   1486067.84346  21378991.81746
    157596.41506  21006583.45806    115442.48647  21006586.45847
   2302012.43602  24341612.79402   1731920.55345  24341616.22845
  -1934679.65205  24290053.32505  -1345440.63846  24290054.62646
   1475309.32707  21301402.64607   1105793.05947  21301409.44247
  -3489887.25106  22589617.79406  -2645256.14446  22589623.46646
   1476467.90807  22170532.50507   1110471.20747  22170535.54047
   4582995.67505  23652750.45005   3389417.86646  23652756.56746
 18  5 30  0 41 10.0010000  0  9  3 14 16 22 23 26 27 31 32
   1519505.60605  24325868.20805   1173952.43746  24325874.29046
   1983882.67306  21381281.48106   1495462.17646  21381285.80646
    158858.73306  21006823.52106    116426.11047  21006826.57947
   2311405.17302  24343399.89602   1739239.54045  24343404.33745
  -1948481.61505  24287426.87205  -1356195.42446  24287428.93546
   1483905.49107  21303038.49707   1112491.37247  21303045.27147
  -3504252.69406  22586884.53606  -2656449.98446  22586890.61846
   1482258.92607  22171634.66907   1114983.69047  22171637.64647
   4602309.86305  23656425.49705   3404467.86546  23656431.55646
 18  5 30  0 41 15.0010000  0  9  3 14 16 22 23 26 27 31 32
   1526180.60505  24327138.69205   1179153.72546  24327144.62246
   1995949.61906  21383577.73106   1504864.99046  21383582.22046
    160129.57906  21007065.43506    117416.38247  21007068.27147
   2320800.80702  24345189.09902   1746560.80645  24345193.62245
  -1962280.99205  24284801.02105  -1366948.18246  24284802.33346
   1492505.28907  21304674.97407   1119192.50747  21304681.86847
  -3518613.62506  22584151.95806  -2667640.30946  22584157.77146
   1488051.09906  22172736.86406   1119497.07247  22172739.80647
   4621627.80805  23660101.92705   3419520.79346  23660107.93846
 18  5 30  0 41 20.0010000  0  9  3 14 16 22 23 26 27 31 32
   1532862.64005  24328410.15305   1184360.49746  24328415.64946
   2008026.81806  21385875.84906   1514275.79146  21385880.26746
    161408.34406  21007308.96606    118412.81947  21007311.86047
   2330198.64503  24346977.53603   1753883.79945  24346982.72845
  -1976078.42505  24282175.52105  -1377699.43746  24282176.73946
   1501108.05907  21306311.85607   1125895.95647  21306318.68847
  -3532970.65206  22581419.56006  -2678827.61146  22581425.57146
   1493843.81906  22173839.10606   1124010.87747  22173842.10647
   4640948.84805  23663778.34105   3434576.11746  23663784.93846
 18  5 30  0 41 25.0010000  0  9  3 14 16 22 23 26 27 31 32
   1539551.74705  24329682.40305   1189572.78546  24329687.91146
   2020114.33006  21388175.84106   1523694.63046  21388180.22446
    162695.11106  21007553.40306    119415.49347  21007556.26347
   2339598.78403  24348765.45803   1761208.58345  24348770.06345
  -1989873.80405  24279549.94205  -1388449.07646  24279551.58346
   1509713.87207  21307949.55207   1132601.77747  21307956.41147
  -3547323.72706  22578688.45806  -2690011.82646  22578694.41146
   1499637.13407  22174941.59107   1128525.15247  22174944.67347
   4660273.05605  23667455.95005   3449633.91246  23667462.71246
 18  5 30  0 41 30.0010000  0  9  3 14 16 22 23 26 27 31 32
   1546248.41705  24330957.16105   1194790.97646  24330962.82146
   2032212.61806  21390478.01306   1533121.86846  21390482.36046
    163990.35906  21007800.11406    120424.77947  21007802.86847
   2349001.73003  24350555.56003   1768535.52345  24350558.95845
  -2003666.66505  24276925.28605  -1399196.75246  24276926.86846
   1518323.22207  21309587.85607   1139310.35647  21309594.66547
  -3561672.31806  22575957.84106  -2701192.54346  22575963.84146
   1505431.54507  22176044.23107   1133040.27347  22176047.24347
   4679600.90505  23671133.71605   3464694.55046  23671139.95046
 18  5 30  0 41 35.0010000  0  9  3 14 16 22 23 26 27 31 32
   1552952.42205  24332232.98905   1200014.86646  24332238.26346
   2044321.49606  21392782.57506   1542557.35446  21392787.16946
    165293.88506  21008048.23906    121440.51447  21008051.02847
   2358407.19703  24352345.79403   1775864.43245  24352348.52445
  -2017457.16205  24274301.05205  -1409942.59846  24274302.81046
   1526935.90307  21311226.75507   1146021.53647  21311233.62647
  -3576016.58606  22573228.31006  -2712369.89446  22573234.33346
   1511226.83107  22177147.13807   1137556.07447  22177149.96247
   4698932.19505  23674812.73105   3479757.85946  23674818.67346
 18  5 30  0 41 40.0010000  0  9  3 14 16 22 23 26 27 31 32
   1559663.77105  24333509.68505   1205244.47446  24333515.67346
   2056440.93906  21395088.59906   1552001.07846  21395093.01746
    166605.65706  21008297.83306    122462.67847  21008300.57547
   2367815.22703  24354135.70803   1783195.35445  24354138.26345
  -2031245.27705  24271677.17705  -1420686.58746  24271679.50946
   1535551.87407  21312866.26307   1152735.27847  21312873.16947
  -3590356.56106  22570499.55206  -2723543.89946  22570505.51746
   1517023.00107  22178250.06007   1142072.56847  22178253.02447
   4718266.89805  23678491.94205   3494823.83446  23678498.43546
 18  5 30  0 41 45.0010000  0  9  3 14 16 22 23 26 27 31 32
   1566382.58605  24334788.10605   1210479.90846  24334794.21246
   2068571.07706  21397396.99706   1561453.13346  21397401.47446
    167925.80906  21008549.15306    123491.36747  21008551.91947
   2377225.95803  24355926.85603   1790528.37345  24355929.06045
  -2045030.87705  24269053.98105  -1431428.59646  24269056.36046
   1544171.28707  21314506.52807   1159451.70447  21314513.56347
  -3604692.09306  22567771.22406  -2734714.43846  22567777.23546
   1522820.19907  22179353.27107   1146589.86347  22179356.22447
   4737605.13305  23682172.35605   3509892.57546  23682179.18846
 18  5 30  0 41 50.0010000  0  9  3 14 16 22 23 26 27 31 32
   1573108.45005  24336068.67705   1215720.84346  24336074.02146
   2080711.50506  21399707.35606   1570913.20546  21399711.95046
    169253.97706  21008802.07506    124526.30447  21008804.79447
   2386638.91003  24357717.52803   1797863.15145  24357720.09545
  -2058814.37305  24266431.00505  -1442168.95646  24266432.73946
   1552793.74207  21316147.22407   1166170.50247  21316154.31747
  -3619023.52406  22565044.37206  -2745881.78046  22565050.46646
   1528618.08807  22180456.40307   1151107.69747  22180459.26347
   4756946.52105  23685852.73105   3524963.76746  23685859.97846
 18  5 30  0 41 55.0010000  0  9  3 14 16 22 23 26 27 31 32
   1579842.60905  24337349.84105   1220968.24046  24337356.06346
   2092863.49506  21402019.84106   1580382.28246  21402024.50546
    170591.39606  21009056.43506    125568.44247  21009059.07147
   2396055.36302  24359509.48102   1805200.66445  24359512.43545
  -2072594.49805  24263808.59905  -1452906.70346  24263810.75546
   1561420.48007  21317788.96607   1172892.63547  21317796.08347
  -3633349.62006  22562318.26306  -2757044.95646  22562324.12246
   1534417.88107  22181560.16107   1155627.01447  22181562.90347
   4776292.30105  23689533.76305   3540038.39246  23689540.88046
 18  5 30  0 42  0.0010000  0  9  3 14 16 22 23 26 27 31 32
   1586583.25405  24338632.59905   1226220.69646  24338639.00946
   2105025.25906  21404334.19206   1589858.97946  21404338.68146
    171936.23206  21009312.18506    126616.36447  21009314.92747
   2405473.55002  24361302.33302   1812539.49945  24361306.11845
  -2086372.99305  24261187.17705  -1463643.19346  24261189.72046
   1570049.68907  21319431.01307   1179616.68947  21319438.11847
  -3647672.16106  22559592.29406  -2768205.37946  22559598.08346
   1540217.76607  22182663.86407   1160146.40047  22182666.64247
   4795640.64205  23693215.89605   3555115.00046  23693222.94246
 18  5 30  0 42  5.0010000  0  9  3 14 16 22 23 26 27 31 32
   1593331.69405  24339917.01305   1231479.20746  24339922.75546
   2117198.07806  21406650.66906   1599344.29246  21406654.97046
    173289.81606  21009569.79406    127671.09747  21009572.61847
   2414894.67602  24363094.61402   1819880.60945  24363098.11845
  -2100148.49205  24258565.58305  -1474377.35446  24258567.86846
   1578682.65707  21321073.91907   1186343.67747  21321080.93147
  -3661989.82006  22556868.36406  -2779362.00646  22556874.09546
   1546019.11307  22183767.56007   1164666.92847  22183770.20847
   4814992.84105  23696898.42705   3570194.62246  23696904.89646
 18  5 30  0 42 10.0010000  0  9  3 14 16 22 23 26 27 31 32
   1600087.57605  24341202.63005   1236743.52446  24341208.87646
   2129381.63906  21408969.06006   1608837.96946  21408973.31346
    174651.80606  21009829.06006    128732.38547  21009832.01347
   2424318.48302  24364886.98902   1827223.80545  24364891.56045
  -2113921.39706  24255944.61406  -1485109.48746  24255946.86446
   1587319.05507  21322717.23907   1193073.33847  21322724.28647
  -3676302.90106  22554144.72406  -2790515.06346  22554150.16146
   1551821.55607  22184871.79407   1169188.31447  22184874.27847
   4834348.58905  23700581.72405   3585277.00046  23700588.42746
 18  5 30  0 42 15.0010000  0  9  3 14 16 22 23 26 27 31 32
   1606850.91105  24342489.66105   1242013.66846  24342495.87246
   2141575.92206  21411289.50506   1618340.00046  21411293.77146
    176022.20306  21010089.71606    129800.22947  21010092.73947
   2433744.93102  24366681.91902   1834569.09845  24366684.82545
  -2127691.71106  24253324.41106  -1495839.59646  24253326.49746
   1595958.88507  21324361.44207   1199805.67047  21324368.40747
  -3690611.39906  22551421.95006  -2801664.53446  22551427.45846
   1557625.11907  22185976.48907   1173710.57047  22185979.00947
   4853707.85505  23704265.71605   3600362.12046  23704272.59946
 18  5 30  0 42 20.0010000  0  9  3 14 16 22 23 26 27 31 32
   1613621.54905  24343777.70005   1247289.48246  24343783.58346
   2153780.75706  21413612.29406   1627850.25546  21413616.29046
    177400.85206  21010351.99706    130874.50147  21010355.03247
   2443173.86902  24368475.43502   1841916.35245  24368478.24745
  -2141459.48105  24250704.46605  -1506567.71646  24250706.42346
   1604602.01407  21326006.20807   1206540.57447  21326013.12647
  -3704915.43506  22548699.81006  -2812810.53146  22548705.31746
   1563429.67507  22187080.82507   1178233.59947  22187083.26347
   4873070.49305  23707950.04405   3615449.87246  23707957.07946
 18  5 30  0 42 25.0010000  0  9  3 14 16 22 23 26 27 31 32
   1620399.66205  24345067.86405   1252571.12246  24345073.82946
   2165996.37306  21415937.01306   1637368.91246  21415940.78646
    178787.92306  21010616.23106    131955.33747  21010619.23147
   2452605.46102  24370269.63002   1849265.66145  24370275.57145
  -2155224.51705  24248084.91905  -1517293.70546  24248086.77146
   1613248.60307  21327651.59907   1213278.17947  21327658.29047
  -3719214.78006  22545978.54406  -2823952.87346  22545983.87646
   1569235.40007  22188185.81707   1182757.53847  22188188.31347
   4892436.70205  23711635.28605   3630540.40646  23711642.27446
 18  5 30  0 42 30.0010000  0  9  3 14 16 22 23 26 27 31 32
   1627185.48205  24346359.04405   1257858.77446  24346365.39646
   2178223.02106  21418263.60606   1646896.16846  21418267.21646
    180183.67806  21010881.65306    133042.93447  21010884.77147
   2462039.96302  24372065.57502   1856617.20445  24372071.01345
  -2168986.67405  24245465.87205  -1528017.45146  24245467.48946
   1621898.88207  21329297.86407   1220018.65747  21329304.59147
  -3733509.21206  22543258.56706  -2835091.39146  22543263.75946
   1575042.48307  22189290.67707   1187282.53247  22189293.18547
   4911806.68305  23715321.31005   3645633.88646  23715328.52146
 18  5 30  0 42 35.0010000  0  9  3 14 16 22 23 26 27 31 32
   1633978.78305  24347651.71605   1263152.25246  24347657.61046
   2190460.41206  21420592.47406   1656431.79346  21420596.18846
    181587.87306  21011148.73106    134137.11047  21011151.73147
   2471477.13002  24373861.95802   1863970.83545  24373868.66145
  -2182746.05905  24242847.62205  -1538739.04046  24242849.35646
   1630552.62607  21330944.54407   1226761.83547  21330951.25947
  -3747798.93306  22540539.27106  -2846226.23646  22540544.59146
   1580850.77607  22190396.01307   1191808.47247  22190398.52147
   4931180.20305  23719007.67705   3660730.12246  23719014.92346
 18  5 30  0 42 40.0010000  0  9  3 14 16 22 23 26 27 31 32
   1640780.04805  24348945.84105   1268451.93246  24348951.31346
   2202709.06206  21422923.24706   1665976.18546  21422927.12646
    183000.99406  21011417.57506    135238.24147  21011420.65747
   2480917.46902  24375658.66102   1871326.95645  24375662.71645
  -2196502.17605  24240229.78605  -1549458.10046  24240231.28646
   1639210.33007  21332592.04407   1233508.09947  21332598.80647
  -3762083.42906  22537821.08306  -2857357.00846  22537826.66146
   1586660.77907  22191501.65307   1196335.74347  22191504.37247
   4950557.77705  23722695.31705   3675829.50646  23722702.83346
 18  5 30  0 42 45.0010000  0  9  3 14 16 22 23 26 27 31 32
   1647588.24405  24350241.35605   1273757.01446  24350246.84146
   2214967.95106  21425255.66906   1675528.55846  21425259.48946
    184422.02606  21011688.05206    136345.53847  21011690.97047
   2490359.90802  24377455.76302   1878684.70845  24377458.72845
  -2210256.04805  24237612.83305  -1560175.40446  24237614.31046
   1647870.94607  21334240.20007   1240256.63147  21334246.89247
  -3776363.69106  22535103.71606  -2868484.48646  22535109.32946
   1592471.45907  22192607.49707   1200863.54347  22192610.08747
   4969938.34805  23726383.10605   3690931.23546  23726390.84546
 18  5 30  0 42 50.0010000  0  9  3 14 16 22 23 26 27 31 32
   1654404.46405  24351538.77805   1279068.34945  24351544.55645
   2227238.15606  21427590.76306   1685089.75446  21427594.64246
    185852.06106  21011960.26306    137459.84847  21011963.23947
   2499805.53902  24379252.94202   1886044.93445  24379251.87645
  -2224006.51005  24234996.08305  -1570890.05346  24234997.19646
   1656535.58307  21335888.83307   1247008.29247  21335895.57147
  -3790638.63206  22532386.75506  -2879607.80946  22532392.60346
   1598283.95407  22193713.40307   1205392.76147  22193716.04047
   4989323.01705  23730071.90305   3706036.14946  23730079.63046
 18  5 30  0 42 55.0010000  0  9  3 14 16 22 23 26 27 31 32
   1661227.98905  24352837.30205   1284385.38645  24352843.54845
   2239518.97306  21429927.55206   1694659.22246  21429931.79446
    187290.40006  21012233.88006    138580.63247  21012236.83347
   2509253.67803  24381051.05203   1893407.10845  24381051.22845
  -2237754.33205  24232379.85605  -1581602.64246  24232380.72446
   1665203.53707  21337538.56007   1253762.53947  21337545.29847
  -3804908.92106  22529671.27806  -2890727.51246  22529677.09146
   1604097.53807  22194819.78607   1209922.82047  22194822.42347
   5008711.07905  23733761.13005   3721143.71446  23733769.00946
 18  5 30  0 43  0.0010000  0  9  3 14 16 22 23 26 27 31 32
   1668058.70705  24354136.44205   1289708.04146  24354142.43146
   2251810.27806  21432266.56706   1704236.86046  21432270.93846
    188736.89406  21012509.08306    139707.76847  21012512.03647
   2518704.17602  24382849.45002   1900771.09545  24382848.68845
  -2251499.61605  24229764.29405  -1592313.25846  24229765.65346
   1673874.66307  21339188.41907   1260519.25847  21339195.15747
  -3819174.67906  22526956.56006  -2901843.67446  22526962.54846
   1609912.08007  22195926.35607   1214453.63147  22195929.08747
   5028102.37905  23737451.47405   3736253.79746  23737459.70446
 18  5 30  0 43  5.0010000  0  9  3 14 16 22 23 26 27 31 32
   1674896.94905  24355438.15305   1295036.54046  24355444.24746
   2264112.40206  21434607.32506   1713822.92846  21434611.59146
    190191.89206  21012786.05206    140841.53047  21012788.93547
   2528157.41202  24384647.98902   1908137.24645  24384647.20445
  -2265241.98405  24227149.29405  -1603021.60146  24227150.61846
   1682549.30507  21340839.25507   1267278.71647  21340845.92347
  -3833435.52206  22524242.78606  -2912956.00546  22524248.92746
   1615727.96607  22197033.07507   1218985.49447  22197035.80647
   5047497.27305  23741142.27105   3751366.68246  23741150.82946
 18  5 30  0 43 10.0010000  0  9  3 14 16 22 23 26 27 31 32
   1681742.52905  24356741.00505   1300370.75146  24356746.87646
   2276425.15606  21436950.41106   1723417.28246  21436955.01746
    191655.22406  21013064.65306    141981.78347  21013067.60647
   2537613.16602  24386447.31002   1915505.36745  24386446.39645
  -2278981.56005  24224534.89605  -1613727.76446  24224536.10346
   1691227.30207  21342490.74707   1274040.78947  21342497.39247
  -3847691.60006  22521530.40306  -2924064.62946  22521536.55646
   1621545.04307  22198139.85607   1223518.28047  22198142.52847
   5066895.58305  23744833.81705   3766482.22646  23744842.62246
 18  5 30  0 43 15.0010000  0  9  3 14 16 22 23 26 27 31 32
   1688595.54105  24358044.77805   1305710.74546  24358050.94246
   2288748.66806  21439295.52106   1733020.02046  21439300.40746
    193126.98706  21013344.66106    143128.60947  21013347.62647
   2547071.50102  24388247.48902   1922875.49945  24388245.89645
  -2292718.25205  24221921.06705  -1624431.69046  24221922.18146
   1699908.70207  21344142.67707   1280805.51747  21344149.27447
  -3861942.82106  22518818.14606  -2935169.47646  22518824.14646
   1627363.37807  22199247.08307   1228052.04147  22199249.59147
   5086297.37505  23748526.25505   3781600.48146  23748535.00146
 18  5 30  0 43 20.0010000  0  9  3 14 16 22 23 26 27 31 32
   1695455.87005  24359350.34105   1311056.45346  24359356.36446
   2301082.81206  21441642.61406   1742631.03946  21441647.54846
    194607.06006  21013626.09906    144281.91047  21013628.98147
   2556532.29202  24390047.29402   1930247.50845  24390043.93145
  -2306452.14105  24219307.13805  -1635133.42846  24219308.70846
   1708593.43307  21345795.16107   1287572.83647  21345801.67747
  -3876189.28806  22516107.09106  -2946270.61546  22516113.27846
   1633182.87507  22200354.60607   1232586.70947  22200357.07947
   5105702.54605  23752218.91905   3796721.38146  23752227.85346
 18  5 30  0 43 25.0010000  0  9  3 14 16 22 23 26 27 31 32
   1702323.92305  24360657.45805   1316408.17146  24360663.16546
   2313428.01106  21443992.02106   1752250.67346  21443996.98946
    196095.88206  21013909.74706    145442.02947  21013912.54847
   2565996.00702  24391847.46602   1937621.79645  24391847.39645
  -2320182.79005  24216694.11405  -1645832.64146  24216695.84946
   1717281.89007  21347448.49707   1294343.06247  21347454.98947
  -3890430.53106  22513397.06706  -2957367.68046  22513403.33746
   1639003.96807  22201462.18507   1237122.62147  22201464.61047
   5125111.50805  23755911.63805   3811845.24046  23755919.95046
 18  5 30  0 43 30.0010000  0  9  3 14 16 22 23 26 27 31 32
   1709199.44905  24361965.87205   1321765.71146  24361971.66146
   2325784.05906  21446342.89606   1761878.76146  21446347.85346
    197593.17806  21014194.64606    146608.75147  21014197.45847
   2575462.38101  24393648.73101   1944998.19045  24393648.41545
  -2333910.46905  24214081.82505  -1656529.53946  24214083.73546
   1725973.83307  21349102.50507   1301116.00347  21349108.93847
  -3904666.77506  22510688.28606  -2968460.84746  22510694.09946
   1644826.42507  22202570.31007   1241659.59647  22202572.73547
   5144523.99505  23759606.15305   3826971.83146  23759614.06746
 18  5 30  0 43 35.0010000  0  9  3 14 16 22 23 26 27 31 32
   1716082.76205  24363275.77805   1327129.33246  24363281.86046
   2338151.20906  21448696.77806   1771515.50046  21448701.58346
    199099.23306  21014481.13806    147782.30047  21014483.92747
   2584931.68601  24395451.70801   1952376.90445  24395453.00945
  -2347634.80505  24211470.23105  -1667223.81746  24211472.54046
   1734669.55007  21350757.27107   1307891.88347  21350763.86847
  -3918897.75206  22507980.09906  -2979549.92146  22507985.99346
   1650650.54807  22203678.48107   1246197.86947  22203680.98947
   5163940.33305  23763300.53605   3842101.44046  23763308.48546
 18  5 30  0 43 40.0010000  0  9  3 14 16 22 23 26 27 31 32
   1722973.76205  24364587.06005   1332498.94646  24364593.08346
   2350529.40106  21451051.87206   1781160.84346  21451056.43146
    200614.01506  21014769.21606    148962.64647  21014771.94647
   2594403.94201  24397253.13801   1959757.89045  24397257.52145
  -2361355.87005  24208859.08305  -1677915.54146  24208861.35646
   1743368.96107  21352412.72407   1314670.64047  21352419.32147
  -3933123.45806  22505272.93506  -2990634.89946  22505278.81746
   1656476.27806  22204787.20006   1250737.39847  22204789.81347
   5183360.41305  23766995.84105   3857233.95846  23767003.95446
 18  5 30  0 43 45.0010000  0  9  3 14 16 22 23 26 27 31 32
   1729872.37605  24365899.63005   1337874.49046  24365905.56046
   2362918.57506  21453409.53606   1790814.74246  21453413.88446
    202137.42606  21015059.31006    150149.71847  21015061.97047
   2603878.94201  24399056.64601   1967140.97245  24399058.55645
  -2375073.74005  24206248.66905  -1688604.77546  24206250.83746
   1752072.01107  21354068.71607   1321452.23347  21354075.30247
  -3947343.95206  22502566.82506  -3001715.80446  22502572.89646
   1662303.56506  22205895.70806   1255278.14247  22205898.48547
   5202784.17805  23770692.88805   3872369.33446  23770701.54046
 18  5 30  0 43 50.0010000  0  9  3 14 16 22 23 26 27 31 32
   1736778.09105  24367213.56705   1343255.56646  24367219.72046
   2375318.21406  21455769.46606   1800476.79446  21455773.50946
    203668.93706  21015351.02106    151343.10447  21015353.75147
   2613356.21002  24400859.45002   1974525.81845  24400861.30245
  -2388788.86605  24203639.06005  -1699291.87946  24203641.54446
   1760778.16806  21355725.39606   1328236.24647  21355732.02847
  -3961559.76906  22499861.60606  -3012793.06446  22499867.58346
   1668131.91106  22207005.24706   1259819.71447  22207008.41147
   5222211.11105  23774389.91905   3887507.17046  23774398.79446
 18  5 30  0 43 55.0010000  0  9  3 14 16 22 23 26 27 31 32
   1743690.85505  24368529.50505   1348642.12246  24368535.24746
   2387728.25306  21458130.68506   1810146.94746  21458134.71646
    205208.53706  21015643.64606    152542.79247  21015646.38847
   2622835.66301  24402663.27801   1981912.34745  24402666.82945
  -2402501.33805  24201029.47405  -1709976.91646  24201032.15746
   1769487.39506  21357382.77806   1335022.65247  21357389.47047
  -3975770.88906  22497157.73106  -3023866.65846  22497163.82546
   1673961.25706  22208114.38806   1264362.06147  22208117.61047
   5241641.14805  23778086.90305   3902647.44046  23778095.89646
 18  5 30  0 44  0.0010000  0  9  3 14 16 22 23 26 27 31 32
   1750612.04805  24369846.56705   1354035.24746  24369852.56746
   2400150.08206  21460494.89606   1819826.29246  21460498.73946
    206757.58306  21015938.32506    153749.84647  21015941.06747
   2632318.74101  24404468.61401   1989301.80245  24404474.50945
  -2416209.78705  24198421.08305  -1720658.83046  24198423.42746
   1778201.04706  21359040.79406   1341812.50847  21359047.52147
  -3989975.95606  22494454.43506  -3034935.52346  22494460.39946
   1679792.98207  22209224.16107   1268906.26547  22209227.40747
   5261075.65505  23781785.25505   3917791.19546  23781793.60346
 18  5 30  0 44  5.0010000  0  9  3 14 16 22 23 26 27 31 32
   1757540.94305  24371165.25505   1359434.38346  24371171.07946
   2412582.94206  21462860.78606   1829514.22746  21462864.60646
    208315.38906  21016234.90306    154963.72247  21016237.52847
   2641804.66202  24406274.27802   1996693.45245  24406277.22045
  -2429914.86105  24195812.97405  -1731338.12146  24195815.77446
   1786918.42706  21360699.90306   1348605.27047  21360706.66547
  -4004175.62706  22491752.37206  -3046000.20046  22491758.60646
   1685626.41807  22210334.16107   1273451.80147  22210337.61847
   5280513.92405  23785484.46605   3932937.87346  23785492.62646
 18  5 30  0 44 10.0010000  0  9  3 14 16 22 23 26 27 31 32
   1764477.95006  24372485.18506   1364839.83846  24372490.79846
   2425027.27006  21465228.88006   1839211.09846  21465232.60646
    209882.32806  21016533.01306    156184.71047  21016535.80247
   2651293.88102  24408080.03602   2004087.65945  24408083.83345
  -2443616.11105  24193205.99705  -1742014.43346  24193208.28246
   1795639.93006  21362359.25506   1355401.24647  21362366.07547
  -4018369.47806  22489051.33306  -3057060.34146  22489057.62646
   1691461.94406  22211444.76306   1277998.95847  22211448.09147
   5299956.37805  23789184.62205   3948087.81146  23789192.39646
 18  5 30  0 44 15.0010000  0  9  3 14 16 22 23 26 27 31 32
   1771422.76306  24373806.72406   1370251.37846  24373812.58346
   2437482.78406  21467599.14606   1848916.68546  21467602.87246
    211458.11306  21016832.86406    157412.59647  21016835.78247
   2660786.07902  24409887.40302   2011484.18545  24409892.03245
  -2457313.84905  24190599.20805  -1752688.00746  24190601.45846
   1804365.26606  21364019.60606   1362200.20547  21364026.51347
  -4032557.81506  22486351.22406  -3068116.18646  22486357.58746
   1697299.30907  22212555.37207   1282547.55147  22212558.60647
   5319402.67505  23792884.53605   3963240.74446  23792892.01746
 18  5 30  0 44 20.0010000  0  9  3 14 16 22 23 26 27 31 32
   1778374.95106  24375129.62206   1375668.66246  24375135.13046
   2449949.06306  21469971.47406   1858630.66446  21469975.07146
    213042.31606  21017134.31006    158647.04147  21017137.39247
   2670280.79402  24411692.86402   2018882.64045  24411696.13445
  -2471008.44505  24187993.41905  -1763359.12346  24187995.63446
   1813093.98806  21365680.77106   1369001.80647  21365687.75947
  -4046741.01906  22483652.27806  -3079168.03046  22483658.74746
   1703138.08507  22213666.41907   1287097.23547  22213669.63047
   5338852.41405  23796586.20005   3978396.35646  23796594.04446
 18  5 30  0 44 25.0010000  0  9  3 14 16 22 23 26 27 31 32
   1785334.53506  24376453.98906   1381091.70946  24376459.55646
   2462426.03706  21472345.83306   1868352.97646  21472349.32546
    214634.93906  21017437.55206    159888.04447  21017440.57547
   2679778.04102  24413500.17702   2026283.07245  24413504.10345
  -2484699.86505  24185387.91905  -1774027.75846  24185390.22846
   1821826.10706  21367342.28606   1375806.05047  21367349.25147
  -4060919.09206  22480954.10606  -3090215.88046  22480960.51746
   1708978.25406  22214778.09106   1291648.01347  22214781.34947
   5358305.56105  23800287.76305   3993554.62346  23800294.78646
 18  5 30  0 44 30.0010000  0  9  3 14 16 22 23 26 27 31 32
   1792301.41006  24377779.51306   1386520.42346  24377785.19646
   2474913.69006  21474721.66906   1878083.60846  21474724.99746
    216235.93406  21017742.02106    161135.57547  21017745.17347
   2689277.74902  24415308.42702   2033685.41445  24415313.84145
  -2498388.16505  24182783.17705  -1784693.95646  24182785.20446
   1830561.54806  21369004.69206   1382612.88347  21369011.70447
  -4075092.05606  22478257.49706  -3101259.74346  22478263.97846
   1714819.80606  22215889.58306   1296199.87047  22215892.77147
   5377762.10105  23803990.24705   4008715.53746  23803997.11846
 18  5 30  0 44 35.0010000  0  9  3 14 16 22 23 26 27 31 32
   1799275.30706  24379106.52806   1391954.61646  24379112.45846
   2487411.77106  21477099.92706   1887822.37546  21477103.37246
    217845.00206  21018048.17706    162389.39947  21018051.48147
   2698779.61801  24417116.13801   2041089.46445  24417118.11845
  -2512073.64705  24180178.66905  -1795357.96346  24180180.23946
   1839300.04906  21370667.77806   1389422.10047  21370674.77847
  -4089260.14606  22475561.09106  -3112299.81046  22475567.67746
   1720662.43506  22217001.31706   1300752.56247  22217004.41147
   5397221.69605  23807693.27805   4023878.82046  23807699.88846
 18  5 30  0 44 40.0010000  0  9  3 14 16 22 23 26 27 31 32
   1806256.88806  24380435.24706   1397394.79346  24380441.47046
   2499920.88306  21479480.48906   1897569.73646  21479484.14646
    219462.80006  21018356.06706    163650.01947  21018359.43147
   2708284.28101  24418925.02101   2048495.65745  24418925.41945
  -2525755.61305  24177575.06005  -1806019.24046  24177576.48946
   1848042.24306  21372331.30206   1396234.19547  21372338.32547
  -4103422.72406  22472866.02806  -3123335.58846  22472872.74346
   1726506.81807  22218113.44207   1305306.62547  22218116.34947
   5416685.00405  23811397.57505   4039045.01746  23811403.75146
 18  5 30  0 44 45.0010000  0  9  3 14 16 22 23 26 27 31 32
   1813246.56005  24381765.14605   1402841.30146  24381771.16946
   2512441.46606  21481863.11406   1907326.03446  21481867.09946
    221089.77306  21018665.72406    164917.78947  21018669.14647
   2717792.14801  24420732.63001   2055904.37045  24420735.92345
  -2539433.63505  24174972.58305  -1816677.44846  24174973.88446
   1856788.54006  21373995.59906   1403049.48847  21374002.52847
  -4117579.34906  22470172.16106  -3134366.71946  22470179.06746
   1732353.41707  22219226.06707   1309862.41447  22219228.76347
   5436152.45305  23815102.03605   4054214.44046  23815108.18846
 18  5 30  0 44 50.0010000  0  9  3 14 16 22 23 26 27 31 32
   1820244.80906  24383097.04406   1408294.47746  24383103.12646
   2524974.02006  21484247.72406   1917091.65546  21484251.90746
    222726.37206  21018977.22406    166193.06347  21018980.73947
   2727303.75401  24422543.23901   2063316.03645  24422544.44645
  -2553107.20305  24172370.42705  -1827332.17146  24172371.86846
   1865539.46206  21375660.90306   1409868.38547  21375667.85647
  -4131729.49606  22467479.58306  -3145392.80646  22467486.29846
   1738202.73607  22220338.97407   1314420.32947  22220341.90347
   5455624.54405  23818807.02105   4069387.48246  23818813.53646
 18  5 30  0 44 55.0010000  0  9  3 14 16 22 23 26 27 31 32
   1827250.89406  24384429.95006   1413753.76946  24384436.31346
   2537517.80006  21486634.81006   1926866.02246  21486639.16946
    224371.87206  21019290.20006    167475.27347  21019293.75147
   2736818.34901  24424353.29401   2070730.09145  24424354.06745
  -2566777.03305  24169769.13805  -1837983.98746  24169769.91146
   1874294.25007  21377327.06707   1416690.29347  21377333.93847
  -4145873.87606  22464787.95806  -3156414.39746  22464794.32146
   1744054.04407  22221452.54407   1318979.78747  22221455.52147
   5475100.49905  23822513.05205   4084563.52646  23822519.75546
 18  5 30  0 45  0.0010000  0  9  3 14 16 22 23 26 27 31 32
   1834264.11806  24385764.59906   1419218.61246  24385770.62246
   2550072.11106  21489023.86406   1936648.60246  21489028.27146
    226025.57006  21019604.88806    168763.87047  21019608.47447
   2746335.24101  24426163.79401   2078145.92844  24426164.33344
  -2580443.80405  24167168.31705  -1848633.42246  24167169.18546
   1883052.19507  21378993.74707   1423514.66047  21379000.43847
  -4160013.19106  22462097.06706  -3167432.04646  22462103.48946
   1749906.60707  22222566.38007   1323540.22447  22222569.50947
   5494579.64505  23826220.25505   4099742.06746  23826226.56046
 18  5 30  0 45  5.0010000  0  9  3 14 16 22 23 26 27 31 32
   1841284.71406  24387100.77806   1424689.19846  24387107.54046
   2562637.20606  21491414.83306   1946439.58246  21491419.21646
    227687.72706  21019921.28606    170059.05547  21019924.94247
   2755854.61901  24427977.07501   2085563.58845  24427980.70845
  -2594107.26005  24164568.41105  -1859280.29046  24164569.98146
   1891813.55307  21380660.86407   1430341.68847  21380667.55647
  -4174147.17006  22459407.46606  -3178445.53446  22459413.93546
   1755760.71207  22223680.20007   1328101.85947  22223683.28247
   5514062.21205  23829927.52105   4114923.27246  23829934.00146
 18  5 30  0 45 10.0010000  0  9  3 14 16 22 23 26 27 31 32
   1848313.01906  24388437.93506   1430165.78946  24388444.84146
   2575213.39006  21493807.91906   1956239.20946  21493812.18546
    229358.66606  21020239.26306    171361.08047  21020242.88447
   2765376.83101  24429788.82501   2092983.45945  24429795.84945
  -2607767.03205  24161968.95805  -1869924.27646  24161970.48146
   1900578.65307  21382328.76307   1437171.63147  21382335.50147
  -4188275.44006  22456719.20006  -3189454.56446  22456725.51746
   1761616.70106  22224794.54406   1332664.96147  22224797.63847
   5533548.49905  23833635.23905   4130107.37146  23833641.98946
 18  5 30  0 45 15.0010000  0  9  3 14 16 22 23 26 27 31 32
   1855348.97506  24389776.90306   1435648.34246  24389783.57146
   2587800.64506  21496203.45006   1966047.46246  21496207.59946
    231038.36106  21020558.85606    172669.93647  21020562.54847
   2774901.85101  24431603.46601   2100405.53745  24431610.89945
  -2621423.17205  24159370.45005  -1880565.42246  24159372.10346
   1909347.45107  21383997.33307   1444004.46047  21384004.03647
  -4202398.04606  22454031.92706  -3200459.18946  22454038.02146
   1767474.53406  22225909.51306   1337229.50447  22225912.46647
   5553038.51905  23837344.11405   4145294.38246  23837350.79446
 18  5 30  0 45 20.0010000  0  9  3 14 16 22 23 26 27 31 32
   1862393.16206  24391117.57506   1441137.30746  24391124.04446
   2600399.55006  21498600.69206   1975864.79146  21498604.82946
    232727.34106  21020880.18506    173986.02247  21020883.93547
   2784430.23401  24433414.79401   2107830.23645  24433422.05245
  -2635075.03205  24156772.82505  -1891203.23046  24156774.33746
   1918120.51607  21385666.79407   1450840.61447  21385673.52147
  -4216514.36406  22451345.45006  -3211458.91446  22451351.26346
   1773334.81307  22227024.61407   1341795.95447  22227027.57947
   5572532.80905  23841053.59105   4160484.72746  23841060.54446
 18  5 30  0 45 25.0010000  0  9  3 14 16 22 23 26 27 31 32
   1869445.31306  24392459.44206   1446632.48946  24392465.52446
   2613009.83206  21501000.52106   1985690.98146  21501004.72846
    234425.35906  21021203.44206    175309.15247  21021207.28647
   2793961.73901  24435228.40301   2115257.44244  24435230.63044
  -2648722.88105  24154175.36405  -1901837.91446  24154176.60646
   1926897.56907  21387336.86407   1457679.87547  21387343.55647
  -4230624.67206  22448660.13006  -3222453.96646  22448665.77846
   1779197.23307  22228140.06007   1346364.07147  22228142.98947
   5592031.08105  23844764.33305   4175678.16246  23844771.49746
 18  5 30  0 45 30.0010000  0  9  3 14 16 22 23 26 27 31 32
   1876504.58406  24393803.20006   1452133.21646  24393809.63446
   2625630.67706  21503402.31006   1995525.40346  21503406.30646
    236131.58506  21021527.92706    176638.67647  21021531.82947
   2803495.50802  24437042.49702   2122686.29445  24437042.12245
  -2662367.50805  24151578.73905  -1912470.08246  24151579.73546
   1935677.78807  21389007.81707   1464521.60247  21389014.59147
  -4244729.77506  22445976.22406  -3233444.96246  22445981.67346
   1785061.01707  22229255.96607   1350933.25147  22229259.07147
   5611532.50905  23848474.98105   4190874.06646  23848482.42746
 18  5 30  0 45 35.0010000  0  9  3 14 16 22 23 26 27 31 32
   1883571.46106  24395147.72406   1457639.87346  24395153.97046
   2638262.53406  21505806.21606   2005368.40646  21505810.14246
    237846.48406  21021854.35606    177974.96147  21021858.24747
   2813032.00502  24438857.94202   2130117.27445  24438858.58745
  -2676008.49505  24148982.95005  -1923099.40746  24148984.11046
   1944461.64807  21390679.57507   1471366.16447  21390686.29047
  -4258829.15806  22443292.97406  -3244431.49546  22443298.27146
   1790926.63407  22230372.23107   1355503.85747  22230375.29047
   5631037.58305  23852186.90305   4206072.82046  23852194.95846
 18  5 30  0 45 40.0010000  0  9  3 14 16 22 23 26 27 31 32
   1890646.13106  24396494.36406   1463152.60246  24396501.05646
   2650905.59706  21508212.07506   2015220.13646  21508215.82546
    239570.29406  21022182.52806    179318.19047  21022186.34947
   2822571.34002  24440672.30202   2137550.58145  24440675.27845
  -2689645.60305  24146388.05205  -1933725.70146  24146389.61046
   1953249.34807  21392351.66107   1478213.72047  21392358.36447
  -4272922.56806  22440611.10606  -3255413.36846  22440616.62646
   1796794.36507  22231488.83307   1360076.11247  22231491.88047
   5650546.48305  23855899.24705   4221274.53746  23855907.51346
 18  5 30  0 45 45.0010000  0  9  3 14 16 22 23 26 27 31 32
   1897728.60506  24397841.96606   1468671.40846  24397848.34146
   2663559.84806  21510620.23906   2025080.58646  21510623.81346
    241303.00006  21022512.25506    180668.35247  21022515.94647
   2832113.56902  24442488.35602   2144986.06245  24442490.32545
  -2703278.78305  24143793.73905  -1944348.94446  24143795.38046
   1962040.89707  21394024.63807   1485064.27947  21394031.22447
  -4287010.06306  22437930.53606  -3266390.62946  22437936.37246
   1802664.15807  22232605.91907   1364649.97147  22232609.04847
   5670059.22205  23859612.70805   4236479.26346  23859621.09146
 18  5 30  0 45 50.0010000  0  9  3 14 16 22 23 26 27 31 32
   1904818.75106  24399191.05206   1474196.19246  24399197.22846
   2676225.20806  21513030.39606   2034949.68846  21513033.78246
    243044.48306  21022843.28606    182025.35047  21022846.90747
   2841658.69502  24444303.90302   2152423.81545  24444304.45445
  -2716908.16605  24141200.46605  -1954969.23246  24141202.29446
   1970836.17307  21395698.27107   1491917.73847  21395704.88047
  -4301091.69406  22435250.76306  -3277363.31946  22435256.69246
   1808535.90307  22233723.20807   1369225.34847  22233726.26747
   5689575.66705  23863326.41105   4251686.86546  23863334.88846
 18  5 30  0 45 55.0010000  0  9  3 14 16 22 23 26 27 31 32
   1911916.37606  24400541.88806   1479726.80646  24400548.12246
   2688901.48906  21515442.52106   2044827.30246  21515445.68546
    244794.58206  21023176.47406    183389.06147  21023179.98947
   2851206.41202  24446121.58302   2159863.55045  24446122.96645
  -2730533.91706  24138607.25506  -1965586.69546  24138608.75546
   1979635.00607  21397372.55207   1498773.97647  21397379.02147
  -4315167.61306  22432571.95806  -3288331.54846  22432578.08746
   1814409.45807  22234840.69207   1373802.13947  22234843.48147
   5709095.64705  23867041.31705   4266897.21246  23867049.50146
 18  5 30  0 46  0.0010000  0  9  3 14 16 22 23 26 27 31 32
   1919021.65006  24401893.98106   1485263.38846  24401899.81746
   2701588.91506  21517856.99706   2054713.60146  21517860.04446
    246553.45606  21023511.33306    184759.60747  21023514.73147
   2860756.91402  24447938.77802   2167305.48245  24447942.82145
  -2744155.83205  24136015.10605  -1976201.18446  24136016.85346
   1988437.52606  21399047.53606   1505633.08747  21399054.06347
  -4329237.64606  22429894.53606  -3299295.20746  22429900.60646
   1820284.97007  22235958.93507   1378380.45647  22235961.93547
   5728619.31605  23870756.37205   4282110.44546  23870763.89946
 18  5 30  0 46  5.0010000  0  9  3 14 16 22 23 26 27 31 32
   1926134.56406  24403247.36406   1490805.90246  24403253.22446
   2714287.39206  21520273.28606   2064608.51346  21520276.41546
    248321.08706  21023847.64606    186136.97947  21023850.90347
   2870310.18202  24449755.51302   2174749.56545  24449760.77445
  -2757773.90705  24133423.56705  -1986812.70346  24133424.79846
   1997243.74406  21400723.40306   1512495.08047  21400729.98947
  -4343301.79406  22427218.27106  -3310254.28746  22427224.21246
   1826162.43507  22237077.39607   1382960.30147  22237080.18547
   5748146.64205  23874472.32505   4297326.53446  23874479.95846
 18  5 30  0 46 10.0010000  0  9  3 14 16 22 23 26 27 31 32
   1933255.32806  24404602.58306   1496354.55146  24404608.30246
   2726997.15906  21522692.03606   2074512.22346  21522694.93146
    250097.67606  21024185.66906    187521.33047  21024188.99747
   2879866.46102  24451575.31702   2182196.02645  24451580.61445
  -2771387.87305  24130833.18505  -1997421.01246  24130834.33346
   2006053.85106  21402399.78606   1519360.10247  21402406.33747
  -4357359.81106  22424543.48106  -3321208.59246  22424549.69246
   1832042.13507  22238196.26307   1387541.88447  22238199.18147
   5767677.85405  23878188.98905   4312545.65046  23878196.97446
 18  5 30  0 46 15.0010000  0  9  3 14 16 22 23 26 27 31 32
   1940383.36706  24405959.11406   1501908.85546  24405965.06746
   2739717.68806  21525112.46606   2084424.32046  21525115.57146
    251882.66206  21024525.42706    188912.22847  21024528.70847
   2889425.10102  24453394.85602   2189644.32145  24453398.47845
  -2784998.25305  24128242.95805  -2008026.50346  24128243.59146
   2014867.29906  21404076.95806   1526227.72347  21404083.54447
  -4371412.20806  22421869.58306  -3332158.50046  22421875.63046
   1837923.48807  22239315.51307   1392124.75147  22239318.33747
   5787212.38605  23881906.78605   4327767.34046  23881914.47846
 18  5 30  0 46 20.0010000  0  9  3 14 16 22 23 26 27 31 32
   1947519.41906  24407316.67706   1507469.40846  24407322.46646
   2752449.64506  21527535.23906   2094345.31846  21527538.55646
    253676.78006  21024866.96606    190310.24247  21024870.18847
   2898986.88802  24455212.87202   2197095.09845  24455216.10645
  -2798604.37806  24125653.91106  -2018628.66946  24125654.75546
   2023684.81306  21405754.96606   1533098.50947  21405761.58747
  -4385458.28506  22419196.39606  -3343103.49046  22419202.44246
   1843807.19207  22240435.30207   1396709.44947  22240438.07947
   5806750.94005  23885624.38805   4342992.16546  23885631.86846
 18  5 30  0 46 25.0010000  0  9  3 14 16 22 23 26 27 31 32
   1954663.82706  24408676.48106   1513036.48346  24408682.24746
   2765193.43606  21529960.27106   2104275.53546  21529963.75146
    255480.38006  21025210.14606    191715.64547  21025213.33347
   2908552.20602  24457033.74702   2204548.58444  24457034.26344
  -2812205.82705  24123065.82505  -2029227.19046  24123066.99746
   2032506.75806  21407433.77806   1539972.74747  21407440.41147
  -4399497.64406  22416524.99706  -3354043.25346  22416530.93846
   1849693.64907  22241555.29407   1401296.29547  22241558.20047
   5826293.89805  23889343.42705   4358220.42346  23889350.63846
 18  5 30  0 46 30.0010000  0  9  3 14 16 22 23 26 27 31 32
   1961816.35406  24410037.43506   1518609.88246  24410042.94246
   2777948.80906  21532387.36406   2114214.78546  21532391.14946
    257293.22906  21025555.06006    193128.25447  21025558.25947
   2918120.75703  24458854.98903   2212004.46745  24458852.92745
  -2825802.81805  24120477.98105  -2039822.23146  24120479.06046
   2041332.87506  21409113.13806   1546850.23847  21409119.66547
  -4413530.48006  22413854.53606  -3364977.92846  22413860.47846
   1855582.65207  22242675.95007   1405885.12847  22242678.82147
   5845840.99405  23893063.17705   4373451.91546  23893070.10646
 18  5 30  0 46 35.0010000  0  9  3 14 16 22 23 26 27 31 32
   1968976.32006  24411400.43506   1524189.07246  24411406.16546
   2790715.10506  21534816.88806   2124162.54546  21534821.14246
    259114.65006  21025901.44206    194547.54047  21025904.53647
   2927691.94003  24460676.32503   2219462.50345  24460672.54045
  -2839396.03905  24117891.74705  -2050414.34146  24117892.97846
   2050162.51106  21410793.51306   1553730.46647  21410800.21647
  -4427557.47706  22411185.48106  -3375908.04746  22411191.58746
   1861473.53407  22243796.85607   1410475.42847  22243799.69247
   5865391.58905  23896783.24705   4388686.12846  23896790.99746
 18  5 30  0 46 40.0010000  0  9  3 14 16 22 23 26 27 31 32
   1976143.14006  24412763.62206   1529773.59746  24412769.54046
   2803491.73106  21537247.77806   2134118.35646  21537252.47846
    260944.04806  21026250.00506    195973.04447  21026252.99347
   2937265.04103  24462498.50503   2226922.06445  24462496.29045
  -2852986.07505  24115305.35605  -2061003.98446  24115306.55246
   2058995.04206  21412474.25506   1560612.95047  21412480.82947
  -4441579.20606  22408517.07506  -3386834.05646  22408523.13446
   1867365.69506  22244918.16106   1415066.71747  22244921.06747
   5884945.03805  23900504.01305   4403922.55646  23900511.41146
 18  5 30  0 46 45.0010000  0  9  3 14 16 22 23 26 27 31 32
   1983317.21606  24414128.86406   1535363.77946  24414134.60646
   2816279.08306  21539681.50506   2144082.52346  21539686.47446
    262781.81706  21026599.52106    197405.06847  21026602.46247
   2946840.43203  24464321.25503   2234383.44145  24464319.80245
  -2866572.45505  24112720.15305  -2071590.77846  24112721.39646
   2067830.86306  21414155.66906   1567497.99747  21414162.16147
  -4455595.22506  22405849.88006  -3397755.62246  22405855.98546
   1873259.55906  22246039.50506   1419659.33847  22246042.43547
   5904501.75805  23904225.96605   4419161.54746  23904233.52846
 18  5 30  0 46 50.0010000  0  9  3 14 16 22 23 26 27 31 32
   1990498.69106  24415495.28606   1540959.73046  24415500.63046
   2829077.30806  21542116.56706   2154055.17246  21542121.68846
    264628.13806  21026950.87206    198843.75947  21026953.79047
   2956418.34803  24466142.95003   2241846.78745  24466144.14645
  -2880154.99405  24110135.04405  -2082174.58446  24110136.74346
   2076670.17606  21415837.80206   1574385.75947  21415844.37647
  -4469605.34006  22403183.89606  -3408672.58846  22403190.03646
   1879155.28806  22247161.45806   1424253.41147  22247164.43547
   5924061.91305  23907947.78605   4434403.19746  23907955.27846
 18  5 30  0 46 55.0010000  0  9  3 14 16 22 23 26 27 31 32
   1997687.97306  24416863.52106   1546561.76846  24416869.11046
   2841886.81206  21544554.23906   2164036.60546  21544559.61846
    266483.44406  21027304.01306    200289.45147  21027306.94247
   2965999.15703  24467966.72403   2249312.33145  24467967.34545
  -2893733.25405  24107551.30205  -2092755.04546  24107553.13046
   2085513.36706  21417520.74706   1581276.54147  21417527.36847
  -4483609.16306  22400519.20806  -3419584.65946  22400525.41946
   1885053.32307  22248283.96607   1428849.27747  22248286.90747
   5943625.90305  23911670.69205   4449647.85446  23911678.19646
 18  5 30  0 47  0.0010000  0  9  3 14 16 22 23 26 27 31 32
   2004884.71606  24418232.88806   1552169.61346  24418238.47846
   2854707.24206  21546994.12206   2174026.55246  21546999.38446
    268347.38406  21027658.63006    201741.87047  21027661.46647
   2975582.51704  24469789.97404   2256779.83045  24469789.51745
  -2907307.55506  24104968.29406  -2103332.42146  24104970.14646
   2094360.08606  21419204.20806   1588170.06047  21419210.94647
  -4497606.96306  22397855.25506  -3430492.03546  22397861.68846
   1890953.33707  22249406.79407   1433446.68547  22249409.77147
   5963193.39405  23915394.39605   4464895.21946  23915402.48546
 18  5 30  0 47  5.0010000  0  9  3 14 16 22 23 26 27 31 32
   2012089.11406  24419603.71606   1557783.43346  24419609.55246
   2867538.79906  21549435.82506   2184025.16846  21549440.93546
    270220.12206  21028015.00506    203201.14747  21028017.88847
   2985168.64203  24471614.38003   2264249.52745  24471613.51345
  -2920877.74706  24102386.12206  -2113906.59746  24102387.59946
   2103210.56106  21420888.48106   1595066.51347  21420895.18547
  -4511598.57306  22395192.92706  -3441394.58646  22395199.37246
   1896855.52607  22250529.86407   1438045.78547  22250532.79447
   5982764.53705  23919118.76305   4480145.43846  23919127.14646
 18  5 30  0 47 10.0010000  0  9  3 14 16 22 23 26 27 31 32
   2019301.17506  24420976.09106   1563403.21346  24420982.22046
   2880381.50806  21551879.53606   2194032.48447  21551884.10647
    272101.68006  21028373.11406    204667.29347  21028375.89247
   2994757.54303  24473438.37203   2271721.40545  24473438.95845
  -2934443.78906  24099804.45806  -2124477.54046  24099805.99346
   2112064.77206  21422573.30206   1601965.88947  21422579.99347
  -4525583.95906  22392531.40306  -3452292.28646  22392537.54446
   1902759.92107  22251653.58307   1442646.60347  22251656.41947
   6002339.37005  23922843.18505   4495398.52646  23922851.05246
 18  5 30  0 47 15.0010000  0  9  3 14 16 22 23 26 27 31 32
   2026520.94206  24422350.10606   1569028.99746  24422356.29446
   2893235.40306  21554325.76306   2204048.50146  21554330.81346
    273992.09006  21028732.91906    206140.34247  21028735.59147
   3004349.22103  24475264.43503   2279195.40745  24475266.26345
  -2948005.56706  24097223.63806  -2135045.16046  24097225.02146
   2120922.81206  21424259.09906   1608868.25847  21424265.74347
  -4539563.01206  22389871.50506  -3463185.05246  22389877.65746
   1908666.58307  22252777.31707   1447249.18847  22252780.16547
   6021917.93305  23926569.04405   4510654.52846  23926576.61846
 18  5 30  0 47 20.0010000  0  9  3 14 16 22 23 26 27 31 32
   2033748.85506  24423725.59106   1574661.12746  24423731.42746
   2906100.96506  21556774.23906   2214073.60046  21556778.97446
    275891.81606  21029094.40306    207620.65147  21029097.09947
   3013944.16603  24477089.78603   2286672.00845  24477092.76345
  -2961562.66206  24094644.14606  -2145609.11646  24094645.73946
   2129785.07107  21425945.47407   1615773.93347  21425952.18847
  -4553535.28906  22387212.52806  -3474072.54246  22387218.82146
   1914575.95807  22253902.03607   1451853.88747  22253904.75547
   6041500.67005  23930295.17705   4525913.78646  23930301.98546
 18  5 30  0 47 25.0010000  0  9  3 14 16 22 23 26 27 31 32
   2040984.40105  24425102.62205   1580299.21546  24425108.14246
   2918977.69406  21559224.62206   2224107.39446  21559229.19246
    277800.37006  21029457.44206    209107.84047  21029460.22047
   3023541.84503  24478915.88803   2294150.71345  24478918.81745
  -2975115.53706  24092065.09906  -2156169.79746  24092066.68146
   2138651.01207  21427632.63007   1622682.46447  21427639.43847
  -4567501.29706  22384554.88006  -3484955.14346  22384561.23146
   1920487.64507  22255027.13007   1456460.38747  22255029.83747
   6061087.05405  23934022.47405   4541175.88345  23934029.14245
 18  5 30  0 47 30.0010000  0  9  3 14 16 22 23 26 27 31 32
   2048227.28605  24426480.95805   1585943.01246  24426486.68846
   2931865.25006  21561677.15306   2234149.64446  21561681.17346
    279717.42706  21029822.40306    210601.65047  21029825.28647
   3033141.93803  24480742.90303   2301631.32145  24480745.58745
  -2988664.47406  24089486.77106  -2166727.39946  24089487.96646
   2147520.37607  21429320.37207   1629593.65347  21429327.09947
  -4581461.31306  22381898.00506  -3495833.07946  22381904.34546
   1926401.21707  22256152.17707   1461068.36647  22256154.89647
   6080676.79805  23937750.86405   4556440.60646  23937757.99346
 18  5 30  0 47 35.0010000  0  9  3 14 16 22 23 26 27 31 32
   2055477.92905  24427860.60605   1591592.85746  24427866.43146
   2944764.09306  21564131.52806   2244200.68646  21564135.26746
    281643.44606  21030188.71606    212102.44547  21030191.61047
   3042744.86203  24482569.76303   2309114.11145  24482574.01745
  -3002208.99606  24086909.24706  -2177281.56246  24086910.00946
   2156393.62307  21431009.03607   1636507.86847  21431015.64647
  -4595414.81806  22379243.16106  -3506705.94046  22379249.57146
   1932317.16507  22257278.06707   1465678.19547  22257280.66947
   6100270.33805  23941478.98105   4571708.27946  23941485.63846
 18  5 30  0 47 40.0010000  0  9  3 14 16 22 23 26 27 31 32
   2062736.13305  24429242.18505   1597248.59546  24429248.43146
   2957674.01506  21566588.46606   2254260.36646  21566592.08746
    283578.18006  21030557.09106    213610.03147  21030560.03247
   3052350.51603  24484397.81703   2316599.05045  24484401.93145
  -3015749.32106  24084332.17706  -2187832.46346  24084333.20846
   2165270.52307  21432698.27107   1643424.93947  21432704.97447
  -4609362.05906  22376589.03606  -3517573.91446  22376595.30646
   1938235.29607  22258404.23107   1470289.71747  22258406.84547
   6119867.43605  23945208.71605   4586978.69846  23945215.51346
 18  5 30  0 47 45.0010000  0  9  3 14 16 22 23 26 27 31 32
   2070002.66005  24430624.84105   1602910.81546  24430631.07546
   2970595.80206  21569047.75506   2264329.28346  21569051.17746
    285522.46406  21030927.00506    215125.05847  21030930.01747
   3061959.58803  24486226.61403   2324086.64945  24486230.64645
  -3029284.58706  24081756.84106  -2198379.41746  24081758.16546
   2174151.84807  21434388.21607   1650345.46447  21434394.98947
  -4623302.19006  22373936.13806  -3528436.35446  22373942.60646
   1944156.38607  22259530.88007   1474903.54947  22259533.55247
   6139468.91405  23948938.72405   4602252.55446  23948945.40346
 18  5 30  0 47 50.0010000  0  9  3 14 16 22 23 26 27 31 32
   2077276.38705  24432008.67705   1608578.64846  24432015.23946
   2983528.28106  21571508.38006   2274406.53146  21571511.68546
    287475.10406  21031298.56706    216646.59547  21031301.54447
   3071570.97303  24488055.88003   2331576.03045  24488060.11045
  -3042815.97206  24079181.98106  -2208923.34846  24079183.49346
   2183036.44207  21436078.95807   1657268.53347  21436085.72047
  -4637236.38106  22371284.66906  -3539294.16046  22371291.30246
   1950079.25107  22260658.13007   1479518.76947  22260660.82547
   6159073.57605  23952669.68505   4617528.89546  23952676.16546
 18  5 30  0 47 55.0010000  0  9  3 14 16 22 23 26 27 31 32
   2084557.23005  24433394.01305   1614252.03046  24433400.29446
   2996471.38906  21573971.45006   2284492.05946  21573974.72046
    289436.05306  21031671.76306    218174.60847  21031674.79847
   3081184.54203  24489884.67703   2339067.11345  24489888.73145
  -3056343.50206  24076608.14606  -2219464.27746  24076609.20046
   2191924.23807  21437770.20007   1664194.09647  21437776.95047
  -4651164.67906  22368634.16906  -3550147.37646  22368641.01346
   1956003.92007  22261785.53607   1484135.39447  22261788.44247
   6178681.37405  23956400.79405   4632807.68446  23956407.22846
 18  5 30  0 48  0.0010000  0  9  3 14 16 22 23 26 27 31 32
   2091845.16905  24434780.98905   1619930.93646  24434787.61046
   3009425.13306  21576436.10606   2294585.87946  21576439.52846
    291405.30506  21032046.55206    219709.08947  21032049.71647
   3090800.33203  24491715.04403   2346559.91545  24491719.53245
  -3069867.20206  24074034.36406  -2230002.21046  24074035.26746
   2200815.25707  21439462.11407   1671122.16447  21439468.79447
  -4665087.02206  22365984.71606  -3560995.95046  22365991.47846
   1961930.36707  22262913.37207   1488753.40247  22262916.17347
   6198292.29805  23960133.05205   4648088.90146  23960138.89946
 18  5 30  0 48  5.0010000  0  9  3 14 16 22 23 26 27 31 32
   2099140.83705  24436169.13805   1625615.87846  24436175.48946
   3022390.09106  21578903.27106   2304688.44346  21578906.78646
    293383.46806  21032422.78606    221250.51547  21032426.05647
   3100418.90704  24493545.85604   2354054.90645  24493550.49745
  -3083386.41606  24071461.59906  -2240536.64346  24071462.60646
   2209710.05507  21441154.54407   1678053.17147  21441161.27147
  -4679002.81406  22363336.49706  -3571839.42046  22363343.22446
   1967859.22107  22264041.44207   1493373.28147  22264044.16147
   6217906.93605  23963865.09105   4663372.99446  23963871.13846
 18  5 30  0 48 10.0010000  0  9  3 14 16 22 23 26 27 31 32
   2106444.77205  24437558.96605   1631307.25746  24437565.72846
   3035366.87406  21581372.61406   2314800.21646  21581376.27146
    295371.13206  21032800.98906    222799.34547  21032804.25947
   3110040.83804  24495376.91104   2361552.54145  24495380.28645
  -3096900.58006  24068889.79406  -2251067.14146  24068890.60346
   2218609.23207  21442848.19207   1684987.58747  21442854.90747
  -4692911.44206  22360689.98906  -3582677.30546  22360696.66946
   1973791.11907  22265170.30207   1497995.53247  22265173.05647
   6237525.86805  23967598.74705   4678660.44646  23967604.13846
 18  5 30  0 48 15.0010000  0  9  3 14 16 22 23 26 27 31 32
   2113756.28805  24438950.41105   1637004.54046  24438957.31746
   3048354.77706  21583844.13006   2324920.66146  21583848.13846
    297367.58706  21033180.87206    224355.02647  21033184.30647
   3119665.41704  24497208.17704   2369052.19645  24497210.95445
  -3110410.36806  24066319.04406  -2261594.23646  24066319.61846
   2227512.08907  21444542.16907   1691924.87347  21444548.80247
  -4706813.60706  22358044.27806  -3593510.15446  22358050.89946
   1979725.31307  22266299.52107   1502619.57447  22266302.11047
   6257148.37405  23971332.95805   4693950.68146  23971338.48946
 18  5 30  0 48 20.0010000  0  9  3 14 16 22 23 26 27 31 32
   2121075.74205  24440343.52805   1642708.00146  24440349.77446
   3061354.19106  21586317.75506   2335050.06746  21586321.84546
    299373.23806  21033562.66106    225917.87347  21033566.06047
   3129293.04704  24499039.71604   2376554.23045  24499041.13445
  -3123915.37106  24063749.45006  -2272117.60346  24063750.48146
   2236419.02606  21446237.23906   1698865.34447  21446243.97847
  -4720708.88806  22355399.95806  -3604337.64646  22355406.25146
   1985662.18307  22267429.34907   1507245.70447  22267431.96247
   6276774.88205  23975067.88005   4709244.04746  23975073.41146
 18  5 30  0 48 25.0010000  0  9  3 14 16 22 23 26 27 31 32
   2128403.07705  24441737.98105   1648417.61146  24441744.57946
   3074364.97106  21588793.53606   2345188.33546  21588797.79046
    301387.95806  21033945.81006    227487.78447  21033949.25547
   3138923.60204  24500873.16904   2384058.54545  24500873.74345
  -3137415.66606  24061179.93506  -2282637.31046  24061180.97846
   2245329.91106  21447932.91906   1705808.88547  21447939.76347
  -4734597.35906  22352757.59906  -3615159.83246  22352763.58746
   1991601.66307  22268559.68507   1511873.87147  22268562.43847
   6296405.26305  23978803.37205   4724540.42046  23978809.37246
 18  5 30  0 48 30.0010000  0  9  3 14 16 22 23 26 27 31 32
   2135738.67305  24443133.60605   1654133.66746  24443139.94646
   3087387.56806  21591271.66106   2355335.81246  21591276.09146
    303412.12506  21034330.74706    229065.05647  21034334.22847
   3148557.50204  24502705.84904   2391565.47645  24502707.29045
  -3150910.81106  24058612.01306  -2293153.01346  24058612.85646
   2254245.17006  21449629.13806   1712755.82947  21449636.10347
  -4748478.61006  22350115.98106  -3625976.39246  22350121.91146
   1997544.18407  22269690.32507   1516504.40347  22269693.09147
   6316039.89405  23982539.32505   4739840.11246  23982546.15746
 18  5 30  0 48 35.0010000  0  9  3 14 16 22 23 26 27 31 32
   2143082.12205  24444530.87205   1659855.83546  24444537.39946
   3100421.56106  21593752.07506   2365492.16746  21593756.92746
    305445.37306  21034717.89606    230649.40947  21034721.42347
   3158194.32204  24504540.22404   2399074.67945  24504542.59145
  -3164401.17806  24056044.88006  -2303664.98446  24056045.80646
   2263164.41406  21451326.59106   1719705.87947  21451333.53247
  -4762352.98506  22347475.66906  -3636787.59646  22347481.75146
   2003489.31207  22270821.81707   1521136.96947  22270824.63047
   6335678.37905  23986276.23905   4755142.80946  23986284.14246
 18  5 30  0 48 40.0010000  0  9  3 14 16 22 23 26 27 31 32
   2150432.42505  24445930.08305   1665583.33946  24445936.20046
   3113465.99606  21596234.00506   2375656.65846  21596238.75146
    307486.72406  21035106.56006    232240.07247  21035110.02847
   3167833.09804  24506373.87204   2406585.36945  24506375.30245
  -3177887.77606  24053478.40306  -2314174.01446  24053479.31746
   2272086.64106  21453024.17706   1726658.26247  21453031.20047
  -4776221.46806  22344836.63806  -3647594.21046  22344842.61446
   2009436.10107  22271953.27807   1525770.83247  22271956.11447
   6355319.78605  23990013.93505   4770447.77646  23990021.52146
 18  5 30  0 48 45.0010000  0  9  3 14 16 22 23 26 27 31 32
   2157790.01605  24447330.19205   1671316.51346  24447336.67346
   3126521.22906  21598718.56706   2385829.56746  21598723.36046
    309536.55606  21035496.40306    233837.34247  21035499.86047
   3177474.22404  24508208.50504   2414097.92845  24508209.37245
  -3191370.17506  24050912.81706  -2324679.76946  24050913.59146
   2281012.24206  21454722.74706   1733613.27347  21454729.72447
  -4790083.65406  22342198.55206  -3658395.91246  22342204.44646
   2015385.00707  22273085.34907   1530406.33747  22273088.09147
   6374964.43605  23993752.23905   4785755.29046  23993759.59146
 18  5 30  0 48 50.0010000  0  9  3 14 16 22 23 26 27 31 32
   2165155.00805  24448731.79405   1677055.46246  24448738.26346
   3139587.44106  21601204.82506   2396011.03146  21601209.41946
    311595.04206  21035888.32506    235441.35747  21035891.78247
   3187117.76004  24510043.41104   2421612.38845  24510044.58345
  -3204848.21606  24048348.06706  -2335182.13646  24048348.91146
   2289941.36006  21456421.83306   1740571.01847  21456428.82147
  -4803939.38206  22339562.16906  -3669192.58646  22339568.13446
   2021336.15907  22274217.89607   1535043.58847  22274220.72047
   6394612.51805  23997491.54405   4801065.46846  23997499.35346
 18  5 30  0 48 55.0010000  0  9  3 14 16 22 23 26 27 31 32
   2172527.65305  24450134.52105   1682800.37046  24450141.34146
   3152664.90906  21603693.49706   2406201.26646  21603697.99746
    313662.43706  21036281.73106    237052.31247  21036285.16547
   3196764.09204  24511878.67704   2429128.99245  24511881.26745
  -3218321.62206  24045784.16906  -2345680.88646  24045784.81346
   2298874.26606  21458121.68506   1747531.71047  21458128.76747
  -4817788.32106  22336926.64606  -3679983.96946  22336932.44646
   2027289.86007  22275350.79407   1539682.83247  22275353.73547
   6414264.26305  24001230.45005   4816378.49646  24001239.11446
 18  5 30  0 49  0.0010000  0  9  3 14 16 22 23 26 27 31 32
   2179908.10805  24451538.65305   1688551.37446  24451544.98146
   3165753.71006  21606184.08306   2416400.33246  21606188.66546
    315738.86106  21036676.81006    238670.30747  21036680.37247
   3206413.28604  24513715.04404   2436647.82645  24513717.21245
  -3231790.23706  24043221.24706  -2356175.91346  24043221.83346
   2307811.08806  21459822.27106   1754495.45447  21459829.37647
  -4831630.36206  22334292.84106  -3690769.97746  22334298.50146
   2033246.18507  22276484.37207   1544324.12447  22276487.13847
   6433919.78805  24004970.94205   4831694.46246  24004980.20446
 18  5 30  0 49  5.0010000  0  9  3 14 16 22 23 26 27 31 32
   2187296.53405  24452945.03605   1694308.57846  24452950.72046
   3178854.05806  21608677.34106   2426608.38646  21608681.70046
    317824.51906  21037073.54406    240295.49447  21037077.08347
   3216065.54204  24515551.62204   2444169.05645  24515553.74345
  -3245253.81106  24040659.09106  -2366666.99946  24040659.79446
   2316752.04406  21461523.76306   1761462.42647  21461530.79847
  -4845465.26106  22331660.10606  -3701550.41446  22331665.82546
   2039205.40107  22277618.20007   1548967.66547  22277621.04847
   6453579.32404  24008712.02104   4847013.55546  24008721.16546
 18  5 30  0 49 10.0010000  0  9  3 14 16 22 23 26 27 31 32
   2194692.38805  24454352.75505   1700071.57346  24454359.04846
   3191965.41506  21611172.63006   2436825.02346  21611176.68546
    319918.84406  21037472.16106    241927.43447  21037475.68847
   3225720.29904  24517389.26304   2451692.24945  24517391.26745
  -3258712.89506  24038097.91106  -2377154.59346  24038098.40346
   2325696.55706  21463225.73906   1768432.17347  21463232.79847
  -4859293.56806  22329028.63806  -3712325.71946  22329034.09946
   2045166.95407  22278752.79407   1553613.02147  22278755.67747
   6473242.28304  24012453.76304   4862335.33146  24012463.48146
 18  5 30  0 49 15.0010000  0  9  3 14 16 22 23 26 27 31 32
   2202096.34105  24455760.90305   1705840.90046  24455767.09146
   3205088.42206  21613669.86406   2447050.73746  21613673.97846
    322022.53706  21037872.39606    243566.67347  21037875.98147
   3235378.21804  24519227.42704   2459217.90745  24519229.94645
  -3272166.79906  24035537.92706  -2387638.15446  24035538.23146
   2334645.29306  21464928.72406   1775405.21647  21464935.73547
  -4873114.57406  22326398.59906  -3723095.33546  22326403.96646
   2051131.50807  22279887.82507   1558260.72047  22279890.55647
   6492909.34804  24016196.04404   4877660.29146  24016206.56046
 18  5 30  0 49 20.0010000  0  9  3 14 16 22 23 26 27 31 32
   2209508.13505  24457171.51305   1711616.32946  24457178.11046
   3218222.84606  21616169.00506   2457285.34846  21616173.18846
    324135.30206  21038274.56006    245212.98447  21038278.18147
   3245039.06605  24521065.79405   2466745.83045  24521068.81745
  -3285615.74406  24032978.42706  -2398117.85146  24032978.61446
   2343598.02206  21466632.54406   1782381.36747  21466639.48547
  -4886928.52906  22323769.95806  -3733859.45346  22323775.22046
   2057098.79107  22281023.25507   1562910.54547  22281025.84547
   6512580.27704  24019939.23104   4892988.26845  24019949.85345
 18  5 30  0 49 25.0010000  0  9  3 14 16 22 23 26 27 31 32
   2216927.36305  24458582.97405   1717397.55146  24458589.48946
   3231368.30106  21618670.76306   2467528.55746  21618674.60646
    326256.77406  21038678.35606    246866.07747  21038681.84947
   3254702.42205  24522904.23105   2474275.70345  24522907.29045
  -3299060.12106  24030420.14606  -2408593.98946  24030420.74346
   2352554.31806  21468337.03606   1789360.30147  21468343.90747
  -4900735.78606  22321142.38806  -3744618.34546  22321147.66146
   2063068.42007  22282159.44207   1567562.19647  22282162.12647
   6532254.66704  24023684.20804   4908318.94145  24023695.08745
 18  5 30  0 49 30.0010000  0  9  3 14 16 22 23 26 27 31 32
   2224353.29105  24459995.80205   1723183.99946  24460002.35346
   3244524.05906  21621174.13006   2477779.79246  21621177.91546
    328386.19106  21039083.59106    248525.36247  21039087.18847
   3264367.54405  24524743.69205   2481806.95745  24524746.09545
  -3312500.68306  24027862.45806  -2419067.15346  24027862.88046
   2361513.45506  21470041.91106   1796341.44847  21470048.80647
  -4914537.09406  22318516.29406  -3755372.60546  22318521.45046
   2069039.69207  22283295.49707   1572215.12747  22283298.35647
   6551931.72604  24027428.55204   4923651.69846  24027439.22046
 18  5 30  0 49 35.0010000  0  9  3 14 16 22 23 26 27 31 32
   2231786.89605  24461410.84905   1728976.43146  24461417.52846
   3257691.05906  21623679.70006   2488039.78346  21623683.43846
    330524.53806  21039490.40306    250191.60247  21039494.02447
   3274035.37805  24526583.73105   2489340.30745  24526586.80245
  -3325936.38106  24025305.70806  -2429536.53846  24025306.37646
   2370476.37906  21471747.37206   1803325.54847  21471754.23147
  -4928331.45006  22315891.15306  -3766121.45446  22315896.36846
   2075013.59707  22284432.46607   1576870.10847  22284435.32547
   6571612.44805  24031173.31005   4938987.32046  24031183.35646
 18  5 30  0 49 40.0010000  0  9  3 14 16 22 23 26 27 31 32
   2239228.50205  24462826.88005   1734775.08946  24462833.02146
   3270869.64506  21626187.55206   2498308.80446  21626191.26746
    332672.15606  21039899.16106    251865.06747  21039902.80647
   3283706.29105  24528423.81705   2496876.07445  24528427.08745
  -3339366.84106  24022750.32506  -2440001.82246  24022751.27446
   2379443.43107  21473454.06007   1810312.86647  21473460.85647
  -4942118.49906  22313267.58306  -3776864.60646  22313272.85646
   2080990.49707  22285569.95007   1581527.42047  22285572.78647
   6591297.19105  24034919.60605   4954326.07246  24034929.89946
 18  5 30  0 49 45.0010000  0  9  3 14 16 22 23 26 27 31 32
   2246677.99005  24464244.79405   1740579.87846  24464250.80646
   3284059.70806  21628697.54406   2508586.76946  21628701.44646
    334828.94006  21040309.63806    253545.67747  21040313.14247
   3293380.14905  24530264.76305   2504414.11545  24530267.99745
  -3352792.21306  24020195.12206  -2450463.14346  24020196.48146
   2388414.52307  21475161.26307   1817303.32747  21475167.98947
  -4955898.30406  22310645.34106  -3787602.11946  22310650.70846
   2086970.31907  22286707.73107   1586187.00847  22286710.54447
   6610985.78905  24038665.95805   4969667.80946  24038676.07546
 18  5 30  0 49 50.0010000  0  9  3 14 16 22 23 26 27 31 32
   2254135.49905  24465663.91905   1746390.90746  24465669.96646
   3297261.39806  21631209.57506   2518873.79346  21631213.54846
    336995.05706  21040721.91106    255233.55547  21040725.38047
   3303057.07705  24532106.20805   2511954.59145  24532108.84545
  -3366212.30606  24017641.40306  -2460920.34646  24017642.86846
   2397389.77607  21476869.07507   1824297.03047  21476875.72047
  -4969670.72806  22308024.53606  -3798333.87346  22308030.11446
   2092953.22907  22287846.16107   1590849.00647  22287849.02147
   6630678.42905  24042413.45005   4985012.68346  24042423.40346
 18  5 30  0 49 55.0010000  0  9  3 14 16 22 23 26 27 31 32
   2261599.64105  24467084.05205   1752207.10746  24467089.97046
   3310473.33206  21633723.87206   2529168.79846  21633727.82146
    339169.08306  21041135.56006    256927.59947  21041139.04047
   3312735.69005  24533948.27105   2519496.36145  24533950.75545
  -3379628.50506  24015088.50506  -2471374.51546  24015090.09946
   2406367.80907  21478577.70007   1831292.89847  21478584.40347
  -4983437.13806  22305404.88806  -3809060.94446  22305410.58346
   2098937.80007  22288985.10607   1595512.30647  22288987.87247
   6650373.71205  24046161.25505   5000359.63746  24046170.64646
 18  5 30  0 50  0.0010000  0  9  3 14 16 22 23 26 27 31 32
   2269071.74005  24468505.99705   1758029.51446  24468512.61846
   3323696.83006  21636240.20006   2539472.82046  21636244.03246
    341352.37306  21041551.15306    258628.86147  21041554.56347
   3322417.34705  24535790.06005   2527040.49345  24535792.38045
  -3393039.42406  24012536.24706  -2481824.56746  24012538.00546
   2415349.96007  21480286.77807   1838291.97247  21480293.57547
  -4997196.14606  22302786.34906  -3819782.25146  22302792.05646
   2104925.36907  22290124.56007   1600177.94647  22290127.33747
   6670072.94705  24049909.93505   5015709.67546  24049918.77446
 18  5 30  0 50  5.0010000  0  9  3 14 16 22 23 26 27 31 32
   2276551.58705  24469929.41905   1763857.97346  24469935.61846
   3336931.70206  21638758.54406   2549785.70446  21638762.37646
    343544.74306  21041968.26306    260337.20547  21041971.63847
   3332101.83104  24537632.46604   2534586.84945  24537634.69245
  -3406445.28806  24009985.27806  -2492270.68946  24009986.75546
   2424336.05007  21481996.72407   1845294.12547  21482003.36847
  -5010947.96506  22300169.77806  -3830497.95746  22300175.70846
   2110915.81607  22291264.41107   1604845.83447  22291266.89647
   6689775.95905  24053659.48905   5031062.65046  24053667.66146
 18  5 30  0 50 10.0010000  0  9  3 14 16 22 23 26 27 31 32
   2284039.04505  24471354.37205   1769692.36946  24471360.46646
   3350177.77206  21641278.87206   2560107.31746  21641282.71646
    345745.96106  21042387.13806    262052.44047  21042390.37247
   3341788.97104  24539476.27104   2542135.27545  24539478.36845
  -3419846.22106  24007435.06006  -2502712.98246  24007436.68846
   2433325.87107  21483707.45007   1852299.19347  21483714.18847
  -5024692.71206  22297554.22406  -3841208.14646  22297560.41146
   2116908.92507  22292405.07507   1609515.79447  22292407.63047
   6709482.56505  24057410.17705   5046418.42346  24057417.98546
 18  5 30  0 50 15.0010000  0  9  3 14 16 22 23 26 27 31 32
   2291534.45905  24472780.77105   1775532.93446  24472786.88846
   3363435.41006  21643801.66906   2570437.94446  21643805.85346
    347956.42006  21042807.63006    263774.87847  21042810.68847
   3351479.10904  24541320.56704   2549686.03845  24541321.91545
  -3433241.85906  24004885.78606  -2513151.14246  24004887.57946
   2442319.76807  21485419.09107   1859307.42247  21485425.80647
  -5038430.02306  22294939.59906  -3851912.52546  22294946.13846
   2122905.08607  22293546.09907   1614188.13247  22293548.59547
   6729193.12205  24061160.68505   5061777.28946  24061168.16546
 18  5 30  0 50 20.0010000  0  9  3 14 16 22 23 26 27 31 32
   2299036.49805  24474208.01305   1781378.68046  24474214.07146
   3376703.27106  21646326.29406   2580776.53446  21646330.85346
    350174.81306  21043229.93506    265503.49347  21043233.02847
   3361170.92504  24543164.13804   2557238.09045  24543167.04445
  -3446633.52506  24002337.65306  -2523586.20346  24002339.42346
   2451316.48307  21487131.03607   1866317.82647  21487137.77447
  -5052161.17406  22292326.74706  -3862612.11446  22292333.59146
   2128902.98307  22294687.28607   1618861.82447  22294689.71247
   6748906.32405  24064911.73905   5077138.20846  24064918.48946
 18  5 30  0 50 25.0010000  0  9  3 14 16 22 23 26 27 31 32
   2306546.13405  24475637.22405   1787230.34046  24475643.35346
   3389982.38306  21648853.63806   2591123.88946  21648858.29046
    352402.11906  21043653.85606    267239.05647  21043656.98547
   3370865.42104  24545009.18504   2564792.23645  24545011.98545
  -3460020.15406  23999790.39606  -2534017.33546  23999792.09546
   2460316.97507  21488843.77107   1873331.17847  21488850.50947
  -5065885.20606  22289715.35606  -3873306.16446  22289722.13046
   2134903.61307  22295829.38007   1623537.64147  22295831.89947
   6768623.10805  24068663.95805   5092501.89546  24068670.25146
 18  5 30  0 50 30.0010000  0  9  3 14 16 22 23 26 27 31 32
   2314063.29705  24477067.75505   1793087.86346  24477074.17746
   3403272.66406  21651382.33306   2601479.94646  21651387.03246
    354638.24906  21044079.28606    268981.49447  21044082.36847
   3380562.50604  24546854.83304   2572348.39545  24546857.70445
  -3473401.82006  23997243.74706  -2544444.59846  23997245.51746
   2469321.16006  21490557.29406   1880347.42147  21490564.06747
  -5079602.13606  22287104.78606  -3883994.68746  22287111.44246
   2140906.89307  22296971.49707   1628215.51547  22296973.95847
   6788343.41505  24072416.40305   5107868.34946  24072422.68546
 18  5 30  0 50 35.0010000  0  9  3 14 16 22 23 26 27 31 32
   2321588.24805  24478499.75505   1798951.46346  24478505.66146
   3416574.31506  21653913.83306   2611844.86346  21653918.55646
    356883.47806  21044506.53606    270731.02447  21044509.58347
   3390262.38304  24548700.84104   2579906.71245  24548703.09145
  -3486778.26806  23994698.56006  -2554867.79746  23994700.51746
   2478329.27606  21492271.38006   1887366.73247  21492278.21247
  -5093311.68806  22284496.13806  -3894677.45946  22284502.78246
   2146913.07807  22298114.72407   1632895.64147  22298117.24347
   6808067.50805  24076169.76305   5123237.75546  24076175.83346
 18  5 30  0 50 40.0010000  0  9  3 14 16 22 23 26 27 31 32
   2329120.85005  24479933.30205   1804821.01546  24479939.50146
   3429887.28106  21656447.10606   2622218.60446  21656451.97046
    359137.70006  21044935.30206    272487.55747  21044938.34947
   3399964.97704  24550546.74704   2587467.17845  24550548.69245
  -3500149.53106  23992154.20806  -2565286.96646  23992155.62646
   2487341.25906  21493986.23106   1894389.05947  21493993.09147
  -5107013.97206  22281888.76306  -3905354.56846  22281895.14946
   2152922.12107  22299257.83307   1637577.99847  22299260.30647
   6827795.25105  24079923.31705   5138610.00946  24079928.62646
 18  5 30  0 50 45.0010000  0  9  3 14 16 22 23 26 27 31 32
   2336661.63105  24481367.72405   1810696.94646  24481373.12646
   3443212.05606  21658983.07506   2632601.54746  21658987.92746
    361401.42506  21045366.23906    274251.49947  21045369.23947
   3409670.74805  24552393.87205   2595030.10445  24552395.77145
  -3513515.15906  23989610.63806  -2575701.74046  23989611.69246
   2496357.56906  21495702.03606   1901414.75347  21495708.89647
  -5120708.45706  22279282.70806  -3916025.59746  22279288.97846
   2158934.51307  22300402.24707   1642262.97347  22300404.69647
   6847527.15805  24083678.54405   5153985.48645  24083683.52445
 18  5 30  0 50 50.0010000  0  9  3 14 16 22 23 26 27 31 32
   2344209.95105  24482804.47405   1816578.74046  24482810.34546
   3456548.00506  21661520.74706   2642993.18946  21661525.52846
    363674.00906  21045798.80206    276022.34347  21045801.84947
   3419379.11405  24554242.16905   2602595.06645  24554243.98545
  -3526875.73806  23987068.35606  -2586112.57646  23987069.61046
   2505377.61006  21497418.28606   1908443.35747  21497425.26347
  -5134395.72106  22276678.28606  -3926690.99246  22276684.20446
   2164949.65107  22301546.82507   1646950.08647  22301549.27447
   6867262.60805  24087433.87205   5169363.74546  24087438.03246
 18  5 30  0 50 55.0010000  0  9  3 14 16 22 23 26 27 31 32
   2351765.61605  24484242.34905   1822466.27946  24484248.56046
   3469894.99506  21664060.44206   2653393.43446  21664065.14246
    365955.27006  21046232.63006    277799.94747  21046235.72447
   3429089.91505  24556089.98105   2610161.90445  24556091.82145
  -3540231.40406  23984527.05206  -2596519.58946  23984528.08346
   2514401.17006  21499135.51306   1915474.70347  21499142.38447
  -5148075.94206  22274075.18506  -3937350.90446  22274081.11446
   2170967.35407  22302691.84907   1651639.19547  22302694.26347
   6887001.40005  24091189.97405   5184744.58446  24091195.08346
 18  5 30  0 51  0.0010000  0  9  3 14 16 22 23 26 27 31 32
   2359328.62905  24485681.32505   1828359.54246  24485687.93546
   3483252.96106  21666602.58306   2663802.23446  21666607.06046
    368245.22006  21046668.50506    279584.32647  21046671.57547
   3438803.11405  24557938.34905   2617730.62245  24557940.06045
  -3553582.13706  23981986.35606  -2606922.75846  23981987.32946
   2523428.24506  21500853.27806   1922508.78147  21500860.14947
  -5161749.12306  22271473.31706  -3948005.33146  22271479.16546
   2176987.68207  22303837.54407   1656330.35347  22303839.86447
   6906743.55105  24094946.33305   5200128.06545  24094952.08745
 18  5 30  0 51  5.0010000  0  9  3 14 16 22 23 26 27 31 32
   2366898.81905  24487122.00505   1834258.39846  24487128.34546
   3496621.75206  21669146.40306   2674219.47146  21669150.75146
    370543.66406  21047105.96606    281375.32047  21047109.03647
   3448518.56205  24559787.41105   2625301.09445  24559789.52145
  -3566928.12206  23979446.65306  -2617322.23046  23979447.66146
   2532458.70906  21502571.56706   1929545.50347  21502578.46247
  -5175415.37006  22268872.45806  -3958654.35546  22268878.01346
   2183010.44107  22304983.49707   1661023.41047  22304985.75947
   6926488.86905  24098704.32505   5215514.01645  24098710.24345
 18  5 30  0 51 10.0010000  0  9  3 14 16 22 23 26 27 31 32
   2374476.03505  24488563.78605   1840162.72446  24488569.85646
   3510001.24506  21671692.40306   2684645.03446  21671696.83346
    372850.43506  21047545.01306    283172.80147  21047548.20047
   3458236.02105  24561636.59105   2632873.13545  24561638.88845
  -3580269.48406  23976907.81706  -2627718.10946  23976908.69646
   2541492.37306  21504290.77806   1936584.72547  21504297.64947
  -5189074.85006  22266273.55206  -3969298.10346  22266278.88446
   2189035.47207  22306130.24707   1665718.24347  22306132.55647
   6946237.18804  24102461.75504   5230902.29145  24102467.67345
 18  5 30  0 51 15.0010000  0  9  3 14 16 22 23 26 27 31 32
   2382060.84905  24490007.16905   1846072.97246  24490013.47446
   3523391.97906  21674240.86406   2695079.36946  21674244.96646
    375166.18406  21047985.57506    284977.28347  21047988.59947
   3467956.15905  24563485.89605   2640447.25245  24563488.90745
  -3593605.56506  23974369.93506  -2638109.87146  23974370.82546
   2550529.84306  21506010.25506   1943626.91647  21506017.23147
  -5202726.94806  22263675.27806  -3979936.09246  22263680.50546
   2195063.37207  22307277.39607   1670415.32047  22307279.73947
   6965989.11004  24106220.52804   5246293.36445  24106226.42345
 18  5 30  0 51 20.0010000  0  9  3 14 16 22 23 26 27 31 32
   2389653.29205  24491452.29405   1851989.13546  24491458.30646
   3536793.97606  21676791.31006   2705522.47746  21676795.45846
    377490.89006  21048427.69206    286788.74347  21048430.71647
   3477678.96905  24565336.42705   2648023.45745  24565340.48145
  -3606936.32906  23971833.15306  -2648497.47946  23971834.16146
   2559571.06406  21507731.02806   1950672.01947  21507738.18147
  -5216371.59206  22261078.95806  -3990568.27846  22261084.10346
   2201094.19007  22308424.75507   1675114.66347  22308427.22847
   6985744.65404  24109980.23904   5261687.27545  24109986.40345
 18  5 30  0 51 25.0010000  0  9  3 14 16 22 23 26 27 31 32
   2397253.04305  24492898.53605   1857911.00446  24492904.26746
   3550206.95306  21679343.76306   2715974.14146  21679347.81746
    379824.23306  21048871.91106    288606.92947  21048875.06347
   3487404.10205  24567186.84105   2655601.47345  24567190.25145
  -3620262.07306  23969297.42706  -2658881.18646  23969298.42346
   2568615.87006  21509452.02806   1957719.90547  21509459.18147
  -5230009.10206  22258483.88806  -4001194.90446  22258488.97446
   2207127.61107  22309572.94207   1679816.03547  22309575.39247
   7005503.50704  24113740.62204   5277083.75945  24113746.20045
 18  5 30  0 51 30.0010000  0  9  3 14 16 22 23 26 27 31 32
   2404859.90206  24494345.83306   1863838.41846  24494351.08346
   3563630.71406  21681898.06006   2726434.20946  21681902.04446
    382166.06406  21049317.48106    290431.73347  21049320.63447
   3497131.40205  24569037.69205   2663181.18345  24569040.92745
  -3633582.97906  23966762.48106  -2669261.11046  23966763.41946
   2577663.97206  21511173.98906   1964770.38447  21511180.98947
  -5243639.60806  22255889.82506  -4011816.07346  22255894.81746
   2213163.48307  22310721.49707   1684519.31047  22310724.00547
   7025265.45804  24117501.00504   5292482.66445  24117507.40345
 18  5 30  0 51 35.0010000  0  9  3 14 16 22 23 26 27 31 32
   2412474.84105  24495794.54405   1869772.13446  24495800.09946
   3577066.18006  21684454.88006   2736903.40346  21684458.81746
    384517.25606  21049764.95806    292263.83047  21049768.09947
   3506861.81204  24570888.68504   2670763.31645  24570892.18845
  -3646898.10606  23964228.98906  -2679636.53446  23964229.84546
   2586716.32706  21512896.53606   1971824.17547  21512903.57147
  -5257262.18506  22253297.67706  -4022431.06146  22253302.85646
   2219202.75307  22311870.79407   1689225.22647  22311873.43147
   7045031.46204  24121262.33304   5307884.73445  24121268.40345
 18  5 30  0 51 40.0010000  0  9  3 14 16 22 23 26 27 31 32
   2420097.58206  24497245.62206   1875711.93546  24497251.18846
   3590513.13406  21687013.41906   2747381.54346  21687017.49746
    386877.62306  21050214.09106    294103.08047  21050217.25547
   3516595.05604  24572741.23104   2678347.66545  24572745.01745
  -3660207.69906  23961696.06006  -2690007.64346  23961697.02146
   2595772.71406  21514619.84906   1978881.11047  21514626.86047
  -5270877.04906  22250706.95006  -4033040.03846  22250712.42346
   2225245.18807  22313020.61407   1693933.61447  22313023.33347
   7064801.26404  24125024.33304   5323289.75845  24125030.76745
 18  5 30  0 51 45.0010000  0  9  3 14 16 22 23 26 27 31 32
   2427727.99106  24498697.79406   1881657.70846  24498703.73546
   3603971.38606  21689574.70006   2757868.47846  21689578.84946
    389247.00406  21050664.85606    295949.34847  21050668.25547
   3526331.00404  24574594.09104   2685934.11545  24574597.88845
  -3673511.80806  23959164.07506  -2700374.47646  23959165.21246
   2604832.94906  21516344.19206   1985941.05047  21516351.14647
  -5284484.31706  22248117.38806  -4043643.10046  22248123.36446
   2231290.71907  22314171.02807   1698644.40747  22314173.67747
   7084574.70304  24128787.43504   5338697.58345  24128795.06745
 18  5 30  0 51 50.0010000  0  9  3 14 16 22 23 26 27 31 32
   2435365.53105  24500151.02105   1887609.05046  24500157.40746
   3617440.45206  21692137.53606   2768363.85046  21692141.81346
    391624.90306  21051117.57506    297802.25647  21051120.77447
   3536069.14803  24576446.64603   2693522.26845  24576451.01745
  -3686810.98706  23956633.65306  -2710737.45246  23956634.73146
   2613896.51706  21518068.91906   1993003.57647  21518075.77847
  -5298084.47606  22245529.22406  -4054240.61746  22245535.23546
   2237338.79407  22315322.05207   1703357.18447  22315324.56047
   7104351.29304  24132550.89604   5354107.89445  24132557.56345
 18  5 30  0 51 55.0010000  0  9  3 14 16 22 23 26 27 31 32
   2443009.81805  24501605.60605   1893565.64146  24501612.12246
   3630919.95506  21694702.59906   2778867.34946  21694706.91146
    394010.92306  21051571.30206    299661.48947  21051574.60647
   3545809.04903  24578299.77103   2701111.80545  24578304.09545
  -3700105.62706  23954103.50506  -2721096.90546  23954104.75946
   2622963.02806  21519794.31006   2000068.38047  21519801.15347
  -5311677.88206  22242942.51306  -4064832.87146  22242948.48946
   2243388.99307  22316473.24707   1708071.62147  22316475.77847
   7124130.62204  24136315.00504   5369520.34645  24136321.22845
 18  5 30  0 52  0.0010000  0  9  3 14 16 22 23 26 27 31 32
   2450662.03805  24503062.02105   1899528.39646  24503068.68846
   3644411.11206  21697269.89606   2789379.93946  21697274.39646
    396406.25506  21052027.48906    301527.98247  21052030.67747
   3555551.91703  24580154.61403   2708703.66745  24580159.59545
  -3713394.47406  23951574.61406  -2731451.84446  23951576.00946
   2632033.70307  21521520.20007   2007136.43047  21521526.85647
  -5325263.35406  22240357.27106  -4075418.94146  22240363.47046
   2249442.58207  22317625.23107   1712788.70447  22317627.82147
   7143913.86804  24140079.34104   5384935.85745  24140085.95045
 18  5 30  0 52  5.0010000  0  9  3 14 16 22 23 26 27 31 32
   2458321.42205  24504519.23905   1905496.73346  24504526.07146
   3657913.11406  21699839.18506   2799900.97946  21699844.08346
    398810.10806  21052484.69206    303401.11347  21052487.93847
   3565296.99603  24582008.88003   2716297.24345  24582013.45045
  -3726678.29206  23949046.89606  -2741802.88146  23949048.12646
   2641107.76807  21523247.16107   2014207.12647  21523253.70047
  -5338841.63006  22237773.51306  -4085999.41146  22237779.68846
   2255498.73807  22318777.72407   1717507.78247  22318780.34947
   7163700.26804  24143844.29404   5400353.81545  24143851.11445
 18  5 30  0 52 10.0010000  0  9  3 14 16 22 23 26 27 31 32
   2465988.40806  24505978.56006   1911470.98346  24505984.98146
   3671426.36206  21702410.60606   2810430.77646  21702415.75146
    401222.93906  21052943.75506    305281.23747  21052946.86047
   3575044.65303  24583863.75503   2723892.81945  24583868.84145
  -3739956.64906  23946520.00506  -2752149.66846  23946521.59946
   2650185.60207  21524974.55207   2021280.76247  21524980.88047
  -5352412.25206  22235190.97406  -4096573.92346  22235197.24346
   2261557.89107  22319930.66107   1722229.19047  22319933.20447
   7183490.24504  24147610.69204   5415774.54545  24147617.17345
 18  5 30  0 52 15.0010000  0  9  3 14 16 22 23 26 27 31 32
   2473662.63505  24507438.56705   1917450.89646  24507444.84946
   3684950.53506  21704984.31006   2820969.09046  21704989.67746
    403644.39806  21053404.57506    307168.08147  21053407.78647
   3584794.63503  24585718.96603   2731490.19045  24585723.99345
  -3753229.84106  23943994.44206  -2762492.42446  23943996.36446
   2659266.92507  21526702.85607   2028357.11147  21526709.20847
  -5365975.56306  22232610.16106  -4107142.74146  22232616.71246
   2267619.76707  22321084.17707   1726952.71747  22321086.93147
   7203283.45304  24151376.71604   5431197.80445  24151382.86845
 18  5 30  0 52 20.0010000  0  9  3 14 16 22 23 26 27 31 32
   2481343.52105  24508900.44205   1923435.98846  24508906.86446
   3698485.06606  21707559.56706   2831515.46846  21707564.84146
    406073.90106  21053867.13006    309061.19647  21053870.37647
   3594546.31904  24587575.61404   2739088.87945  24587579.00145
  -3766498.40206  23941469.60606  -2772831.55646  23941472.06746
   2668351.13207  21528431.45807   2035435.71147  21528437.69247
  -5379532.07806  22230030.38006  -4117706.25946  22230036.84946
   2273683.78507  22322237.99707   1731677.91747  22322240.72847
   7223079.31004  24155144.22404   5446623.11645  24155150.86845
 18  5 30  0 52 25.0010000  0  9  3 14 16 22 23 26 27 31 32
   2489032.15705  24510363.14605   1929427.12845  24510369.43845
   3712031.07506  21710137.66906   2842070.79846  21710142.87246
    408512.54406  21054330.99706    310961.43547  21054334.16147
   3604300.69805  24589431.54405   2746689.67745  24589434.73145
  -3779761.25206  23938945.57506  -2783166.23346  23938947.81346
   2677439.32007  21530160.96607   2042517.41247  21530167.15347
  -5393080.70806  22227452.13806  -4128263.63746  22227458.74746
   2279751.08906  22323392.79406   1736405.67747  22323395.50147
   7242878.91104  24158911.74704   5462051.35445  24158918.33345
 18  5 30  0 52 30.0010000  0  9  3 14 16 22 23 26 27 31 32
   2496727.78905  24511827.26305   1935423.71046  24511833.75546
   3725587.80206  21712717.20006   2852634.47846  21712722.13446
    410959.60506  21054796.83306    312868.22447  21054799.95047
   3614057.12205  24591288.14605   2754292.08345  24591288.93145
  -3793019.10706  23936422.70006  -2793497.02146  23936424.69246
   2686530.73707  21531890.86407   2049601.63747  21531896.86447
  -5406622.19206  22224875.48906  -4138815.44846  22224881.95846
   2285820.90406  22324547.90306   1741135.40047  22324550.44647
   7262681.49404  24162680.48104   5477481.93045  24162686.95045
 18  5 30  0 52 35.0010000  0  9  3 14 16 22 23 26 27 31 32
   2504431.93905  24513293.51305   1941426.91946  24513300.06346
   3739156.72706  21715299.45806   2863207.66446  21715304.22846
    413416.61006  21055264.42706    314782.76547  21055267.40347
   3623817.14205  24593145.23105   2761897.29345  24593146.50945
  -3806270.40406  23933901.05206  -2803822.71546  23933902.96246
   2695626.93207  21533621.90307   2056689.58147  21533627.90347
  -5420154.96206  22222300.23906  -4149360.46946  22222306.73146
   2291894.73706  22325703.68506   1745868.26047  22325706.35647
   7282488.60504  24166448.57504   5492916.02345  24166455.16145
 18  5 30  0 52 40.0010000  0  9  3 14 16 22 23 26 27 31 32
   2512143.24205  24514761.31005   1947435.70646  24514767.36846
   3752736.54006  21717883.66906   2873789.33546  21717888.26346
    415882.17006  21055733.51306    316703.98147  21055736.54847
   3633579.34704  24595003.10604   2769504.17445  24595004.78245
  -3819516.55206  23931380.54406  -2814144.39546  23931382.92346
   2704726.50507  21535353.34107   2063780.17447  21535359.30647
  -5433680.38206  22219726.45806  -4159899.75646  22219732.56346
   2297971.31007  22326859.97407   1750603.25547  22326862.65747
   7302298.85104  24170218.99704   5508352.55645  24170226.40745
 18  5 30  0 52 45.0010000  0  9  3 14 16 22 23 26 27 31 32
   2519861.05005  24516229.97405   1953449.58146  24516235.84546
   3766326.60306  21720469.77106   2884378.99246  21720474.36446
    418355.67306  21056204.40306    318631.39047  21056207.41547
   3643343.11904  24596860.88804   2777112.29545  24596862.45845
  -3832758.10706  23928860.54406  -2824462.48146  23928862.80646
   2713828.80607  21537085.63807   2070872.89747  21537091.59147
  -5447199.04606  22217153.84106  -4170433.77946  22217160.01746
   2304049.96307  22328016.84907   1755339.86947  22328019.22847
   7322111.60604  24173988.95804   5523791.03245  24173997.01345
 18  5 30  0 52 50.0010000  0  9  3 14 16 22 23 26 27 31 32
   2527586.40405  24517700.24705   1959469.32846  24517705.95446
   3779927.87406  21723057.67706   2894977.38046  21723062.25946
    420838.07206  21056676.63006    320565.73047  21056679.64247
   3653109.42704  24598719.19204   2784722.39145  24598721.63045
  -3845994.03106  23926341.78606  -2834776.17646  23926343.56746
   2722934.83407  21538818.32507   2077968.50547  21538824.34947
  -5460709.94606  22214582.83306  -4180961.75046  22214588.95046
   2310131.68707  22329173.89607   1760078.87647  22329176.39247
   7341927.84905  24177759.99705   5539232.24245  24177767.66545
 18  5 30  0 52 55.0010000  0  9  3 14 16 22 23 26 27 31 32
   2535319.46005  24519171.49705   1965495.08046  24519177.33346
   3793540.59106  21725648.63006   2905584.68046  21725653.22446
    423329.60806  21057150.94206    322507.19447  21057154.11847
   3662878.46304  24600578.55204   2792334.61245  24600581.84545
  -3859224.11406  23923824.23106  -2845085.31746  23923826.10646
   2732044.84907  21540551.88007   2085067.21247  21540557.91547
  -5474212.83806  22212013.43506  -4191483.48046  22212019.56346
   2316216.73707  22330331.80207   1764820.47747  22330334.38047
   7361747.78505  24181531.68505   5554676.32646  24181539.56346
 18  5 30  0 53  0.0010000  0  9  3 14 16 22 23 26 27 31 32
   2543059.86105  24520644.57505   1971526.55446  24520650.32946
   3807164.37706  21728241.17706   2916200.61046  21728245.44246
    425829.86506  21057626.49706    324455.44847  21057629.81347
   3672649.85204  24602437.84104   2799948.67445  24602441.54445
  -3872448.77706  23921307.64606  -2855390.23746  23921309.33346
   2741158.44807  21542286.21607   2092168.71047  21542292.25147
  -5487708.08806  22209445.20006  -4201999.25446  22209451.31746
   2322304.74307  22331490.63807   1769564.37147  22331493.29847
   7381571.06405  24185304.21605   5570123.00645  24185312.07145
 18  5 30  0 53  5.0010000  0  9  3 14 16 22 23 26 27 31 32
   2550807.56305  24522119.17705   1977563.70146  24522125.29446
   3820799.20506  21730835.78606   2926825.14646  21730839.87646
    428338.85706  21058103.99706    326410.51347  21058107.10347
   3682423.55604  24604297.41904   2807564.54545  24604300.57145
  -3885667.96006  23918792.17706  -2865690.90346  23918793.86446
   2750275.61007  21544021.06707   2099272.99347  21544027.14947
  -5501195.69706  22206878.48906  -4212509.07246  22206884.51346
   2328395.66507  22332649.34107   1774310.54047  22332651.98947
   7401397.62805  24189077.16905   5585572.25346  24189085.51746
 18  5 30  0 53 10.0010000  0  9  3 14 16 22 23 26 27 31 32
   2558563.00105  24523594.98105   1983606.89846  24523601.13446
   3834445.48406  21733432.30206   2937458.60446  21733436.28646
    430857.03006  21058583.29406    328372.72547  21058586.25947
   3692200.02904  24606158.02804   2815182.58045  24606161.93145
  -3898881.27706  23916277.88006  -2875986.99446  23916279.56746
   2759396.76307  21545756.89607   2106380.38947  21545763.00147
  -5514675.22606  22204313.60606  -4223012.60046  22204319.63046
   2334489.97006  22333809.12206   1779059.34747  22333811.73547
   7421227.90805  24192850.96605   5601024.38346  24192859.39646
 18  5 30  0 53 15.0010000  0  9  3 14 16 22 23 26 27 31 32
   2566325.02505  24525072.09105   1989655.21946  24525077.79846
   3848102.07006  21736031.40306   2948100.09646  21736035.31746
    433383.19206  21059064.02806    330341.15747  21059066.99347
   3701978.08503  24608018.04403   2822801.84645  24608022.05245
  -3912089.80106  23913764.71606  -2886279.35846  23913766.80246
   2768520.73507  21547492.95807   2113489.97847  21547499.18147
  -5528147.76906  22201749.78606  -4233510.68546  22201755.41146
   2340586.47906  22334969.20006   1783809.87347  22334971.66147
   7441060.75805  24196624.83305   5616478.52946  24196633.26346
 18  5 30  0 53 20.0010000  0  9  3 14 16 22 23 26 27 31 32
   2574094.59905  24526550.37205   1995709.42046  24526556.03246
   3861769.95906  21738632.41106   2958750.39046  21738636.51346
    435918.35906  21059546.30206    332316.60347  21059549.25547
   3711758.71203  24609879.98903   2830423.12845  24609883.84545
  -3925292.51706  23911252.15306  -2896567.18546  23911254.16946
   2777648.55007  21549230.02807   2120602.56047  21549236.27447
  -5541612.34706  22199187.64606  -4244002.56346  22199193.08346
   2346686.22906  22336129.91106   1788562.92846  22336132.46646
   7460897.17405  24200399.71605   5631935.45046  24200407.36046
 18  5 30  0 53 25.0010000  0  9  3 14 16 22 23 26 27 31 32
   2581872.23505  24528030.21605   2001769.90546  24528035.93546
   3875449.58706  21741235.48106   2969409.83546  21741239.63046
    438463.00806  21060030.62206    334299.44347  21060033.82147
   3721542.41103  24611741.77103   2838046.76045  24611745.61445
  -3938488.91606  23908740.61406  -2906850.10446  23908742.47846
   2786780.67707  21550967.63007   2127718.50847  21550973.89947
  -5555068.44306  22196626.78606  -4254487.82646  22196632.38846
   2352789.73706  22337291.48106   1793318.90646  22337294.23546
   7480737.61805  24204175.09905   5647395.52946  24204182.75546
 18  5 30  0 53 30.0010000  0  9  3 14 16 22 23 26 27 31 32
   2589656.97905  24529511.92705   2007835.93246  24529517.72846
   3889140.08506  21743840.45006   2980077.75246  21743844.62246
    441016.22006  21060516.34106    336288.96547  21060519.44647
   3731328.25703  24613603.45003   2845672.10245  24613606.42745
  -3951679.96206  23906230.64606  -2917128.84246  23906232.31046
   2795916.17107  21552706.04407   2134837.08247  21552712.31347
  -5568516.97006  22194067.74706  -4264967.19046  22194073.25546
   2358896.05506  22338453.56706   1798077.07146  22338456.23946
   7500581.14205  24207951.50505   5662857.99446  24207959.33746
 18  5 30  0 53 35.0010000  0  9  3 14 16 22 23 26 27 31 32
   2597449.42605  24530994.88005   2013907.96346  24531000.29446
   3902842.06006  21746448.01306   2990754.60946  21746452.18546
    443578.61106  21061004.17706    338285.64047  21061007.09547
   3741116.83104  24615466.40304   2853299.55245  24615471.16145
  -3964864.96606  23903721.81006  -2927402.86046  23903723.20446
   2805055.61807  21554445.16907   2141958.72747  21554451.53247
  -5581957.28306  22191509.97406  -4275440.15846  22191515.58746
   2365005.77806  22339616.18506   1802837.88746  22339618.81046
   7520428.39105  24211728.69205   5678323.35446  24211735.76346
 18  5 30  0 53 40.0010000  0  9  3 14 16 22 23 26 27 31 32
   2605249.12905  24532478.91905   2019985.64446  24532484.53246
   3916555.01706  21749057.20006   3001440.02246  21749061.34946
    446149.72106  21061493.40306    340289.10547  21061496.16947
   3750907.69904  24617329.59904   2860928.80145  24617333.60645
  -3978044.41906  23901213.73106  -2937672.55746  23901215.53646
   2814198.61107  21556185.14607   2149083.12947  21556191.59147
  -5595389.85206  22188954.05206  -4285907.09446  22188959.98146
   2371118.51806  22340779.48906   1807601.06146  22340781.93846
   7540278.87605  24215506.25505   5693791.22646  24215513.34946
 18  5 30  0 53 45.0010000  0  9  3 14 16 22 23 26 27 31 32
   2613056.15305  24533964.47405   2026069.03646  24533970.62646
   3930279.07406  21751669.20806   3012134.08546  21751673.38046
    448729.59906  21061984.20006    342299.39147  21061986.95447
   3760700.93004  24619193.29404   2868559.87045  24619196.03645
  -3991218.22206  23898706.88806  -2947937.84546  23898708.77446
   2823345.17507  21557925.63007   2156210.30747  21557932.15747
  -5608814.54406  22186399.27106  -4296367.88746  22186405.24746
   2377234.33407  22341943.42707   1812366.62747  22341945.80647
   7560132.67005  24219284.20805   5709261.69646  24219291.50146
 18  5 30  0 53 50.0010000  0  9  3 14 16 22 23 26 27 31 32
   2620870.80105  24535451.70805   2032158.37046  24535457.82546
   3944014.51606  21754282.82506   3022837.01646  21754286.91546
    451318.53206  21062476.91906    344316.73647  21062479.94247
   3770496.76204  24621057.64604   2876192.99145  24621059.38045
  -4004386.03006  23896200.89606  -2958198.48346  23896202.77146
   2832495.66407  21559666.95007   2163340.53547  21559673.56047
  -5622231.06106  22183846.30206  -4306822.31146  22183852.39646
   2383353.52407  22343107.70007   1817134.82547  22343110.00947
   7579990.07105  24223062.69205   5724734.98446  24223069.51346
 18  5 30  0 53 55.0010000  0  9  3 14 16 22 23 26 27 31 32
   2628693.18505  24536939.73105   2038253.74346  24536945.20446
   3957761.41406  21756898.44206   3033548.87746  21756902.73146
    453916.63906  21062971.19206    346341.23847  21062974.29847
   3780295.29404  24622921.95804   2883828.20745  24622922.66145
  -4017547.70306  23893696.30206  -2968454.34246  23893697.96646
   2841650.13607  21561408.93507   2170473.87847  21561415.66147
  -5635639.29606  22181294.72406  -4317270.27746  22181300.78246
   2389476.21607  22344272.64607   1821905.74747  22344274.81347
   7599851.16505  24226841.70805   5740211.12746  24226848.66146
 18  5 30  0 54  0.0010000  0  9  3 14 16 22 23 26 27 31 32
   2636522.57805  24538429.97405   2044354.56145  24538435.89245
   3971519.10706  21759516.73106   3044269.15146  21759520.83346
    456523.24906  21063467.48106    348372.37547  21063470.55247
   3790095.83705  24624787.32505   2891464.98145  24624788.45045
  -4030703.94806  23891192.95806  -2978705.97546  23891194.39946
   2850807.91407  21563151.58307   2177609.80447  21563158.34547
  -5649039.89306  22178744.61406  -4327712.29646  22178750.91946
   2395601.70106  22345438.44206   1826678.84346  22345440.62246
   7619715.25205  24230620.99705   5755689.63046  24230628.19646
 18  5 30  0 54  5.0010000  0  9  3 14 16 22 23 26 27 31 32
   2644358.85805  24539920.64605   2050460.74645  24539926.89245
   3985287.46406  21762136.89606   3054997.73446  21762140.78646
    459138.23706  21063965.25506    350410.03147  21063968.12647
   3799898.30804  24626652.74704   2899103.25145  24626653.66145
  -4043854.80705  23888690.66105  -2988953.40646  23888692.17346
   2859968.86107  21564894.80207   2184748.20347  21564901.75547
  -5662432.95506  22176195.95806  -4338148.44746  22176202.46246
   2401729.89606  22346604.46606   1831454.05346  22346606.82146
   7639582.21105  24234402.31705   5771170.35746  24234409.39946
 18  5 30  0 54 10.0010000  0  9  3 14 16 22 23 26 27 31 32
   2652202.40705  24541413.46605   2056572.58845  24541419.73545
   3999066.80906  21764758.93506   3065734.87646  21764762.75546
    461761.93506  21064464.22406    352454.46247  21064467.02447
   3809703.03004  24628517.98104   2906743.26845  24628518.45045
  -4056999.97205  23886188.93505  -2999196.38746  23886190.77446
   2869133.36607  21566638.84907   2191889.37947  21566645.84947
  -5675818.12606  22173649.01306  -4348578.45446  22173655.82146
   2407861.19806  22347771.15306   1836231.68446  22347773.48546
   7659452.41605  24238183.33305   5786653.59545  24238190.28645
 18  5 30  0 54 15.0010000  0  9  3 14 16 22 23 26 27 31 32
   2660053.66105  24542907.36405   2062690.43045  24542913.31745
   4012857.71806  21767383.46606   3076481.03146  21767387.15746
    464394.82406  21064965.01306    354506.05247  21064967.95447
   3819510.50104  24630384.09104   2914385.42945  24630385.35645
  -4070138.93505  23883688.91905  -3009434.52246  23883690.84146
   2878301.90407  21568383.59907   2199033.69547  21568390.56347
  -5689194.88306  22171103.38006  -4359001.90046  22171110.33346
   2413996.07406  22348938.75506   1841012.10646  22348941.07546
   7679326.33805  24241964.77105   5802139.74545  24241971.64245
 18  5 30  0 54 20.0010000  0  9  3 14 16 22 23 26 27 31 32
   2667911.49205  24544402.89605   2068813.41245  24544409.08345
   4026658.93506  21770009.73906   3087235.22346  21770013.33746
    467035.70406  21065467.97406    356563.87647  21065471.10347
   3829319.56604  24632250.40304   2922028.85745  24632251.25945
  -4083272.80305  23881189.39605  -3019668.69446  23881191.63446
   2887473.28007  21570128.93507   2206180.22247  21570135.98147
  -5702564.35506  22168559.13006  -4369419.67546  22168566.10646
   2420133.36306  22350106.65306   1845794.41546  22350109.11446
   7699202.81205  24245747.52105   5817627.88845  24245755.03645
 18  5 30  0 54 25.0010000  0  9  3 14 16 22 23 26 27 31 32
   2675776.83105  24545899.72405   2074942.23546  24545906.08746
   4040471.41806  21772638.17706   3097998.19346  21772641.69246
    469685.58506  21065971.96606    358628.73447  21065975.09547
   3839131.15504  24634118.76304   2929674.23945  24634119.61845
  -4096400.68205  23878690.98905  -3029898.20246  23878692.98146
   2896648.49207  21571874.81707   2213329.74747  21571881.84147
  -5715925.60306  22166016.85606  -4379831.03546  22166023.91546
   2426274.04906  22351275.13006   1850579.37746  22351277.80246
   7719082.75405  24249530.02105   5833118.72845  24249538.61445
 18  5 30  0 54 30.0010000  0  9  3 14 16 22 23 26 27 31 32
   2683649.43905  24547397.62205   2081076.71846  24547403.68146
   4054294.93606  21775268.61406   3108769.75846  21775272.04846
    472344.21506  21066478.14606    360700.40347  21066481.22847
   3848945.02804  24635985.02104   2937321.40945  24635986.35645
  -4109522.74605  23876194.26305  -3040123.18646  23876196.43146
   2905827.23007  21573621.49707   2220482.02747  21573628.55647
  -5729278.83606  22163475.78606  -4390236.14946  22163482.63046
   2432417.89506  22352444.48906   1855366.79446  22352447.36046
   7738965.93904  24253313.65304   5848612.10945  24253322.35345
 18  5 30  0 54 35.0010000  0  9  3 14 16 22 23 26 27 31 32
   2691529.27505  24548897.61405   2087216.85046  24548903.33346
   4068129.48206  21777901.34106   3119549.91546  21777904.89246
    475011.59806  21066985.81006    362778.87447  21066988.75147
   3858761.16903  24637852.59903   2944970.34845  24637854.83745
  -4122638.94505  23873697.85605  -3050343.60246  23873699.90746
   2915009.52307  21575368.96607   2227637.07147  21575376.03647
  -5742624.02806  22160936.29406  -4400634.99646  22160942.96246
   2438564.89106  22353613.92706   1860156.65446  22353616.95046
   7758852.36404  24257097.72404   5864107.98545  24257107.05645
 18  5 30  0 54 40.0010000  0  9  3 14 16 22 23 26 27 31 32
   2699416.62005  24550398.56705   2093362.83146  24550404.47446
   4081975.29806  21780536.09106   3130338.85546  21780539.67746
    477687.96606  21067494.70806    364864.34247  21067497.56747
   3868579.78503  24639721.45003   2952621.22445  24639724.61445
  -4135749.03205  23871203.22405  -3060559.25346  23871205.43846
   2924195.60207  21577117.10607   2234795.05547  21577124.10647
  -5755960.92706  22158398.33306  -4411027.38446  22158404.93146
   2444715.32106  22354784.59906   1864949.19246  22354787.62246
   7778742.26104  24260881.78604   5879606.56345  24260891.28245
 18  5 30  0 54 45.0010000  0  9  3 14 16 22 23 26 27 31 32
   2707311.10805  24551900.53605   2099514.37146  24551906.48946
   4095832.07206  21783172.70806   3141136.34146  21783176.31746
    480372.97006  21068005.81706    366956.54447  21068008.81747
   3878400.58303  24641590.24703   2960273.77745  24641595.25145
  -4148853.36506  23868709.96606  -3070770.41346  23868712.21646
   2933385.14707  21578865.63807   2241955.73447  21578872.56747
  -5769289.85506  22155861.90306  -4421413.56146  22155868.09146
   2450868.83906  22355955.52106   1869744.13446  22355958.45046
   7798635.29503  24264667.59903   5895107.60645  24264676.54445
 18  5 30  0 54 50.0010000  0  9  3 14 16 22 23 26 27 31 32
   2715212.48405  24553403.88805   2105671.29346  24553409.27846
   4109699.50106  21785811.50506   3151942.12746  21785815.19646
    483066.41806  21068518.52106    369055.33947  21068521.70847
   3888223.21803  24643459.08303   2967927.77145  24643465.03645
  -4161952.17705  23866216.89605  -3080977.25946  23866218.78246
   2942577.88307  21580615.19207   2249118.90047  21580622.12247
  -5782611.04506  22153326.94206  -4431793.70246  22153332.90746
   2457025.18206  22357126.92706   1874541.28346  22357129.70446
   7818531.18203  24268454.38003   5910610.87945  24268462.63445
 18  5 30  0 54 55.0010000  0  9  3 14 16 22 23 26 27 31 32
   2723121.78305  24554909.39605   2111834.38646  24554915.24346
   4123578.65106  21788452.58306   3162757.04246  21788456.38046
    485769.33506  21069032.70806    371161.51347  21069036.02447
   3898048.83003  24645328.68503   2975584.10145  24645333.46645
  -4175044.39105  23863725.65305  -3091178.97446  23863727.61046
   2951774.88007  21582365.13807   2256285.38847  21582372.03247
  -5795923.39206  22150793.91906  -4442166.96746  22150799.63846
   2463185.44706  22358299.31006   1879341.48946  22358301.91146
   7838431.00204  24272241.47404   5926117.23045  24272250.05645
 18  5 30  0 55  0.0010000  0  9  3 14 16 22 23 26 27 31 32
   2731038.27105  24556415.56705   2118003.08746  24556421.98946
   4137468.79006  21791095.99706   3173580.52446  21791100.11046
    488480.90306  21069548.53606    373274.42047  21069551.79447
   3907876.59403  24647199.43503   2983242.11445  24647204.21645
  -4188130.77505  23861235.73905  -3101376.16246  23861237.88446
   2960975.32007  21584116.13807   2263454.56247  21584122.98147
  -5809227.68506  22148262.14606  -4452533.95346  22148267.59546
   2469348.84306  22359472.18506   1884144.13646  22359474.65746
   7858333.98104  24276029.53604   5941626.02945  24276038.34145
 18  5 30  0 55  5.0010000  0  9  3 14 16 22 23 26 27 31 32
   2738961.74305  24557923.48905   2124177.23146  24557930.14646
   4151369.73306  21793740.90306   3184412.42346  21793745.33346
    491200.96906  21070066.17706    375393.94047  21070069.35347
   3917706.35203  24649071.00503   2990901.64945  24649074.19245
  -4201211.40005  23858746.46605  -3111568.85246  23858748.41146
   2970179.09307  21585867.32507   2270626.32647  21585873.99347
  -5822524.03506  22145731.98906  -4462894.74546  22145737.60346
   2475515.22606  22360645.49706   1888949.10346  22360647.95846
   7878239.92704  24279816.90304   5957137.11745  24279826.07145
 18  5 30  0 55 10.0010000  0  9  3 14 16 22 23 26 27 31 32
   2746892.38105  24559432.20005   2130356.94546  24559439.41146
   4165281.62406  21796388.48106   3195252.84946  21796392.94646
    493929.69506  21070585.30206    377520.21147  21070588.72447
   3927538.28003  24650941.88803   2998562.88945  24650946.06045
  -4214286.11706  23856258.41106  -3121756.93146  23856259.78246
   2979386.33807  21587619.56007   2277800.79947  21587626.13447
  -5835812.27806  22143203.13006  -4473249.21546  22143208.64946
   2481684.80106  22361819.38006   1893756.55846  22361821.95846
   7898149.00304  24283605.91904   5972650.64745  24283614.51345
 18  5 30  0 55 15.0010000  0  9  3 14 16 22 23 26 27 31 32
   2754830.02705  24560942.87205   2136542.11046  24560949.98946
   4179204.33706  21799037.91106   3206101.70746  21799042.39946
    496666.91406  21071106.45006    379653.10547  21071109.89647
   3937372.18104  24652812.62204   3006225.64345  24652816.19645
  -4227355.09305  23853771.10605  -3131940.53646  23853772.59546
   2988596.91507  21589372.28607   2284977.86447  21589378.75547
  -5849092.53806  22140676.10606  -4483597.46146  22140681.69646
   2487857.39106  22362994.07506   1898566.36746  22362996.72446
   7918061.05605  24287394.59905   5988166.50645  24287401.96245
 18  5 30  0 55 20.0010000  0  9  3 14 16 22 23 26 27 31 32
   2762774.96505  24562454.84905   2142732.97346  24562461.80246
   4193138.15906  21801689.27106   3216959.22146  21801693.94646
    499412.99006  21071628.81706    381792.90647  21071632.29847
   3947208.45004  24654684.73904   3013890.23945  24654688.86445
  -4240417.94605  23851285.52805  -3142119.37246  23851287.68546
   2997811.14207  21591125.71607   2292157.77547  21591132.02147
  -5862364.49206  22138150.45006  -4493939.23646  22138155.91146
   2494033.36206  22364169.13006   1903378.81346  22364171.79046
   7937976.41305  24291184.84905   6003684.94345  24291192.18845
 18  5 30  0 55 25.0010000  0  9  3 14 16 22 23 26 27 31 32
   2770727.17705  24563968.28605   2148929.49646  24563976.54046
   4207083.04206  21804343.23906   3227825.35746  21804347.72846
    502167.87406  21072153.15306    383939.56647  21072156.71647
   3957047.01504  24656557.61404   3021556.65445  24656559.20845
  -4253474.69806  23848800.95806  -3152293.44946  23848803.23146
   3007029.01307  21592879.70807   2299340.52747  21592886.01347
  -5875628.10806  22135626.56006  -4504274.51746  22135632.33746
   2500212.68706  22365345.13006   1908193.86746  22365348.04846
   7957895.03904  24294974.89604   6019205.92645  24294982.31745
 18  5 30  0 55 30.0010000  0  9  3 14 16 22 23 26 27 31 32
   2778686.46505  24565482.52805   2155131.52846  24565489.47046
   4221038.85106  21806998.85606   3238700.01046  21807003.34546
    504931.35306  21072679.10606    386092.91947  21072682.58747
   3966887.60004  24658429.70004   3029224.62145  24658430.94245
  -4266525.60506  23846317.56706  -3162462.99146  23846319.50146
   3016250.27207  21594634.55207   2306525.92647  21594640.83347
  -5888883.61406  22133104.04406  -4514603.47946  22133110.03246
   2506395.16406  22366521.56006   1913011.37846  22366524.51346
   7977816.72605  24298766.34905   6034729.29445  24298772.86445
 18  5 30  0 55 35.0010000  0  9  3 14 16 22 23 26 27 31 32
   2786652.91005  24566998.59105   2161339.14846  24567005.76746
   4235005.63306  21809656.73906   3249583.21646  21809661.19246
    507703.51106  21073206.39606    388253.03347  21073209.81747
   3976730.39404  24660303.04404   3036894.30245  24660303.46645
  -4279570.44706  23843834.96606  -3172627.83346  23843836.78246
   3025475.05007  21596389.95007   2313714.06747  21596396.23147
  -5902130.87206  22130582.93506  -4524926.00946  22130588.97046
   2512580.90906  22367698.81006   1917831.43246  22367701.76346
   7997741.54505  24302558.03605   6050255.08845  24302564.50545
 18  5 30  0 55 40.0010000  0  9  3 14 16 22 23 26 27 31 32
   2794626.71705  24568516.17705   2167552.51846  24568522.35346
   4248983.54306  21812316.70006   3260475.08746  21812321.08346
    510484.54006  21073735.72406    390420.06347  21073739.20447
   3986575.49704  24662176.58304   3044565.79345  24662177.23945
  -4292609.04106  23841353.73106  -3182787.78946  23841355.46646
   3034703.51307  21598145.96607   2320905.08247  21598152.20047
  -5915369.67906  22128063.73106  -4535241.95946  22128069.63846
   2518770.13306  22368876.43506   1922654.20646  22368879.44646
   8017669.68705  24306350.54405   6065783.49245  24306356.84945
 18  5 30  0 55 45.0010000  0  9  3 14 16 22 23 26 27 31 32
   2802607.38205  24570034.41105   2173771.22346  24570040.84546
   4262972.13806  21814978.57506   3271375.27946  21814983.06346
    513273.98106  21074266.72406    392593.65347  21074270.11047
   3996422.44804  24664050.08304   3052238.72745  24664052.33345
  -4305641.87206  23838873.95006  -3192943.23446  23838875.33346
   3043935.19307  21599902.75507   2328098.60747  21599909.01347
  -5928600.48806  22125545.90306  -4545551.66946  22125551.91546
   2524962.35306  22370054.81706   1927479.31346  22370057.92346
   8037600.68005  24310143.23105   6081314.10645  24310148.95045
 18  5 30  0 55 50.0010000  0  9  3 14 16 22 23 26 27 31 32
   2810594.82405  24571554.47405   2179995.21646  24571560.31046
   4276971.33706  21817642.56706   3282283.74146  21817646.76346
    516071.75206  21074799.00506    394773.73047  21074802.33347
   4006271.16904  24665924.54404   3059913.04045  24665926.64245
  -4318669.03606  23836394.95006  -3203094.25446  23836396.04046
   3053169.97607  21601659.98907   2335294.54547  21601666.23547
  -5941823.38306  22123029.52106  -4555855.22546  22123035.56746
   2531157.60206  22371233.84906   1932306.77746  22371236.74346
   8057534.43105  24313937.05205   6096846.87045  24313943.00545
 18  5 30  0 55 55.0010000  0  9  3 14 16 22 23 26 27 31 32
   2818589.43705  24573075.92705   2186224.78245  24573082.16145
   4290981.56206  21820308.15306   3293200.79346  21820312.46646
    518878.24106  21075333.13806    396960.60147  21075336.39647
   4016122.06103  24667798.84903   3067589.05345  24667802.57545
  -4331690.04706  23833917.03606  -3213240.49646  23833917.77446
   3062408.31107  21603417.90307   2342493.24947  21603424.13847
  -5955037.91906  22120515.00506  -4566152.25346  22120520.98146
   2537356.16506  22372413.41906   1937136.81746  22372416.20846
   8077471.31705  24317730.38805   6112382.08245  24317736.54045
 18  5 30  0 56  0.0010000  0  9  3 14 16 22 23 26 27 31 32
   2826590.80705  24574598.56705   2192459.61146  24574604.18146
   4305002.39406  21822976.61406   3304126.11446  21822980.72846
    521693.03006  21075868.84906    399153.94147  21075871.83747
   4025974.65903  24669673.42703   3075266.40545  24669677.08345
  -4344705.32506  23831440.51306  -3223382.28246  23831441.04046
   3071649.70507  21605176.21607   2349694.33747  21605182.61447
  -5968244.51506  22118002.03606  -4576443.10446  22118008.10646
   2543557.59506  22373593.59106   1941969.09046  22373596.19246
   8097410.93605  24321524.87205   6127919.44145  24321530.75545
 18  5 30  0 56  5.0010000  0  9  3 14 16 22 23 26 27 31 32
   2834599.30305  24576122.52805   2198699.98146  24576128.25946
   4319034.21706  21825646.84106   3315059.99646  21825650.93146
    524516.53106  21076406.13806    401354.07047  21076408.99747
   4035829.42602  24671548.98102   3082945.45445  24671553.17745
  -4357714.44406  23828965.01306  -3233519.26146  23828966.02146
   3080894.60506  21606935.59106   2356898.15647  21606942.15347
  -5981442.73706  22115490.46606  -4586727.43046  22115496.65346
   2549762.36506  22374774.06006   1946803.96946  22374776.56746
   8117353.66205  24325319.33305   6143459.19145  24325326.10645
 18  5 30  0 56 10.0010000  0  9  3 14 16 22 23 26 27 31 32
   2842615.07405  24577647.86405   2204946.02046  24577654.02846
   4333077.12906  21828319.13806   3326002.51646  21828323.56746
    527348.83406  21076945.18506    403561.05547  21076948.00947
   4045686.44002  24673424.51302   3090626.24145  24673429.84545
  -4370717.24506  23826490.86406  -3243651.31646  23826492.44646
   3090143.13606  21608695.40306   2364104.80047  21608702.09547
  -5994632.44106  22112980.67706  -4597005.11846  22112986.86446
   2555970.58006  22375955.43506   1951641.53346  22375957.89646
   8137299.62705  24329115.23105   6159001.49345  24329121.73545
 18  5 30  0 56 15.0010000  0  9  3 14 16 22 23 26 27 31 32
   2850637.72805  24579174.70005   2211197.44046  24579180.71246
   4347130.77506  21830993.31006   3336953.39746  21830997.78646
    530189.62106  21077485.83306    405774.65047  21077488.62247
   4055545.36302  24675299.93502   3098308.50745  24675307.47445
  -4383714.08006  23824017.27806  -3253778.71246  23824018.64946
   3099394.92006  21610455.99706   2371313.97947  21610462.80647
  -6007813.96906  22110472.34906  -4607276.44447  22110478.65347
   2562181.89006  22377137.70806   1956481.51646  22377140.36846
   8157248.45505  24332911.34105   6174546.00345  24332918.71645
 18  5 30  0 56 20.0010000  0  9  3 14 16 22 23 26 27 31 32
   2858667.52705  24580702.91105   2217454.42846  24580708.85346
   4361195.40106  21833669.88006   3347912.83846  21833674.32146
    533039.08806  21078027.95806    407995.00847  21078030.68847
   4065406.43902  24677176.93502   3105992.45645  24677182.23145
  -4396704.66206  23821545.35606  -3263901.22246  23821546.79846
   3108650.22206  21612217.35606   2378525.89847  21612224.26347
  -6020987.05006  22107965.52106  -4617541.18547  22107971.76747
   2568396.58506  22378320.16906   1961324.13446  22378322.72446
   8177200.42805  24336707.48105   6190092.97345  24336714.68145
 18  5 30  0 56 25.0010000  0  9  3 14 16 22 23 26 27 31 32
   2866704.47305  24582232.30205   2223716.98046  24582238.66546
   4375270.99406  21836348.44206   3358880.82646  21836353.00146
    535897.25306  21078571.80206    410222.14747  21078574.59147
   4075269.64502  24679052.70802   3113678.07045  24679058.95445
  -4409689.01205  23819074.04405  -3274018.88846  23819075.79046
   3117909.03506  21613979.14606   2385740.55247  21613986.12247
  -6034151.67306  22105460.59106  -4627799.33447  22105466.88447
   2574614.69306  22379503.34106   1966169.41446  22379505.80246
   8197155.52605  24340505.31705   6205642.39545  24340513.31345
 18  5 30  0 56 30.0010000  0  9  3 14 16 22 23 26 27 31 32
   2874748.21105  24583762.73905   2229984.83646  24583768.47046
   4389357.24206  21839029.09106   3369857.11646  21839033.43846
    538763.79406  21079117.37206    412455.81747  21079120.05647
   4085134.60303  24680930.55203   3121365.07045  24680937.16145
  -4422667.48305  23816604.48905  -3284131.97346  23816606.23546
   3127170.98706  21615741.69206   2392957.64847  21615748.70447
  -6047308.14706  22102957.02806  -4638051.12947  22102963.14647
   2580835.86506  22380687.17706   1971017.08446  22380689.80246
   8217113.35905  24344303.28605   6221193.94545  24344311.11845
 18  5 30  0 56 35.0010000  0  9  3 14 16 22 23 26 27 31 32
   2882798.90205  24585294.81005   2236258.09046  24585300.73946
   4403454.28806  21841711.63006   3380841.82046  21841715.97846
    541638.86106  21079664.43506    414696.13247  21079667.08347
   4095001.46003  24682808.17703   3129053.53945  24682814.90345
  -4435639.87605  23814135.84905  -3294240.31346  23814137.51346
   3136436.26606  21617504.98906   2400177.33147  21617511.96647
  -6060456.31506  22100454.87206  -4648296.45447  22100460.82547
   2587060.25806  22381871.69206   1975867.26846  22381874.36446
   8237074.14005  24348101.07505   6236747.77645  24348109.16545
 18  5 30  0 56 40.0010000  0  9  3 14 16 22 23 26 27 31 32
   2890856.50005  24586827.55205   2242536.73446  24586833.64646
   4417562.08206  21844396.15306   3391834.89946  21844400.34946
    544522.43006  21080213.06706    416943.06247  21080215.71647
   4104870.24203  24684686.76303   3136743.52545  24684692.30645
  -4448606.19206  23811668.61406  -3304343.93046  23811670.65346
   3145704.84306  21619268.66106   2407399.58947  21619275.63847
  -6073596.16806  22097954.29406  -4658535.30847  22097960.10647
   2593287.88506  22383056.76306   1980719.96546  22383059.57546
   8257037.81004  24351900.44204   6252303.84845  24351908.83745
 18  5 30  0 56 45.0010000  0  9  3 14 16 22 23 26 27 31 32
   2898920.95205  24588362.81005   2248820.70946  24588369.04446
   4431680.51306  21847082.82506   3402836.26046  21847087.06746
    547414.46406  21080763.41106    419196.58947  21080766.11847
   4114740.86603  24686564.63003   3144434.89445  24686570.37245
  -4461566.46905  23809201.96605  -3314442.86146  23809204.38046
   3154976.64806  21621032.95006   2414624.36247  21621039.98547
  -6086727.72906  22095455.53606  -4668767.69747  22095461.36047
   2599518.67406  22384242.46606   1985575.12146  22384245.41946
   8277004.29804  24355700.02804   6267862.14545  24355708.30645
 18  5 30  0 56 50.0010000  0  9  3 14 16 22 23 26 27 31 32
   2906992.07805  24589898.39605   2255109.89046  24589903.92746
   4445809.51706  21849771.54406   3413845.86546  21849775.81046
    550314.79106  21081315.24706    421456.58147  21081318.11847
   4124613.20103  24688444.28603   3152127.60045  24688449.48945
  -4474520.80905  23806737.16105  -3324537.16246  23806739.39946
   3164251.58706  21622797.98106   2421851.58747  21622804.89947
  -6099851.12506  22092958.42706  -4678993.71747  22092964.13447
   2605752.51406  22385428.75506   1990432.65146  22385431.73146
   8296973.48304  24359499.77804   6283422.53745  24359507.84545
 18  5 30  0 56 55.0010000  0  9  3 14 16 22 23 26 27 31 32
   2915069.90605  24591435.46605   2261404.29346  24591441.12646
   4459949.08306  21852462.19206   3424863.70446  21852466.35346
    553223.37206  21081868.76306    423723.00847  21081871.76347
   4134487.21003  24690323.31703   3159821.58845  24690328.33345
  -4487469.21605  23804273.22405  -3334626.82246  23804275.52146
   3173529.60107  21624563.60607   2429081.22047  21624570.38047
  -6112966.36506  22090462.34106  -4689213.38147  22090468.02447
   2611989.36306  22386615.53606   1995292.52746  22386618.56046
   8316945.33304  24363300.22404   6298985.00245  24363308.18545
 18  5 30  0 57  0.0010000  0  9  3 14 16 22 23 26 27 31 32
   2923154.90805  24592973.88005   2267704.28646  24592979.79846
   4474099.73706  21855155.14606   3435890.18146  21855159.41146
    556140.74206  21082423.86406    425996.28047  21082426.95847
   4144363.37903  24692201.73903   3167517.30245  24692204.83345
  -4500411.18406  23801810.87206  -3344711.45746  23801812.60646
   3182811.18507  21626329.81007   2436313.63547  21626336.66947
  -6126072.92106  22087968.16106  -4699426.27646  22087973.88046
   2618229.74806  22387802.97406   2000155.16746  22387805.88046
   8336920.35004  24367101.77104   6314549.92645  24367110.27145
 18  5 30  0 57  5.0010000  0  9  3 14 16 22 23 26 27 31 32
   2931246.63105  24594513.75505   2274009.51946  24594519.81346
   4488260.99406  21857849.84906   3446924.92646  21857854.19646
    559066.41706  21082980.70006    428276.02147  21082983.94647
   4154241.24903  24694082.52803   3175214.30145  24694083.64245
  -4513347.15206  23799348.89606  -3354791.43546  23799350.61846
   3192095.87307  21628096.62207   2443548.46447  21628103.52847
  -6139171.22806  22085475.48906  -4709632.74046  22085481.32546
   2624473.23506  22388991.09106   2005020.22546  22388994.10346
   8356898.05404  24370903.23104   6330116.95145  24370912.70445
 18  5 30  0 57 10.0010000  0  9  3 14 16 22 23 26 27 31 32
   2939345.13105  24596054.82505   2280320.05546  24596061.15346
   4502432.88206  21860546.62206   3457967.94646  21860551.00546
    562000.43206  21083539.04406    430562.26447  21083542.37247
   4164120.85103  24695962.22403   3182912.67145  24695961.87245
  -4526277.07206  23796888.36406  -3364866.70646  23796889.86446
   3201383.70707  21629864.20807   2450785.73947  21629871.12647
  -6152261.22606  22082984.52806  -4719832.72946  22082990.49346
   2630719.87106  22390179.89606   2009887.73146  22390182.97846
   8376878.50404  24374705.95804   6345686.10745  24374715.91145
 18  5 30  0 57 15.0010000  0  9  3 14 16 22 23 26 27 31 32
   2947450.44405  24597597.16105   2286635.89746  24597603.44246
   4516615.50306  21863245.39606   3469019.32846  21863249.72046
    564942.92006  21084098.87206    432855.10847  21084102.22447
   4174002.27903  24697842.04403   3190612.47945  24697841.31745
  -4539200.82406  23794429.31706  -3374937.17146  23794431.08746
   3210674.78507  21631632.20807   2458025.53647  21631639.01747
  -6165342.81806  22080495.16106  -4730026.17446  22080500.98546
   2636969.74406  22391368.96606   2014757.76246  22391371.88446
   8396861.74304  24378508.60604   6361257.43545  24378518.74745
 18  5 30  0 57 20.0010000  0  9  3 14 16 22 23 26 27 31 32
   2955563.34705  24599141.08305   2292957.63046  24599147.66946
   4530809.57806  21865946.42706   3480079.64046  21865950.93846
    567894.57606  21084660.63006    435155.09547  21084664.18147
   4183886.27403  24699723.34103   3198314.27245  24699723.47045
  -4552117.66006  23791971.31706  -3385002.24346  23791972.92346
   3219969.85407  21633400.98907   2465268.44647  21633407.58747
  -6178415.19206  22078007.53606  -4740212.44646  22078013.39646
   2643223.64606  22392559.29406   2019630.93046  22392562.15346
   8416848.54604  24382311.85604   6376831.54645  24382322.23145
 18  5 30  0 57 25.0010000  0  9  3 14 16 22 23 26 27 31 32
   2963683.20705  24600686.94205   2299284.78146  24600693.63446
   4545014.50406  21868649.35606   3491148.40746  21868653.90346
    570854.81806  21085223.99706    437461.77047  21085227.72447
   4193772.25003  24701605.43503   3206017.59745  24701607.32145
  -4565028.12206  23789514.65306  -3395062.34646  23789515.87246
   3229268.30607  21635170.52807   2472513.98947  21635177.16147
  -6191478.99806  22075521.73906  -4750392.03846  22075527.69246
   2649480.96806  22393750.06006   2024506.76446  22393753.02446
   8436838.32904  24386115.75504   6392407.98045  24386125.34545
 18  5 30  0 57 30.0010000  0  9  3 14 16 22 23 26 27 31 32
   2971809.27905  24602232.96605   2305616.76046  24602240.07146
   4559229.55106  21871354.49706   3502225.06146  21871359.10346
    573822.90306  21085788.88806    439774.55847  21085792.46247
   4203659.41603  24703485.74703   3213721.87745  24703487.81045
  -4577932.96506  23787058.70806  -3405118.07146  23787059.70446
   3238569.39107  21636940.31707   2479761.58947  21636946.76347
  -6204534.92806  22073037.38006  -4760565.49046  22073043.23946
   2655740.97406  22394941.13806   2029384.68646  22394944.24346
   8456830.26804  24389920.08304   6407986.11145  24389929.53245
 18  5 30  0 57 35.0010000  0  9  3 14 16 22 23 26 27 31 32
   2979942.38805  24603780.22405   2311954.21746  24603787.51746
   4573455.48006  21874061.56006   3513310.19346  21874066.08346
    576799.60506  21086355.25506    442094.06647  21086358.60647
   4213548.60403  24705368.13803   3221427.72545  24705370.10645
  -4590831.37406  23784604.00506  -3415168.77746  23784605.50546
   3247873.90607  21638710.68507   2487011.86547  21638717.11847
  -6217582.15506  22070554.43506  -4770732.16146  22070560.37646
   2662004.48506  22396133.14606   2034265.33746  22396136.13446
   8476825.21904  24393724.49704   6423566.56445  24393734.28645
 18  5 30  0 57 40.0010000  0  9  3 14 16 22 23 26 27 31 32
   2988082.09305  24605329.22405   2318296.84246  24605336.76346
   4587691.91406  21876770.68506   3524403.51146  21876775.20846
    579784.56906  21086923.23906    444420.01347  21086926.42747
   4223439.39203  24707249.62203   3229134.82945  24707251.42745
  -4603723.69906  23782150.88006  -3425214.73746  23782152.91946
   3257181.47307  21640481.91107   2494264.51547  21640488.25147
  -6230621.06606  22068073.19206  -4780892.34746  22068079.13446
   2668271.14106  22397325.36406   2039148.44846  22397328.32946
   8496822.78104  24397530.68504   6439149.08445  24397539.47845
 18  5 30  0 57 45.0010000  0  9  3 14 16 22 23 26 27 31 32
   2996229.45005  24606879.63805   2324645.45846  24606886.98946
   4601939.86106  21879482.40306   3535505.80046  21879486.71646
    582778.88606  21087493.22406    446753.24747  21087496.23547
   4233332.80003  24709132.20803   3236843.97145  24709134.45845
  -4616608.86306  23779698.82506  -3435255.12046  23779700.06746
   3266493.11307  21642253.93507   2501520.34447  21642260.32147
  -6243650.60006  22065593.97406  -4791045.22846  22065599.75146
   2674541.96206  22398518.75506   2044034.80246  22398521.64946
   8516823.94504  24401336.29404   6454734.37945  24401345.82545
 18  5 30  0 57 50.0010000  0  9  3 14 16 22 23 26 27 31 32
   3004383.52605  24608431.69205   2330999.27146  24608438.57546
   4616198.45006  21882195.48906   3546616.38346  21882199.62646
    585781.53406  21088064.48906    449092.99247  21088067.27847
   4243227.88903  24711014.88803   3244554.43245  24711018.96645
  -4629487.79006  23777248.10606  -3445290.64646  23777248.95046
   3275807.91207  21644026.56707   2508778.62947  21644033.01347
  -6256671.65506  22063116.28606  -4801191.50346  22063121.88846
   2680816.02906  22399712.93506   2048923.68246  22399715.86446
   8536827.83404  24405143.33304   6470321.80845  24405153.32145
 18  5 30  0 57 55.0010000  0  9  3 14 16 22 23 26 27 31 32
   3012545.05305  24609984.63805   2337358.89146  24609991.17746
   4630468.33306  21884910.97406   3557735.76246  21884914.60646
    588793.21506  21088637.73906    451439.76747  21088640.69247
   4253125.39603  24712898.84103   3252266.78945  24712904.39645
  -4642359.78606  23774798.46606  -3455320.77146  23774799.07546
   3285126.56907  21645799.71607   2516039.91747  21645806.25547
  -6269683.50306  22060640.07506  -4811330.60446  22060645.60646
   2687094.06506  22400907.52806   2053815.64846  22400910.31746
   8556835.10504  24408950.13804   6485911.88245  24408960.20845
 18  5 30  0 58  0.0010000  0  9  3 14 16 22 23 26 27 31 32
   3020712.93705  24611539.02105   2343723.46546  24611544.90346
   4644748.52506  21887628.71606   3568863.17446  21887632.14946
    591812.91606  21089212.23906    453792.77447  21089215.27447
   4263024.33702  24714782.59902   3259980.23145  24714787.34545
  -4655225.81006  23772350.06006  -3465346.25046  23772351.23146
   3294448.04807  21647573.65307   2523303.40347  21647580.25147
  -6282687.17206  22058165.64606  -4821463.33246  22058171.07146
   2693375.08006  22402102.69206   2058709.93346  22402105.44646
   8576844.75404  24412757.57504   6501503.79645  24412767.14245
 18  5 30  0 58  5.0010000  0  9  3 14 16 22 23 26 27 31 32
   3028888.25505  24613094.98105   2350093.83446  24613101.62646
   4659040.06606  21890348.04406   3579999.43246  21890351.30246
    594841.69106  21089788.47406    456152.84847  21089791.55647
   4272925.66602  24716666.51302   3267695.52745  24716670.80245
  -4668084.82006  23769903.29406  -3475366.25746  23769904.64246
   3303773.40307  21649348.15307   2530569.90647  21649354.76347
  -6295681.57006  22055692.91906  -4831588.83346  22055698.23946
   2699660.12706  22403298.52806   2063607.36746  22403301.42346
   8596857.81604  24416566.08304   6517098.36145  24416575.60345
 18  5 30  0 58 10.0010000  0  9  3 14 16 22 23 26 27 31 32
   3037070.76705  24614651.48905   2356469.81746  24614657.68846
   4673342.71106  21893069.64606   3591144.33846  21893072.82146
    597879.35706  21090366.48106    458519.85947  21090369.75147
   4282829.13403  24718551.54403   3275412.50545  24718555.13045
  -4680937.05906  23767457.35606  -3485380.99346  23767458.56346
   3313102.39207  21651123.54407   2537839.24447  21651130.20047
  -6308666.92406  22053221.88806  -4841707.28747  22053227.20847
   2705948.96406  22404495.55206   2068507.76346  22404498.42346
   8616874.05404  24420374.91904   6532695.39945  24420383.27845
 18  5 30  0 58 15.0010000  0  9  3 14 16 22 23 26 27 31 32
   3045260.46205  24616210.54405   2362851.39046  24616216.13446
   4687656.43406  21895793.49706   3602297.88446  21895796.68546
    600925.84406  21090946.20806    460893.75447  21090949.52447
   4292734.75303  24720436.38803   3283131.16245  24720438.07545
  -4693782.48905  23765012.82505  -3495390.41346  23765014.51346
   3322434.99707  21652899.41107   2545111.40647  21652905.93847
  -6321643.24206  22050752.59906  -4851818.69847  22050758.00147
   2712241.58106  22405692.81706   2073411.10446  22405695.63046
   8636893.44504  24424185.52104   6548294.90645  24424193.02445
 18  5 30  0 58 20.0010000  0  9  3 14 16 22 23 26 27 31 32
   3053456.50505  24617770.10605   2369237.89746  24617775.38046
   4701980.39606  21898519.32506   3613459.40946  21898522.53646
    603980.30506  21091527.36406    463273.85947  21091530.76347
   4302641.71103  24722321.21603   3290850.89845  24722323.80645
  -4706621.93505  23762569.84105  -3505395.16946  23762571.69246
   3331770.37307  21654675.88007   2552385.72447  21654682.29047
  -6334611.33706  22048284.63806  -4861923.70047  22048289.97047
   2718537.17306  22406890.63806   2078316.75846  22406893.52146
   8656915.13605  24427995.16905   6563896.19945  24428002.79045
 18  5 30  0 58 25.0010000  0  9  3 14 16 22 23 26 27 31 32
   3061659.63105  24619330.91905   2375629.93946  24619336.35646
   4716315.38706  21901247.01306   3624629.52846  21901250.28246
    607043.57306  21092110.33306    465660.82547  21092113.77847
   4312550.77703  24724207.50503   3298572.27245  24724209.40345
  -4719454.56005  23760128.02105  -3515394.60546  23760129.50946
   3341109.32807  21656452.99707   2559662.83647  21656459.37247
  -6347570.35606  22045818.72406  -4872021.63147  22045824.34947
   2724836.54806  22408089.55206   2083225.36446  22408092.65746
   8676939.96705  24431805.90305   6579499.93545  24431812.96245
 18  5 30  0 58 30.0010000  0  9  3 14 16 22 23 26 27 31 32
   3069869.31905  24620893.13005   2382027.08646  24620899.15346
   4730660.84106  21903977.16106   3635807.79546  21903980.51346
    610115.04906  21092694.93506    468054.17747  21092698.48547
   4322461.36903  24726093.91103   3306294.77245  24726094.77845
  -4732280.95006  23757687.06706  -3525389.20046  23757688.54446
   3350451.31207  21658230.79407   2566942.30947  21658237.23947
  -6360520.87406  22043354.41106  -4882112.94547  22043360.25947
   2731139.17106  22409289.10606   2088136.49746  22409292.43546
   8696967.27705  24435616.95805   6595105.60445  24435624.76745
 18  5 30  0 58 35.0010000  0  9  3 14 16 22 23 26 27 31 32
   3078086.06505  24622456.85605   2388429.74346  24622463.61846
   4745017.23806  21906708.78606   3646994.58746  21906712.33746
    613195.25306  21093280.93506    470454.32847  21093284.64947
   4332373.96703  24727979.38803   3314018.84645  24727983.29045
  -4745100.57605  23755247.56005  -3535378.51746  23755248.88446
   3359796.78006  21660009.16906   2574224.49247  21660015.70847
  -6373462.39606  22040891.80206  -4892197.24147  22040897.82547
   2737445.48306  22410489.04406   2093050.50646  22410492.31346
   8716997.63605  24439428.86405   6610713.65845  24439436.54445
 18  5 30  0 58 40.0010000  0  9  3 14 16 22 23 26 27 31 32
   3086310.54705  24624022.08305   2394838.42146  24624028.45846
   4759385.30606  21909443.16106   3658190.47946  21909446.80646
    616284.87306  21093868.94206    472861.81947  21093872.65747
   4342289.25603  24729866.16903   3321745.01545  24729868.67745
  -4757912.73705  23752809.65305  -3545362.02346  23752811.59946
   3369146.47806  21661788.37206   2581509.97047  21661794.78247
  -6386394.12706  22038430.70806  -4902273.90047  22038437.31747
   2743756.21006  22411689.96606   2097967.95246  22411693.29446
   8737031.71805  24443241.22405   6626324.61945  24443247.68145
 18  5 30  0 58 45.0010000  0  9  3 14 16 22 23 26 27 31 32
   3094542.24405  24625588.51305   2401252.72746  24625594.80646
   4773764.53006  21912179.46606   3669395.06846  21912183.35646
    619383.39206  21094458.40306    475276.24647  21094462.15347
   4352206.81003  24731753.91103   3329473.00345  24731755.79845
  -4770717.83506  23750372.85606  -3555340.01346  23750375.09546
   3378499.86306  21663568.11406   2588798.32147  21663574.54847
  -6399316.64506  22035971.70806  -4912343.38647  22035978.55247
   2750070.86706  22412891.53606   2102888.46146  22412895.00546
   8757068.98705  24447053.82505   6641938.04445  24447059.61445
 18  5 30  0 58 50.0010000  0  9  3 14 16 22 23 26 27 31 32
   3102780.94705  24627155.51305   2407672.48646  24627161.74746
   4788154.69006  21914917.53606   3680608.17146  21914921.53246
    622490.56606  21095049.82506    477697.41947  21095053.59947
   4362126.30202  24733641.13002   3337202.49645  24733642.51345
  -4783516.18706  23747937.53606  -3565312.75546  23747939.39946
   3387856.69806  21665348.63806   2596089.35747  21665355.00147
  -6412230.11106  22033513.97406  -4922405.82847  22033520.95047
   2756389.18906  22414093.92706   2107811.82746  22414097.44246
   8777109.23005  24450866.92705   6657553.78045  24450871.55645
 18  5 30  0 58 55.0010000  0  9  3 14 16 22 23 26 27 31 32
   3111026.23605  24628725.16905   2414097.38446  24628731.29846
   4802555.40106  21917658.06706   3691829.49846  21917662.14646
    625606.04306  21095642.63006    480125.07147  21095646.40347
   4372047.39802  24735528.63802   3344933.18045  24735533.13845
  -4796308.15306  23745503.45006  -3575280.54446  23745504.90346
   3397216.62206  21667129.69206   2603382.80347  21667136.13847
  -6425134.88706  22031058.48106  -4932461.50047  22031065.47047
   2762710.87906  22415296.98106   2112737.81646  22415300.39246
   8797152.07805  24454681.34105   6673171.55845  24454686.93145
 18  5 30  0 59  0.0010000  0  9  3 14 16 22 23 26 27 31 32
   3119278.68605  24630295.02805   2420527.84845  24630300.79445
   4816967.18806  21920400.63006   3703059.45446  21920404.80246
    628730.36806  21096237.38006    482559.62047  21096240.98947
   4381970.63302  24737417.22402   3352665.55845  24737416.23945
  -4809093.10106  23743070.38806  -3585242.84746  23743071.85346
   3406580.17706  21668911.63806   2610679.08147  21668918.11847
  -6438030.39706  22028604.57506  -4942509.95447  22028611.49347
   2769036.48206  22416500.65306   2117666.85446  22416504.08746
   8817198.05405  24458496.32505   6688791.78545  24458501.57545
 18  5 30  0 59  5.0010000  0  9  3 14 16 22 23 26 27 31 32
   3127538.21305  24631866.94205   2426963.82746  24631873.52846
   4831389.99306  21923144.97406   3714298.00046  21923149.23946
    631863.42806  21096833.50506    485000.97647  21096837.10347
   4391895.89802  24739307.13802   3360399.45045  24739306.75145
  -4821871.09806  23740638.78606  -3595199.72146  23740640.09946
   3415947.30406  21670693.91106   2617978.13847  21670700.36847
  -6450916.69706  22026152.24706  -4952551.23047  22026159.07947
   2775365.92206  22417704.91906   2122598.88446  22417708.28246
   8837247.10205  24462311.48905   6704414.39545  24462317.14945
 18  5 30  0 59 10.0010000  0  9  3 14 16 22 23 26 27 31 32
   3135804.24504  24633439.73104   2433404.89445  24633446.29445
   4845823.26506  21925891.51306   3725544.70146  21925895.79046
    635004.68906  21097431.27106    487448.71447  21097434.90347
   4401822.64402  24741196.69202   3368134.58145  24741197.77145
  -4834642.73906  23738208.70806  -3605151.64146  23738209.99746
   3425317.42906  21672477.21606   2625279.52547  21672483.72047
  -6463794.33806  22023701.92706  -4962585.75647  22023708.45447
   2781698.68206  22418910.29406   2127533.50446  22418913.63446
   8857298.63105  24466127.62205   6720038.91445  24466134.36045
 18  5 30  0 59 15.0010000  0  9  3 14 16 22 23 26 27 31 32
   3144077.70704  24635014.30204   2439851.75045  24635020.12645
   4860267.89506  21928640.24706   3736800.25146  21928644.68846
    638155.08206  21098030.66906    489903.56847  21098034.17347
   4411751.77902  24743084.22402   3375871.53745  24743088.48945
  -4847407.05606  23735779.73106  -3615097.85046  23735780.89246
   3434691.46006  21674260.84106   2632583.95547  21674267.38047
  -6476662.37606  22021253.00506  -4972612.79947  22021259.18147
   2788035.66206  22420115.97406   2132471.41046  22420119.02146
   8877353.55904  24469942.67704   6735666.11745  24469948.14945
 18  5 30  0 59 20.0010000  0  9  3 14 16 22 23 26 27 31 32
   3152358.18205  24636590.34105   2446304.06745  24636596.84545
   4874723.49406  21931391.10606   3748064.35146  21931395.56046
    641314.18706  21098631.84106    492365.20747  21098635.13447
   4421682.92602  24744973.16102   3383610.08445  24744977.09945
  -4860164.43706  23733351.53606  -3625038.67446  23733353.04846
   3444069.00406  21676045.55206   2639891.12947  21676051.96247
  -6489521.21006  22018806.23906  -4982632.66947  22018812.09947
   2794376.44806  22421322.69206   2137412.28246  22421325.76346
   8897411.47704  24473760.16104   6751295.64145  24473766.99345
 18  5 30  0 59 25.0010000  0  9  3 14 16 22 23 26 27 31 32
   3160645.31204  24638166.67704   2452761.57745  24638173.29845
   4889189.70906  21934143.78606   3759336.72046  21934148.12246
    644481.64606  21099234.81706    494833.34847  21099237.98147
   4431615.73302  24746863.73902   3391349.96345  24746868.12245
  -4872915.21506  23730925.08306  -3634974.36046  23730926.70046
   3453449.70806  21677830.60606   2647200.76947  21677836.93547
  -6502371.14806  22016361.01306  -4992645.61446  22016366.77846
   2800720.72606  22422529.98906   2142355.87446  22422532.93146
   8917472.04904  24477577.45804   6766927.25045  24477584.68145
 18  5 30  0 59 30.0010000  0  9  3 14 16 22 23 26 27 31 32
   3168940.21604  24639745.68504   2459225.13846  24639752.75546
   4903667.63906  21936899.06706   3770618.21246  21936903.57946
    647658.55706  21099839.20006    497308.85747  21099842.23547
   4441551.28102  24748754.55202   3399091.94545  24748758.39645
  -4885658.22406  23728500.27106  -3644903.98246  23728502.28646
   3462834.67606  21679616.38806   2654513.73247  21679622.83347
  -6515211.06106  22013917.78606  -5002650.74447  22013923.64647
   2807069.64906  22423737.94206   2147303.08446  22423740.69646
   8937536.36604  24481396.06004   6782561.77345  24481402.78645
 18  5 30  0 59 35.0010000  0  9  3 14 16 22 23 26 27 31 32
   3177241.80804  24641324.98904   2465693.89146  24641331.77446
   4918156.22306  21939656.15306   3781908.01246  21939660.63046
    650843.90106  21100445.41106    499790.93447  21100448.42347
   4451488.52102  24750646.01302   3406835.24845  24750650.07945
  -4898394.48806  23726076.63806  -3654828.34646  23726078.40746
   3472222.85106  21681403.06006   2661829.19247  21681409.58747
  -6528042.01306  22011475.63006  -5012648.88647  22011481.45447
   2813422.12906  22424946.93506   2152253.06746  22424949.67746
   8957603.35003  24485214.64603   6798198.34845  24485222.37245
 18  5 30  0 59 40.0010000  0  9  3 14 16 22 23 26 27 31 32
   3185550.53304  24642906.93504   2472168.21246  24642914.20446
   4932655.88206  21942415.59106   3793206.44146  21942420.06746
    654038.12106  21101053.18506    502279.93247  21101056.17347
   4461427.89702  24752537.94202   3414580.22845  24752541.45845
  -4911123.60305  23723654.34905  -3664747.13446  23723656.68146
   3481614.66106  21683190.34906   2669147.48047  21683196.77147
  -6540863.54006  22009036.41906  -5022639.67847  22009042.30247
   2819778.62406  22426156.58306   2157206.17446  22426159.45446
   8977673.47703  24489033.17703   6813837.36345  24489042.43845
 18  5 30  0 59 45.0010000  0  9  3 14 16 22 23 26 27 31 32
   3193866.18405  24644489.13005   2478647.93046  24644496.52846
   4947166.41206  21945176.54406   3804513.33546  21945181.20846
    657240.98506  21101662.71606    504775.67347  21101665.75147
   4471369.15002  24754429.06002   3422326.64145  24754433.16145
  -4923845.76005  23721233.36405  -3674660.50246  23721235.97846
   3491009.90207  21684978.16907   2676468.44147  21684984.60347
  -6553675.82006  22006598.18506  -5032623.26746  22006604.06746
   2826138.96106  22427366.96606   2162162.28346  22427369.81346
   8997746.48503  24492853.17703   6829478.65745  24492861.64245
 18  5 30  0 59 50.0010000  0  9  3 14 16 22 23 26 27 31 32
   3202188.83905  24646072.91105   2485133.10746  24646080.29846
   4961687.96406  21947939.80206   3815828.82246  21947944.32546
    660452.59206  21102273.98106    507278.22547  21102276.99347
   4481312.38302  24756322.38002   3430074.59645  24756327.19645
  -4936560.82105  23718813.78605  -3684568.35746  23718816.79846
   3500408.68207  21686766.65307   2683792.16247  21686773.14647
  -6566478.72306  22004161.68506  -5042599.54846  22004167.36846
   2832503.23906  22428577.98106   2167121.46146  22428580.80646
   9017822.50903  24496673.54403   6845122.28545  24496681.97445
