     2.10           OBSERVATION DATA    GPS(GPS)            RINEX VERSION / TYPE
cnvtToRINEX 2.50.0  convertToRINEX OPR  30-May-18 13:33 UTC PGM / RUN BY / DATE 
----------------------------------------------------------- COMMENT             
GI257                                                       MARKER NAME         
GI257                                                       MARKER NUMBER       
GNSS Observer       Trimble                                 OBSERVER / AGENCY   
0220326315          5700                2.32                REC # / TYPE / VERS 
                    TRM55971.00                             ANT # / TYPE
 -2966559.0494  5005351.2154  2604501.4504                  APPROX POSITION XYZ 
        1.5590        1.5092        1.5942                  ANTENNA: DELTA H/E/N
     1     1     0                                          WAVELENGTH FACT L1/2
     4    C1    L1    L2    P2                              # / TYPES OF OBSERV 
  2018     5    30     0    25   15.0000000     GPS         TIME OF FIRST OBS   
  2018     5    30     1    35   50.0000000     GPS         TIME OF LAST OBS    
     0                                                      RCV CLOCK OFFS APPL 
    17                                                      LEAP SECONDS        
    12                                                      # OF SATELLITES     
   G03   835   832   828   828                              PRN / # OF OBS      
   G08   224   210   115   115                              PRN / # OF OBS      
   G14   848   848   848   848                              PRN / # OF OBS      
   G16   848   848   848   848                              PRN / # OF OBS      
   G21   509   502   209   209                              PRN / # OF OBS      
   G22   469   450   259   259                              PRN / # OF OBS      
   G23   750   747   674   674                              PRN / # OF OBS      
   G26   848   848   848   848                              PRN / # OF OBS      
   G27   848   848   848   848                              PRN / # OF OBS      
   G29   321   317   272   272                              PRN / # OF OBS      
   G31   848   848   848   848                              PRN / # OF OBS      
   G32   547   537   464   464                              PRN / # OF OBS      
CARRIER PHASE MEASUREMENTS: PHASE SHIFTS REMOVED            COMMENT             
                                                            END OF HEADER       
 18  5 30  0 25 15.0000000  0  8G03G14G16G26G27G29G31G32             0.000224104
  23844872.12515     44927.93015     23718.34456  23844872.53956
  20715396.20316     92352.13316     63187.66458  20715394.38758
  20724936.31317     -4356.07017     -2703.81358  20724933.18058
  20738738.46917     72428.73817     50452.35558  20738739.71958
  22854431.85915   -135058.66015    -84883.50857  22854432.27057
  23745772.46915    133349.22715                
  21698380.05517     48585.68417     31063.03158  21698377.48858
  22703321.51616    159092.50016     86184.82857  22703320.51257
 18  5 30  0 25 20.0000000  0  9G03G14G16G22G26G27G29G31G32          0.000225904
  23845805.234 5     49832.215 5     27539.87946  23845806.16046
  20717252.672 6    102107.691 6     70789.38748  20717250.54348
  20724820.898 6     -4963.004 6     -3176.75448  20724817.69148
  23748803.78114     66870.22714     31605.86356  23748797.78156
  20740186.219 7     80037.172 7     56381.00448  20740187.30148
  22851558.336 5   -150162.297 5    -96652.58247  22851558.27747
  23748701.383 5    148737.793 5                
  21699428.117 7     54094.750 7     35355.80548  21699425.28148
  22706796.813 6    177356.484 6    100416.47747  22706796.06347
 18  5 30  0 25 25.0000000  0  9G03G14G16G22G26G27G29G31G32          0.000227695
  23846739.727 5     54738.664 5     31363.09446  23846739.87946
  20719109.992 6    111867.801 6     78394.67248  20719108.32448
  20724705.258 6     -5567.516 6     -3647.79348  20724702.40648
  23750419.766 5     75362.324 5     38223.07846  23750413.99646
  20741633.828 7     87643.773 7     62308.22348  20741635.02348
  22848682.773 5   -165271.344 5   -108425.87947  22848682.78547
  23751629.766 5    164127.824 5                
  21700474.664 7     59597.016 7     39643.27748  21700472.00848
  22710272.938 6    195619.086 6    114647.05147  22710272.12147
 18  5 30  0 25 30.0000000  0  9G03G14G16G22G26G27G29G31G32          0.000229481
  23847673.336 5     59648.059 5     35188.59046  23847674.72746
  20720968.453 6    121633.281 6     86004.12948  20720966.41448
  20724591.266 7     -6168.801 7     -4116.34048  20724587.74248
  23752035.023 5     83853.074 5     44839.24246  23752029.93846
  20743080.789 7     95249.340 7     68234.63348  20743081.73848
  22845807.266 5   -180384.875 5   -120202.68047  22845806.69947
  23754559.680 5    179520.149 5                
  21701520.938 7     65093.371 7     43926.14848  21701517.94948
  22713747.508 6    213881.121 6    128877.17247  22713747.58647
 18  5 30  0 25 35.0000000  0  9G03G14G16G22G26G27G29G31G32          0.000231262
  23848608.984 5     64560.996 5     39016.84846  23848609.63746
  20722827.305 6    131404.762 6     93618.26248  20722825.81648
  20724477.539 6     -6766.289 6     -4581.90248  20724474.33248
  23753650.766 5     92343.102 5     51454.84847  23753645.37547
  20744528.133 7    102854.430 7     74160.67648  20744529.14848
  22842930.875 5   -195502.348 5   -131982.53947  22842930.01247
  23757488.875 6    194915.246 6     37512.97756  23757485.43056
  21702565.969 7     70584.309 7     48204.78548  21702563.09448
  22717222.992 6    232143.094 6    143107.27047  22717222.59847
 18  5 30  0 25 40.0000000  0  9G03G14G16G22G26G27G29G31G32          0.000233036
  23849544.891 5     69477.785 5     42848.09446  23849545.65646
  20724688.414 6    141182.516 6    101237.28548  20724686.58648
  20724364.664 7     -7359.617 7     -5044.24248  20724361.30148
  23755265.844 6    100832.734 6     58070.12147  23755260.80947
  20745975.648 7    110459.430 7     80086.64548  20745976.03948
  22840052.914 5   -210623.359 5   -143765.14546  22840052.43046
  23760419.172 5    210313.625 5     49511.74646  23760416.20346
  21703609.750 7     76070.211 7     52479.51648  21703606.74648
  22720698.320 6    250405.410 6    157337.63347  22720698.34047
 18  5 30  0 25 45.0000000  0  9G03G14G16G22G26G27G29G31G32          0.000234808
  23850481.492 5     74398.613 5     46682.50846  23850482.16446
  20726550.445 6    150966.695 6    108861.31648  20726548.87548
  20724252.594 7     -7948.645 7     -5503.24248  20724249.67648
  23756881.375 5    109322.070 5     64685.19546  23756876.53946
  20747422.977 7    118064.391 7     86012.59048  20747423.20348
  22837174.797 5   -225747.895 5   -155550.51647  22837174.50447
  23763350.648 6    225715.281 6     61512.95746  23763347.06646
  21704652.859 7     81551.188 7     56750.39848  21704649.87948
  22724173.000 6    268668.148 6    171568.32047  22724173.65647
 18  5 30  0 25 50.0000000  0  9G03G14G16G22G26G27G29G31G32          0.000236572
  23851418.563 5     79323.313 5     50519.89846  23851419.42646
  20728413.125 6    160757.219 6    116490.29348  20728411.60248
  20724141.203 7     -8533.453 7     -5958.93448  20724137.78548
  23758496.977 5    117810.984 5     71299.91446  23758492.07846
  20748870.242 7    125669.250 7     91938.45348  20748870.37948
  22834296.844 5   -240875.789 5   -167338.48847  22834296.03547
  23766281.383 5    241120.152 5     73516.74246  23766278.18846
  21705694.578 7     87027.164 7     61017.38348  21705692.24248
  22727649.203 6    286931.250 6    185799.28547  22727649.64847
 18  5 30  0 25 55.0000000  0  9G03G14G16G22G26G27G29G31G32          0.000238333
  23852356.031 5     84252.145 5     54360.54746  23852357.56346
  20730277.531 6    170554.254 6    124124.34448  20730275.98448
  20724030.750 7     -9113.859 7     -6411.20748  20724027.70748
  23760112.047 6    126299.809 6     77914.56646  23760107.28146
  20750317.117 7    133274.242 7     97864.41448  20750317.18048
  22831416.891 6   -256007.059 6   -179129.08247  22831416.21147
  23769213.828 5    256528.410 5     85523.17246  23769210.83646
  21706736.164 6     92498.367 6     65280.64148  21706733.25848
  22731123.781 6    305194.883 6    200030.68447  22731124.84847
 18  5 30  0 26  0.0000000  0  9G03G14G16G22G26G27G29G31G32          0.000240088
  23853295.711 5     89185.000 5     58204.31646  23853295.75446
  20732143.125 6    180357.848 6    131763.50048  20732141.48048
  20723921.289 7     -9689.918 7     -6860.08248  20723917.85948
  23761728.250 6    134788.410 6     84529.03547  23761722.82847
  20751764.234 7    140879.266 7    103790.40648  20751764.41048
  22828537.258 6   -271141.602 6   -190922.23847  22828536.30147
  23772146.070 5    271940.012 5     97532.22346  23772143.46146
  21707776.359 7     97964.754 7     69540.16048  21707773.56648
  22734599.320 6    323459.004 6    214262.45747  22734600.66047
 18  5 30  0 26  5.0000000  0  9G03G14G16G22G26G27G29G31G32          0.000241838
  23854234.703 5     94122.289 5     62051.54746  23854235.55546
  20734010.531 6    190168.293 6    139407.99648  20734008.14548
  20723812.320 6    -10261.270 6     -7305.30148  20723809.16848
  23763343.805 5    143277.109 5     91143.60947  23763337.89847
  20753211.266 7    148484.695 7    109716.71548  20753211.49648
  22825656.797 5   -286279.027 5   -202717.60947  22825655.84847
  23775079.961 5    287355.332 5    109544.15246  23775077.15646
  21708815.430 7    103426.660 7     73796.18448  21708813.43448
  22738075.492 6    341723.965 6    228494.89547  22738076.80147
 18  5 30  0 26 10.0000000  0  9G03G14G16G22G26G27G29G31G32          0.000243586
  23855175.508 5     99064.113 5     65902.29746  23855176.58646
  20735878.367 6    199985.734 6    147057.94548  20735876.30948
  20723704.383 7    -10827.773 7     -7746.73848  20723701.28548
  23764958.844 5    151766.047 5     97758.35247  23764953.71947
  20754658.938 7    156090.648 7    115643.42248  20754659.41048
  22822775.500 6   -301419.176 6   -214515.12947  22822774.66447
  23778014.141 5    302774.520 5    121559.10946  23778011.37546
  21709853.836 7    108884.262 7     78048.85948  21709852.00448
  22741550.805 6    359989.918 6    242728.11347  22741552.13347
 18  5 30  0 26 15.0000000  0  9G03G14G16G22G26G27G29G31G32          0.000245327
  23856115.969 5    104010.496 5     69756.64546  23856117.60246
  20737747.867 7    209810.230 7    154713.39548  20737745.87948
  20723597.859 6    -11389.355 6     -8184.34048  20723594.12948
  23766574.711 5    160255.258 5    104373.33247  23766568.66047
  20756106.438 7    163697.199 7    121570.60548  20756106.56348
  22819893.695 6   -316562.121 6   -226314.84047  22819893.22747
  23780948.344 5    318197.516 5    133577.01646  23780946.55146
  21710892.047 7    114337.598 7     82298.21148  21710889.60248
  22745027.516 6    378256.840 6    256962.07847  22745028.15247
 18  5 30  0 26 20.0000000  0  9G03G14G16G22G26G27G29G31G32          0.000247065
  23857058.586 5    108961.523 5     73614.59446  23857059.38346
  20739618.891 6    219641.867 6    162374.40248  20739616.89548
  20723491.797 7    -11945.992 7     -8618.09448  20723488.75848
  23768189.883 5    168744.797 5    110988.55147  23768184.38347
  20757554.273 7    171304.367 7    127498.26248  20757554.48848
  22817011.680 6   -331707.707 6   -238116.59047  22817011.78547
  23783884.039 5    333624.453 5    145598.03146  23783882.21946
  21711928.992 7    119786.758 7     86544.29748  21711927.03948
  22748503.734 6    396524.867 6    271196.88347  22748504.65647
 18  5 30  0 26 25.0000000  0  9G03G14G16G22G26G27G29G31G32          0.000248796
  23858001.055 5    113917.449 5     77476.34046  23858002.81346
  20741491.133 7    229480.855 7    170041.13748  20741489.36748
  20723386.680 7    -12497.426 7     -9047.78148  20723383.72348
  23769804.930 5    177234.906 5    117604.23047  23769800.19947
  20759001.539 7    178912.422 7    133426.62548  20759001.91448
  22814128.383 6   -346855.625 6   -249920.15247  22814128.97347
  23786820.430 5    349055.586 5    157622.25446  23786818.64846
  21712965.727 7    125232.031 7     90787.36348  21712963.26648
  22751980.234 6    414794.211 6    285432.72347  22751980.96147
 18  5 30  0 26 30.0000000  0  9G03G14G16G22G26G27G29G31G32          0.000250525
  23858944.492 5    118878.336 5     81341.98446  23858946.28546
  20743365.234 6    239327.273 6    177713.66448  20743363.14548
  20723283.336 6    -13043.570 6     -9473.35948  20723279.43848
  23771421.031 5    185725.703 5    124220.44146  23771416.04746
  20760449.773 7    186521.391 7    139355.68448  20760450.34448
  22811245.273 6   -362005.848 6   -261725.50847  22811245.97747
  23789757.836 5    364490.934 5    169649.78546  23789755.76646
  21714000.523 7    130673.410 7     95027.39148  21713998.37948
  22755456.594 6    433064.898 6    299669.62147  22755457.21147
 18  5 30  0 26 35.0000000  0  9G03G14G16G22G26G27G29G31G32          0.000252249
  23859889.484 5    123844.148 5     85211.44546  23859891.85546
  20745240.445 6    249181.113 6    185391.97348  20745237.90248
  20723179.813 6    -13584.453 6     -9894.82448  20723176.62948
  23773037.031 5    194217.098 5    130837.09847  23773032.00847
  20761897.750 7    194131.332 7    145285.51248  20761898.22348
  22808362.055 6   -377158.305 6   -273532.61747  22808362.76647
  23792696.102 5    379930.508 5    181680.59446  23792694.42246
  21715035.656 7    136111.012 7     99264.47748  21715033.33248
  22758933.969 6    451336.988 6    313907.60547  22758934.17247
 18  5 30  0 26 40.0000000  0  9G03G14G16G22G26G27G29G31G32          0.000253969
  23860835.500 6    128814.875 6     89084.73846  23860837.55546
  20747116.469 6    259042.281 6    193076.00048  20747114.62548
  20723078.242 6    -14120.180 6    -10312.28948  20723074.85548
  23774652.547 5    202709.043 5    137454.18846  23774648.10946
  20763345.734 7    201742.082 7    151215.96548  20763347.18448
  22805478.305 5   -392313.105 5   -285341.54347  22805478.44547
  23795634.414 5    395374.211 5    193714.67246  23795632.95746
  21716069.164 7    141544.688 7    103498.51248  21716066.95348
  22762411.219 6    469610.355 6    328146.54747  22762411.91047
 18  5 30  0 26 45.0000000  0  9G03G14G16G22G26G27G29G31G32          0.000255684
  23861782.570 6    133790.266 6     92961.64546  23861784.56346
  20748994.328 7    268910.625 7    200765.60948  20748992.69148
  20722976.898 6    -14650.844 6    -10725.78548  20722973.66448
  23776269.344 6    211201.391 6    144071.58647  23776264.45347
  20764794.141 7    209353.566 7    157146.99248  20764795.09448
  22802593.594 5   -407470.324 5   -297152.37146  22802594.64546
  23798574.539 5    410821.938 5    205751.82846  23798572.50446
  21717102.719 7    146974.313 7    107729.37948  21717100.54748
  22765888.492 6    487884.863 6    342386.42247  22765888.74247
 18  5 30  0 26 50.0000000  0  9G03G14G16G22G26G27G29G31G32          0.000257397
  23862729.945 5    138770.648 5     96842.46146  23862731.63346
  20750873.891 6    278786.391 6    208461.01248  20750871.93048
  20722877.242 6    -15176.246 6    -11135.18848  20722873.98048
  23777885.273 6    219694.324 6    150689.45347  23777880.24647
  20766243.148 7    216965.965 7    163078.71948  20766244.29348
  22799708.195 5   -422629.746 5   -308964.88346  22799709.60546
  23801515.055 6    426273.855 6    217792.27046  23801513.30946
  21718134.852 7    152400.109 7    111957.27348  21718132.28148
  22769366.680 6    506160.719 6    356627.32847  22769366.57447
 18  5 30  0 26 55.0000000  0  9G03G14G16G22G26G27G29G31G32          0.000259102
  23863678.875 5    143756.125 5    100727.25446  23863680.59446
  20752754.320 6    288669.762 6    216162.33248  20752752.56348
  20722778.172 6    -15696.230 6    -11540.37548  20722775.21548
  23779501.703 5    228188.031 5    157307.90647  23779496.61347
  20767691.617 7    224579.441 7    169011.29748  20767693.01248
  22796824.070 5   -437791.176 5   -320778.99247  22796824.44147
  23804455.805 5    441730.145 5    229836.12946  23804454.18446
  21719166.953 7    157822.301 7    116182.34848  21719164.51648
  22772845.000 6    524438.078 6    370869.40247  22772844.15247
 18  5 30  0 27  0.0000000  0  9G03G14G16G22G26G27G29G31G32          0.000260805
  23864628.648 5    148746.746 5    104616.04746  23864629.98046
  20754636.617 6    298560.789 6    223869.61348  20754634.70748
  20722680.508 6    -16210.707 6    -11941.27048  20722676.68448
  23781117.578 5    236682.602 5    163927.03546  23781112.99646
  20769140.734 7    232194.063 7    174944.76248  20769142.12548
  22793938.430 5   -452954.543 5   -332594.60247  22793939.09447
  23807398.055 6    457190.883 6    241883.44946  23807396.73846
  21720198.109 7    163240.910 7    120404.63348  21720195.40248
  22776323.211 6    542717.000 6    385112.70347  22776322.79347
 18  5 30  0 27  5.0000000  0  9G03G14G16G22G26G27G29G31G32          0.000262505
  23865579.656 6    153742.559 6    108508.89147  23865580.45747
  20756520.156 6    308459.547 6    231582.93448  20756518.39848
  20722583.781 7    -16719.660 7    -12337.84848  20722579.84848
  23782734.039 5    245178.004 5    170546.83247  23782729.79747
  20770590.211 7    239809.863 7    180879.15648  20770591.16848
  22791051.805 5   -468119.785 5   -344411.67247  22791052.84047
  23810340.531 5    472656.074 5    253934.25046  23810339.11346
  21721228.672 7    168656.000 7    124624.17648  21721226.13748
  22779802.063 6    560997.563 6    399357.28147  22779801.66047
 18  5 30  0 27 10.0000000  0  9G03G14G16G22G26G27G29G31G32          0.000264198
  23866531.820 6    158743.758 6    112405.88746  23866532.14546
  20758405.734 6    318366.223 6    239302.41048  20758403.50448
  20722487.961 7    -17222.859 7    -12729.96548  20722484.66848
  23784350.586 5    253674.430 5    177167.41846  23784346.03546
  20772039.398 7    247427.008 7    186814.58648  20772040.15648
  22788166.805 5   -483286.723 5   -356230.06347  22788167.06347
  23813285.055 6    488125.926 6    265988.66846  23813283.69946
  21722258.531 7    174067.766 7    128841.12948  21722256.09448
  22783280.969 6    579279.867 6    413603.21947  22783281.03947
 18  5 30  0 27 15.0000000  0  9G03G14G16G22G26G27G29G31G32          0.000265890
  23867484.727 6    163750.402 6    116307.16847  23867485.04347
  20760291.922 6    328280.848 6    247028.09848  20760290.32848
  20722393.211 7    -17720.262 7    -13117.54348  20722389.89148
  23785967.898 5    262171.984 5    183788.88746  23785963.10246
  20773489.234 7    255045.574 7    192751.12548  20773490.34848
  22785279.953 5   -498455.172 5   -368049.63747  22785280.41847
  23816230.289 6    503600.488 6    278046.75046  23816228.18846
  21723287.609 7    179476.254 7    133055.52348  21723285.28548
  22786760.477 6    597564.035 6    427850.60247  22786760.42247
 18  5 30  0 27 20.0000000  0  9G03G14G16G22G26G27G29G31G32          0.000267576
  23868438.508 5    168762.473 5    120212.68047  23868438.84047
  20762180.500 6    338203.375 6    254759.92248  20762178.52748
  20722299.578 6    -18211.898 6    -13500.63748  20722295.91848
  23787584.820 5    270670.570 5    190411.16047  23787580.54747
  20774939.547 7    262665.566 7    198688.77748  20774940.05148
  22782393.563 5   -513625.254 5   -379870.48047  22782394.09047
  23819175.570 5    519079.727 5    290108.49246  23819174.14846
  21724316.336 7    184881.453 7    137267.35948  21724314.05548
  22790239.969 6    615849.996 6    442099.39147  22790240.77047
 18  5 30  0 27 25.0000000  0  9G03G14G16G22G26G27G29G31G32          0.000269258
  23869393.055 6    173780.211 6    124122.60547  23869393.73447
  20764070.211 6    348134.102 6    262498.14148  20764068.23048
  20722207.305 6    -18697.504 6    -13879.03148  20722203.60948
  23789202.180 5    279170.512 5    197034.49247  23789197.63347
  20776389.648 7    270287.164 7    204627.68048  20776390.47348
  22779507.008 5   -528796.648 5   -391692.34847  22779507.05947
  23822121.953 5    534563.816 5    302173.98046  23822120.66046
  21725344.117 7    190283.703 7    141476.90248  21725341.71548
  22793719.805 6    634138.039 6    456349.79347  22793720.84447
 18  5 30  0 27 30.0000000  0  9G03G14G16G22G26G27G29G31G32          0.000270939
  23870349.070 5    178803.547 5    128036.86347  23870349.44147
  20765961.156 6    358072.953 6    270242.69548  20765959.66448
  20722115.891 6    -19177.176 6    -14252.80548  20722112.12148
  23790819.852 5    287671.695 5    203658.77747  23790815.43047
  20777840.273 7    277910.309 7    210567.78948  20777840.62948
  22776619.391 5   -543969.449 5   -403515.31347  22776619.79347
  23825069.172 6    550052.727 6    314243.27046  23825068.32446
  21726371.672 7    195682.828 7    145684.00848  21726369.32448
  22797200.250 6    652428.027 6    470601.74647  22797201.80147
 18  5 30  0 27 35.0000000  0  9G03G14G16G22G26G27G29G31G32          0.000272614
  23871306.805 5    183832.762 5    131955.72347  23871306.87947
  20767854.805 6    368020.258 6    277993.84048  20767852.65248
  20722025.914 6    -19650.551 6    -14621.67648  20722022.23048
  23792438.117 6    296174.422 6    210284.27347  23792433.57447
  20779291.703 7    285535.387 7    216509.40248  20779292.05148
  22773731.594 5   -559143.246 5   -415339.04747  22773732.10947
  23828017.609 5    565546.844 5    326316.59046  23828016.87946
  21727398.563 7    201079.270 7    149889.02048  21727396.30948
  22800681.219 6    670720.352 6    484855.48447  22800683.23047
 18  5 30  0 27 40.0000000  0  9G03G14G16G22G26G27G29G31G32          0.000274286
  23872264.711 6    188868.348 6    135879.55146  23872264.78946
  20769749.359 6    377976.480 6    285751.93848  20769747.09448
  20721937.047 7    -20117.211 7    -14985.30948  20721933.40648
  23794056.883 6    304679.145 6    216911.32047  23794052.16047
  20780743.102 7    293162.766 7    222452.80548  20780743.94148
  22770844.352 5   -574317.590 5   -427163.21547  22770844.86747
  23830967.234 5    581046.477 5    338394.21546  23830966.11346
  21728425.023 7    206473.398 7    154092.23848  21728422.78148
  22804162.766 6    689015.414 6    499111.39147  22804165.29747
 18  5 30  0 27 45.0000000  0  9G03G14G16G22G26G27G29G31G32          0.000275955
  23873224.211 5    193910.734 5    139808.67647  23873225.13747
  20771645.367 6    387942.004 6    293517.26648  20771643.32448
  20721849.781 6    -20576.750 6    -15343.39148  20721846.41848
  23795676.055 6    313186.254 6    223540.21947  23795671.32847
  20782194.727 7    300792.883 7    228398.35548  20782195.33248
  22767956.711 5   -589492.078 5   -438987.47347  22767956.62547
  23833917.547 5    596552.152 5    350476.55146  23833916.60546
  21729451.227 6    211865.680 6    158294.00848  21729449.21548
  22807644.398 6    707313.625 6    513369.72347  22807647.42647
 18  5 30  0 27 50.0000000  0  9G03G14G16G22G26G27G29G31G32          0.000277622
  23874184.992 5    198960.395 5    143743.48047  23874186.12147
  20773543.719 6    397917.410 6    301290.30948  20773541.71548
  20721763.531 6    -21028.598 6    -15695.47748  20721760.37948
  23797295.227 6    321696.375 6    230171.48447  23797290.64547
  20783647.492 7    308426.313 7    234346.47348  20783648.16448
  22765068.922 6   -604666.117 6   -450811.40247  22765069.57847
  23836869.633 5    612064.426 5    362564.01646  23836869.32446
  21730477.156 6    217256.645 6    162494.76648  21730474.85548
  22811127.586 6    725615.551 6    527630.96547  22811130.58247
 18  5 30  0 27 55.0000000  0  9G03G14G16G22G26G27G29G31G32          0.000279285
  23875146.367 5    204017.980 5    147684.44547  23875148.61747
  20775443.648 6    407903.324 6    309071.53948  20775442.30548
  20721679.250 7    -21472.109 7    -16041.07048  20721675.74248
  23798915.000 5    330210.020 5    236805.46947  23798910.56647
  20785100.367 7    316063.621 7    240297.62548  20785101.72348
  22762181.922 6   -619839.094 6   -462634.50047  22762182.42647
  23839822.734 6    627583.848 6    374657.04346  23839822.28946
  21731502.555 6    222646.953 6    166695.00848  21731500.39148
  22814610.602 5    743921.824 5    541895.59047  22814613.53147
 18  5 30  0 28  0.0000000  0  9G03G14G16G22G26G27G29G31G32          0.000280949
  23876111.188 4    209084.508 4    151632.46546  23876113.07846
  20777346.008 6    417900.676 6    316861.68448  20777344.43048
  20721596.375 7    -21906.379 7    -16379.46148  20721593.59448
  23800535.563 5    338728.262 5    243443.05947  23800531.72747
  20786554.492 7    323705.836 7    246252.55948  20786555.79748
  22759295.102 6   -635009.953 6   -474455.94547  22759295.60547
  23842778.273 6    643111.422 6    386756.47347  23842777.37147
  21732528.563 7    228037.566 7    170895.48048  21732525.92648
  22818095.578 6    762233.348 6    556164.34446  22818098.31646
 18  5 30  0 28  5.0000000  0  9G03G14G16G22G26G27G29G31G32          0.000282610
  23877076.984 5    214160.902 5    155588.03147  23877078.78547
  20779251.109 6    427910.449 6    324661.49648  20779249.62548
  20721515.789 7    -22330.430 7    -16709.89548  20721512.62948
  23802158.258 6    347251.945 6    250084.89147  23802153.59447
  20788010.086 7    331353.832 7    252212.07048  20788011.34448
  22756408.305 5   -650177.789 5   -486275.02347  22756409.41447
  23845735.406 5    658648.082 5    398862.93846  23845734.00046
  21733554.328 7    233429.438 7    175096.93848  21733552.10548
  22821581.000 6    780551.074 6    570437.85547  22821584.68847
 18  5 30  0 28 10.0000000  0  9G03G14G16G22G26G27G29G31G32          0.000284271
  23878044.992 5    219248.438 5    159552.30546  23878047.21946
  20781158.469 6    437933.957 6    332472.00848  20781156.98848
  20721437.172 6    -22742.934 6    -17031.32848  20721434.24648
  23803781.352 5    355782.426 5    256732.01647  23803776.84847
  20789466.633 7    339008.996 7    258177.12548  20789467.84448
  22753522.742 6   -665341.207 6   -498090.64847  22753523.98847
  23848693.383 5    674195.141 5    410977.51646  23848692.70746
  21734580.898 7    238823.965 7    179300.47748  21734578.82848
  22825068.547 6    798876.418 6    584717.33247  22825071.73847
 18  5 30  0 28 15.0000000  0  9G03G14G16G22G26G27G29G31G32          0.000285933
  23879015.352 5    224348.688 5    163526.55546  23879017.39146
  20783068.969 6    447972.746 6    340294.44548  20783067.12148
  20721361.359 6    -23142.328 6    -17342.55548  20721358.22748
  23805406.680 5    364321.242 5    263385.63747  23805401.93447
  20790925.383 7    346672.832 7    264148.94148  20790926.43448
  22750638.094 5   -680498.703 5   -509901.69147  22750639.98047
  23851653.422 5    689754.133 5    423101.42646  23851653.45346
  21735608.359 7    244222.613 7    183507.21548  21735606.21548
  22828557.820 6    817210.797 6    599003.85247  22828559.99647
 18  5 30  0 28 20.0000000  0  9G03G14G16G22G26G27G29G31G32          0.000287596
  23879987.859 5    229463.301 5    167511.96546  23879989.68446
  20784982.102 6    458028.438 6    348130.03948  20784980.69548
  20721287.906 7    -23527.004 7    -17642.30548  20721285.12948
  23807032.281 5    372870.059 5    270047.06347  23807028.52047
  20792385.602 7    354346.988 7    270128.79348  20792386.77348
  22747755.781 5   -695648.590 5   -521706.79347  22747757.09447
  23854617.047 5    705326.691 5    435235.86746  23854616.91046
  21736636.500 7    249627.094 7    187718.49648  21736634.66848
  22832048.773 6    835555.949 6    613298.75847  22832050.08247
 18  5 30  0 28 25.0000000  0  9G03G14G16G22G26G27G29G31G32          0.000289263
  23880964.563 5    234594.383 5    171510.19146  23880966.92246
  20786899.617 6    468103.109 6    355980.42648  20786898.12948
  20721218.016 7    -23894.863 7    -17928.93848  20721214.91848
  23808661.492 5    381430.855 5    276717.79346  23808657.32446
  20793848.445 7    362033.496 7    276118.28548  20793848.56648
  22744873.977 5   -710788.746 5   -533504.31647  22744876.16047
  23857583.219 5    720914.852 5    447382.48846  23857583.43046
  21737666.688 7    255039.449 7    191935.90648  21737664.63748
  22835542.398 6    853913.828 6    627603.57847  22835543.19947
 18  5 30  0 28 30.0000000  0  9G03G14G16G22G26G27G29G31G32          0.000290934
  23881944.023 4    239743.938 4    175522.82046  23881946.35246
  20788820.563 6    478198.926 6    363847.28548  20788818.71948
  20721151.070 7    -24243.770 7    -18200.80948  20721148.56348
  23810293.609 5    390005.844 5    283399.60247  23810289.42247
  20795313.594 7    369734.508 7    282119.07048  20795314.36748
  22741995.445 5   -725917.102 5   -545292.63347  22741997.19547
  23860552.727 5    736520.793 5    459542.96946  23860553.01646
  21738698.547 7    260461.832 7    196161.14148  21738696.68048
  22839038.328 6    872286.621 6    641920.02747  22839038.80147
 18  5 30  0 28 35.0000000  0  9G03G14G16G22G26G27G29G31G32          0.000292610
  23882928.055 5    244914.527 5    179551.86746  23882930.52046
  20790746.719 6    488318.324 6    371732.52348  20790744.59048
  20721088.820 7    -24571.246 7    -18455.99248  20721086.34048
  23811929.539 5    398597.363 5    290094.28546  23811924.36746
  20796782.469 7    377452.496 7    288133.07448  20796783.25848
  22739119.555 5   -741031.094 5   -557069.78947  22739120.47347
  23863526.406 5    752146.906 5    471719.16046  23863526.49646
  21739732.914 7    265896.719 7    200396.10948  21739730.96148
  22842538.164 6    890676.781 6    656249.99247  22842537.70347
 18  5 30  0 28 40.0000000  0  9G03G14G16G22G26G27G29G31G32          0.000294294
  23883916.797 4    250109.004 4    183599.54746  23883918.85946
  20792677.344 6    498464.297 6    379638.47348  20792675.12948
  20721031.188 7    -24874.391 7    -18692.21548  20721028.43048
  23813567.477 5    407208.457 5    296804.21146  23813562.73046
  20798255.156 7    385190.344 7    294162.57448  20798255.91448
  22736246.547 5   -756127.859 5   -568833.49647  22736248.24247
  23866503.219 5    767796.121 5    483913.35246  23866504.68846
  21740770.109 7    271347.043 7    204643.11748  21740768.12548
  22846041.461 6    909087.223 6    670595.77047  22846040.94547
 18  5 30  0 28 45.0000000  0  9G03G14G16G22G26G27G29G31G32          0.000295990
  23884910.539 4    255330.799 4    187668.42646  23884911.93046
  20794613.680 6    508640.117 6    387567.67648  20794611.52348
  20720978.750 6    -25149.824 6    -18906.84448  20720976.07448
  23815210.242 5    415842.480 5    303532.00047  23815205.66847
  20799731.836 7    392951.426 7    300210.16448  20799732.93848
  22733377.367 5   -771203.957 5   -580581.10547  22733378.69947
  23869486.484 5    783471.805 5    496128.14847  23869487.85947
  21741810.992 6    276816.105 6    208904.69548  21741809.30548
  22849549.430 6    927521.277 6    684959.93047  22849548.69947
 18  5 30  0 28 50.0000000  0  9G03G14G16G22G26G27G29G31G32          0.000297697
  23885911.602 5    260583.582 5    191761.50446  23885910.96946
  20796556.445 6    518849.563 6    395523.09448  20796554.78948
  20720932.445 6    -25393.887 6    -19097.02048  20720929.74248
  23816859.102 5    424503.078 5    310280.52746  23816853.35946
  20801213.828 7    400739.461 7    306278.76648  20801214.94148
  22730513.672 6   -786255.656 6   -592309.69547  22730514.75847
  23872475.242 5    799177.734 5    508366.51647  23872476.87147
  21742855.664 7    282307.789 7    213183.95348  21742854.20348
  22853062.781 6    945982.723 6    699345.46547  22853061.50447
 18  5 30  0 28 55.0000000  0  9G03G14G16G22G26G27G29G31G32          0.000299417
  23886917.414 5    265871.441 5    195881.91846  23886917.32446
  20798506.563 6    529096.707 6    403507.87148  20798504.61748
  20720892.484 6    -25602.438 6    -19259.52348  20720890.09048
  23818512.023 5    433194.355 5    317052.92247  23818507.25047
  20802701.859 7    408558.582 7    312371.57848  20802703.14148
  22727653.945 5   -801278.816 5   -604016.05547  22727655.74647
  23875471.75015    814916.90215    519650.51957  23875471.66057
  21743905.930 7    287826.063 7    217483.90648  21743904.00048
  22856581.781 6    964475.617 6    713755.48447  22856580.59447
 18  5 30  0 29  0.0000000  0  9G03G14G16G22G26G27G29G31G32          0.000301159
  23887931.250 5    271198.719 5    200033.03146  23887931.02346
  20800463.906 6    539385.855 6    411525.38748  20800462.39148
  20720860.469 7    -25771.184 7    -19391.02048  20720858.07048
  23820172.242 5    441920.645 5    323852.63347  23820168.12547
  20804196.461 7    416413.023 7    318491.92248  20804197.35248
  22724801.789 6   -816269.223 6   -615696.87947  22724803.43847
  23878473.938 5    830695.652 5    531945.67256  23878474.75056
  21744961.898 7    293375.277 7    221807.95748  21744959.89848
  22860107.453 6    983004.199 6    728193.31347  22860106.80547
 18  5 30  0 29  5.0000000  0  9G03G14G16G22G26G27G29G31G32          0.000302921
  23888952.359 5    276569.762 5    204218.23046  23888952.26246
  20802430.703 6    549721.371 6    419579.03548  20802429.28548
  20720836.688 6    -25895.723 6    -19488.06648  20720833.90248
  23821841.125 5    450686.230 5    330682.93846  23821836.40246
  20805698.805 7    424307.184 7    324643.21548  20805699.92248
  22721956.047 6   -831222.359 6   -627348.66447  22721958.03547
  23881484.555 5    846517.406 5    544274.32446  23881485.10946
  21746024.305 7    298959.793 7    226159.53148  21746022.53148
  22863640.773 6   1001572.938 6    742662.44547  22863640.64847
 18  5 30  0 29 10.0000000  0  9G03G14G16G22G26G27G29G31G32          0.000304703
  23889984.141 5    281988.918 5    208440.92646  23889983.62546
  20804407.281 6    560107.586 6    427672.18048  20804405.85248
  20720822.414 6    -25971.758 6    -19547.32848  20720819.95748
  23823516.813 5    459495.551 5    337547.34846  23823512.33246
  20807209.555 7    432245.414 7    330828.84848  20807210.12148
  22719118.133 6   -846133.883 6   -638968.02747  22719120.21547
  23884504.133 5    862386.445 5    556639.80947  23884505.27047
  21747094.836 7    304584.031 7    230542.05948  21747092.83648
  22867182.563 6   1020186.129 6    757166.23047  22867182.94147
 18  5 30  0 29 15.0000000  0  9G03G14G16G22G26G27G29G31G32          0.000306513
  23891025.203 5    287460.105 5    212704.21546  23891024.84846
  20806394.336 6    570548.523 6    435807.98048  20806392.37948
  20720818.336 7    -25995.266 7    -19565.64848  20720815.28148
  23825202.727 5    468352.551 5    344448.93046  23825198.03146
  20808728.750 7    440231.672 7    337051.89848  20808730.13348
  22716288.852 5   -860999.852 5   -650551.88747  22716291.24247
  23887533.508 5    878306.711 5    569045.21547  23887534.77047
  21748173.203 7    310251.895 7    234958.57448  21748171.09048
  22870733.930 6   1038847.715 6    771707.70747  22870734.40247
 18  5 30  0 29 20.0000000  0  9G03G14G16G22G26G27G29G31G32          0.000308350
  23892077.078 5    292987.332 5    217011.12946  23892076.34846
  20808392.336 6    581048.094 6    443989.45748  20808390.12548
  20720824.266 6    -25962.391 6    -19540.02748  20720821.57848
  23826898.195 5    477261.066 5    351390.61746  23826893.20346
  20810258.438 7    448269.867 7    343315.42648  20810259.59848
  22713470.055 5   -875816.320 5   -662097.17247  22713471.42647
  23890573.234 5    894282.211 5    581493.64546  23890574.75046
  21749260.680 6    315967.371 6    239412.18448  21749259.12948
  22874294.984 6   1057561.629 6    786289.96147  22874296.27047
 18  5 30  0 29 25.0000000  0  9G03G14G16G22G26G27G29G31G32          0.000310219
  23893140.453 5    298573.961 5    221364.34446  23893139.81346
  20810401.828 6    591609.730 6    452219.29348  20810400.08648
  20720841.859 6    -25869.625 6    -19467.75848  20720839.13748
  23828603.477 5    486224.656 5    358375.19547  23828598.94147
  20811798.359 7    456363.449 7    349622.10948  20811800.09848
  22710660.055 5   -890579.809 5   -673601.17647  22710662.44547
  23893624.828 5    910316.281 5    593987.71946  23893626.15646
  21750358.391 7    321733.887 7    243905.57048  21750356.49648
  22877866.641 6   1076331.340 6    800915.70747  22877868.11347
 18  5 30  0 29 30.0000000  0  9G03G14G16G22G26G27G29G31G32          0.000312119
  23894215.313 5    304222.793 5    225766.01646  23894214.98846
  20812424.227 6    602236.195 6    460499.66048  20812421.85948
  20720871.531 6    -25714.230 6    -19346.67248  20720868.65248
  23830320.531 5    495245.941 5    365404.76646  23830316.00046
  20813349.461 7    464515.184 7    355974.10548  20813351.04348
  22707861.844 5   -905287.488 5   -685061.70747  22707863.45347
  23896687.719 5    926411.770 5    606529.65646  23896688.86746
  21751466.086 7    327554.238 7    248440.90248  21751464.71548
  22881449.836 6   1095159.543 6    815587.02347  22881451.41047
 18  5 30  0 29 35.0000000  0  9G03G14G16G22G26G27G29G31G32          0.000314053
  23895302.648 5    309935.797 5    230217.71146  23895302.14546
  20814459.719 6    612929.465 6    468832.06648  20814456.96948
  20720913.336 6    -25494.234 6    -19175.25048  20720910.27348
  23832048.742 6    504327.008 6    372480.91447  23832044.20747
  20814912.438 7    472727.035 7    362372.94948  20814913.64848
  22705074.406 5   -919937.426 5   -696477.24647  22705075.59847
  23899762.508 5    942570.629 5    619120.96547  23899763.68047
  21752584.078 7    333430.367 7    253019.69148  21752582.47748
  22885043.898 6   1114048.297 6    830305.53947  22885046.18447
 18  5 30  0 29 40.0000000  0  9G03G14G16G22G26G27G29G31G32          0.000316021
  23896402.250 5    315714.762 5    234720.77746  23896401.73846
  20816507.398 6    623691.336 6    477217.93448  20816504.55148
  20720968.148 7    -25207.805 7    -18952.06348  20720964.92648
  23833788.797 6    513469.582 6    379604.99246  23833784.57446
  20816486.852 7    481000.809 7    368820.04748  20816488.66448
  22702297.930 5   -934527.730 5   -707846.31647  22702298.84847
  23902850.250 5    958794.629 5    631763.02746  23902851.34446
  21753713.703 7    339364.109 7    257643.38748  21753711.32448
  22888650.313 6   1132999.355 6    845072.58247  22888652.42647
 18  5 30  0 29 45.0000000  0  9G03G14G16G22G26G27G29G31G32          0.000318024
  23897514.102 6    321558.473 6    239274.34046  23897514.19546
  20818567.977 6    634520.629 6    485656.34048  20818565.59448
  20721035.328 6    -24856.246 6    -18678.12948  20721032.10548
  23835539.781 6    522672.438 6    386776.03946  23835535.60946
  20818072.727 7    489335.242 7    375314.40648  20818074.25448
  22699532.633 5   -949059.703 5   -719169.93047  22699533.66847
  23905949.141 5    975082.520 5    644454.89546  23905950.98046
  21754853.164 7    345354.273 7    262311.03948  21754851.29748
  22892268.406 6   1152011.449 6    859887.19147  22892270.14147
 18  5 30  0 29 50.0000000  0  9G03G14G16G22G26G27G29G31G32          0.000320059
  23898638.281 6    327464.535 6    243876.42246  23898637.88746
  20820641.242 6    645414.867 6    494145.34848  20820638.70748
  20721114.219 6    -24441.887 6    -18355.25048  20721110.70348
  23837302.500 6    531933.199 6    393992.19947  23837297.44947
  20819669.547 7    497727.945 7    381854.17248  20819671.02748
  22696778.797 5   -963535.656 5   -730449.91847  22696778.87147
  23909060.664 5    991431.871 5    657194.64846  23909061.19146
  21756003.391 7    351398.480 7    267020.81348  21756001.46548
  22895897.109 6   1171082.180 6    874747.49647  22895899.44547
 18  5 30  0 29 55.0000000  0  9G03G14G16G22G26G27G29G31G32          0.000322126
  23899773.742 5    333432.875 5    248527.09046  23899774.19946
  20822726.430 6    656374.129 6    502685.03548  20822723.99648
  20721204.781 6    -23964.777 6    -17983.47748  20721201.43448
  23839075.094 6    541251.867 6    401253.50046  23839071.35946
  20821277.891 7    506178.938 7    388439.35548  20821279.22348
  22694034.797 5   -977955.648 5   -741686.27347  22694034.90247
  23912183.133 5   1007842.688 5    669982.28546  23912184.18846
  21757164.094 7    357496.711 7    271772.67248  21757162.14848
  22899537.500 6   1190211.512 6    889653.45747  22899539.66847
 18  5 30  0 30  0.0000000  0  9G03G14G16G22G26G27G29G31G32          0.000324224
  23900920.438 5    339462.063 5    253225.14546  23900921.75846
  20824824.359 6    667396.898 6    511274.19148  20824822.01248
  20721307.188 6    -23426.348 6    -17563.92248  20721303.62548
  23840859.766 6    550626.934 6    408558.74647  23840855.43047
  20822896.953 7    514686.754 7    395068.82848  20822897.93848
  22691300.797 5   -992321.016 5   -752880.07447  22691301.01647
  23915317.414 5   1024313.605 5    682816.77047  23915318.13747
  21758334.375 7    363647.500 7    276565.50048  21758332.65648
  22903188.992 6   1209398.129 6    904604.03947  22903190.76247
 18  5 30  0 30  5.0000000  0  9G03G14G16G22G26G27G29G31G32          0.000326351
  23902078.617 5    345545.969 5    257965.83646  23902079.13746
  20826932.539 7    678477.012 7    519908.04748  20826930.13748
  20721420.195 7    -22832.770 7    -17101.39148  20721416.79748
  23842653.539 6    560052.273 6    415903.14847  23842649.29347
  20824525.336 6    523245.180 6    401737.71948  20824526.77348
  22688576.836 5  -1006638.004 5   -764036.16047  22688576.44947
  23918462.352 5   1040838.305 5    695693.16046  23918462.77746
  21759513.727 7    369844.680 7    281394.47348  21759511.47748
  22906849.164 6   1228635.730 6    919594.37147  22906851.02747
 18  5 30  0 30 10.0000000  0  9G03G14G16G22G26G27G29G31G32          0.000328503
  23903246.242 5    351682.652 5    262747.68446  23903247.16846
  20829051.539 6    689612.578 6    528585.10248  20829049.33648
  20721543.422 7    -22185.949 7    -16597.37548  20721540.25048
  23844456.273 6    569525.926 6    423285.22347  23844452.25047
  20826163.539 6    531852.336 6    408444.58648  20826165.00048
  22685861.383 6  -1020908.453 6   -775155.99247  22685860.96547
  23921616.719 5   1057414.949 5    708610.01647  23921617.34447
  21760701.242 7    376086.387 7    286258.14848  21760699.04348
  22910519.852 6   1247922.426 6    934622.94147  22910521.24247
 18  5 30  0 30 15.0000000  0  9G03G14G16G22G26G27G29G31G32          0.000330681
  23904423.461 5    357869.488 5    267568.58646  23904424.14146
  20831180.930 6    700800.965 6    537303.32848  20831178.61748
  20721675.633 6    -21488.504 6    -16053.91448  20721672.35248
  23846267.391 5    579045.305 5    430702.92647  23846263.72747
  20827810.180 6    540505.578 6    415187.36748  20827811.40248
  22683154.289 6  -1035134.996 6   -786241.58647  22683153.87947
  23924780.36715   1074040.84815    720528.24257  23924778.13757
  21761897.242 7    382369.984 7    291154.45348  21761894.86748
  22914198.563 6   1267255.602 6    949687.73847  22914199.44947
 18  5 30  0 30 20.0000000  0  9G03G14G16G22G26G27G29G31G32          0.000332878
  23905610.047 5    364102.770 5    272425.68846  23905610.02746
  20833319.063 6    712038.469 6    546059.81348  20833317.41048
  20721817.617 6    -20744.164 6    -15473.91048  20721814.03948
  23848086.047 5    588606.609 5    438153.28947  23848083.21547
  20829464.805 6    549201.219 6    421963.18448  20829466.32448
  22680454.672 6  -1049321.297 6   -797295.84447  22680454.54347
  23927953.172 5   1090712.378 5    733519.05657  23927952.38357
  21763100.203 7    388691.758 7    296080.51248  21763097.63748
  22917885.750 6   1286631.496 6    964785.82447  22917887.13347
 18  5 30  0 30 25.0000000  0  9G03G14G16G22G26G27G29G31G32          0.000335098
  23906803.891 6    370378.211 6    277315.66446  23906804.57446
  20835465.859 6    723320.840 6    554851.27748  20835464.28948
  20721967.141 6    -19957.141 6    -14860.64548  20721963.53948
  23849914.109 5    598205.664 5    445633.09447  23849909.90647
  20831126.508 6    557934.973 6    428768.71148  20831128.35548
  22677761.047 6  -1063471.602 6   -808322.04347  22677761.87947
  23931132.898 5   1107425.188 5    746542.02346  23931132.70346
  21764309.523 7    395047.457 7    301033.00848  21764307.78548
  22921580.281 6   1306045.949 6    979913.94947  22921580.98047
 18  5 30  0 30 30.0000000  0  9G03G14G16G22G26G27G29G31G32          0.000337332
  23908005.352 5    376691.676 5    282235.22746  23908005.87946
  20837620.445 6    734643.938 6    563674.46148  20837619.29748
  20722123.797 6    -19131.625 6    -14217.37948  20722120.80948
  23851746.219 5    607838.277 5    453139.01247  23851742.69147
  20832795.070 7    566702.691 7    435600.69548  20832796.82848
  22675075.000 6  -1077590.035 6   -819323.40647  22675075.02747
  23934321.031 5   1124175.188 5    759593.97746  23934320.35246
  21765524.609 7    401432.980 7    306008.73448  21765522.43448
  22925280.828 6   1325494.691 6    995068.79747  22925281.52347
 18  5 30  0 30 35.0000000  0  9G03G14G16G22G26G27G29G31G32          0.000339582
  23909213.398 6    383039.035 6    287181.23446  23909213.78546
  20839782.063 6    746003.602 6    572526.14548  20839780.71948
  20722287.797 6    -18271.777 6    -13547.37148  20722284.34048
  23853584.367 5    617500.348 5    460667.89847  23853581.31347
  20834469.102 7    575500.207 7    442455.89848  20834470.66048
  22672392.625 6  -1091680.734 6   -830303.16447  22672393.73847
  23937514.445 5   1140958.207 5    772671.65246  23937514.46146
  21766744.430 7    407844.105 7    311004.40248  21766741.92248
  22928987.766 6   1344973.609 6   1010247.17247  22928987.84447
 18  5 30  0 30 40.0000000  0  9G03G14G16G22G26G27G29G31G32          0.000341845
  23910427.242 6    389416.617 6    292150.77346  23910427.75446
  20841950.250 6    757396.219 6    581403.50848  20841948.82448
  20722457.453 6    -17381.219 6    -12853.43048  20722453.94148
  23855427.156 5    627188.137 5    468216.83646  23855424.64546
  20836148.359 6    584323.902 6    449331.50448  20836150.29748
  22669715.883 6  -1105747.367 6   -841264.15247  22669716.62547
  23940713.484 5   1157770.582 5    785772.20746  23940713.74646
  21767968.563 7    414277.238 7    316017.23848  21767966.80148
  22932699.648 6   1364479.055 6   1025446.19547  22932699.75047
 18  5 30  0 30 45.0000000  0  9G03G14G16G22G26G27G29G31G32          0.000344116
  23911646.109 6    395821.082 6    297141.25446  23911646.00446
  20844124.117 6    768818.426 6    590303.92648  20844122.40248
  20722632.000 6    -16463.297 6    -12138.17648  20722628.58648
  23857275.328 5    636898.402 5    475783.26246  23857272.12146
  20837831.977 7    593170.426 7    456224.88348  20837833.44148
  22667043.188 5  -1119793.125 5   -852208.89147  22667044.13747
  23943917.859 5   1174608.969 5    798893.03546  23943917.75846
  21769196.273 7    420729.102 7    321044.65648  21769194.30148
  22936416.023 6   1384007.703 6   1040663.29747  22936415.57847
 18  5 30  0 30 50.0000000  0  9G03G14G16G22G26G27G29G31G32          0.000346395
  23912869.273 6    402249.480 6    302150.39147  23912869.46147
  20846302.430 6    780267.281 6    599225.10548  20846300.48048
  20722811.352 6    -15520.941 6    -11403.87148  20722807.46548
  23859127.375 5    646628.098 5    483364.83246  23859123.02746
  20839519.328 7    602036.844 7    463133.78148  20839520.73848
  22664373.688 5  -1133821.027 5   -863139.73047  22664374.75447
  23947127.219 5   1191470.461 5    812031.86746  23947126.26246
  21770426.977 7    427196.715 7    326084.35548  21770425.15248
  22940135.922 6   1403556.605 6   1055896.20347  22940135.91447
 18  5 30  0 30 55.0000000  0  9G03G14G16G22G26G27G29G31G32          0.000348682
  23914096.797 6    408699.098 6    307176.07046  23914096.84046
  20848485.594 6    791740.063 6    608164.93048  20848483.90248
  20722994.766 6    -14556.898 6    -10652.67248  20722991.09848
  23860981.523 5    656374.488 5    490959.39846  23860977.60546
  20841209.789 7    610920.387 7    470056.02048  20841211.34848
  22661706.766 5  -1147833.781 5   -874058.75047  22661707.84047
  23950339.344 5   1208352.234 5    825186.49646  23950338.99246
  21771660.547 7    433677.383 7    331134.22748  21771658.64148
  22943859.539 6   1423122.988 6   1071142.71547  22943859.64547
 18  5 30  0 31  0.0000000  0  9G03G14G16G22G26G27G29G31G32          0.000350973
  23915327.391 5    415167.707 5    312216.53146  23915327.59446
  20850672.672 6    803234.531 6    617121.65248  20850671.11748
  20723181.953 6    -13573.387 6     -9886.29748  20723178.41848
  23862839.531 5    666135.367 5    498565.27746  23862834.31346
  20842902.977 7    619818.844 7    476989.87948  20842904.99648
  22659043.211 5  -1161833.559 5   -884967.68047  22659044.10947
  23953555.461 5   1225252.137 5    838355.24246  23953554.69546
  21772895.836 7    440168.863 7    336192.51648  21772893.65648
  22947585.641 6   1442704.641 6   1086401.13347  22947585.64547
 18  5 30  0 31  5.0000000  0  9G03G14G16G22G26G27G29G31G32          0.000353268
  23916561.406 5    421653.383 5    317270.32846  23916561.74646
  20852864.055 6    814748.824 6    626093.82448  20852862.27348
  20723372.344 6    -12572.254 6     -9106.20748  20723369.00048
  23864699.117 6    675908.902 6    506180.99247  23864694.40247
  20844599.047 7    628730.344 7    483933.89848  20844600.15248
  22656381.547 5  -1175822.262 5   -895867.97347  22656382.46547
  23956774.891 5   1242168.238 5    851536.61346  23956773.89146
  21774132.547 7    446669.316 7    341257.80548  21774130.44548
  22951313.836 6   1462299.727 6   1101670.02047  22951314.79347
 18  5 30  0 31 10.0000000  0  9G03G14G16G22G26G27G29G31G32          0.000355566
  23917798.375 5    428154.305 5    322335.96146  23917798.70346
  20855058.641 6    826281.055 6    635079.96948  20855056.85948
  20723565.414 6    -11555.414 6     -8313.87148  20723562.61748
  23866561.523 6    685693.164 6    513805.10247  23866556.53147
  20846297.016 7    637653.000 7    490886.61748  20846298.61348
  22653721.938 5  -1189801.695 5   -906761.05147  22653722.33647
  23959996.344 6   1259098.699 6    864729.16047  23959995.61747
  21775371.273 7    453176.859 7    346328.60248  21775368.43848
  22955045.195 6   1481906.293 6   1116947.85247  22955045.81647
 18  5 30  0 31 15.0000000  0  9G03G14G16G22G26G27G29G31G32          0.000357864
  23919038.391 6    434668.938 6    327412.29746  23919038.22346
  20857256.180 6    837829.785 6    644078.98048  20857254.72748
  20723762.164 6    -10524.301 6     -7510.40648  20723759.02348
  23868425.930 6    695486.688 6    521436.39547  23868420.03947
  20847997.055 7    646585.336 7    497846.87548  20847998.32448
  22651062.984 5  -1203773.316 5   -917648.02747  22651063.19547
  23963220.578 6   1276042.023 6    877931.74246  23963220.49646
  21776610.703 7    459690.023 7    351403.79348  21776607.98448
  22958778.031 6   1501522.926 6   1132233.51247  22958779.12147
 18  5 30  0 31 20.0000000  0  9G03G14G16G22G26G27G29G31G32          0.000360165
  23920279.867 5    441196.520 5    332498.71546  23920280.80146
  20859457.180 6    849394.156 6    653090.16448  20859455.45748
  20723961.070 6     -9479.770 6     -6696.49248  20723957.56648
  23870291.039 6    705288.633 6    529074.26647  23870285.85947
  20849698.055 7    655526.535 7    504814.03548  20849699.61748
  22648406.344 5  -1217738.016 5   -928529.62547  22648406.06347
  23966446.883 6   1292997.395 6    891143.72746  23966446.80546
  21777851.156 7    466208.055 7    356482.78148  21777848.25448
  22962512.883 6   1521148.750 6   1147526.35947  22962514.19147
 18  5 30  0 31 25.0000000  0  9G03G14G16G22G26G27G29G31G32          0.000362463
  23921524.547 5    447735.785 5    337594.26246  23921524.93846
  20861660.008 6    860972.906 6    662112.56348  20861658.07448
  20724162.414 6     -8423.090 6     -5873.11348  20724158.78148
  23872157.188 6    715097.699 6    536717.67647  23872152.19147
  20851401.633 7    664475.293 7    511787.09448  20851402.24648
  22645749.484 6  -1231696.941 6   -939406.72747  22645749.18047
  23969675.484 6   1309963.465 6    904363.97346  23969675.18446
  21779091.906 7    472729.582 7    361564.48048  21779089.29748
  22966249.547 5   1540782.488 5   1162825.37146  22966250.26246
 18  5 30  0 31 30.0000000  0  9G03G14G16G22G26G27G29G31G32          0.000364763
  23922771.320 5    454286.011 5    342698.34846  23922771.47346
  20863866.234 6    872565.398 6    671145.66848  20863864.14548
  20724365.445 6     -7354.926 6     -5040.77748  20724362.19548
  23874025.156 5    724913.293 5    544366.18447  23874019.65647
  20853105.023 7    673431.000 7    518765.56348  20853106.52748
  22643094.203 6  -1245650.770 6   -950279.84047  22643094.34447
  23972905.531 6   1326939.680 6    917592.23446  23972905.17246
  21780333.898 7    479254.043 7    366648.47748  21780331.03548
  22969987.664 6   1560423.527 6   1178130.09046  22969987.69546
 18  5 30  0 31 35.0000000  0  9G03G14G16G22G26G27G29G31G32          0.000367064
  23924019.750 5    460846.508 5    347810.40646  23924020.41846
  20866074.367 6    884170.984 6    680188.98048  20866072.88348
  20724570.383 6     -6275.867 6     -4199.94948  20724567.78548
  23875894.047 6    734734.742 6    552019.24647  23875888.70747
  20854810.594 6    682392.980 6    525748.90648  20854811.79748
  22640440.547 5  -1259600.109 5   -961149.43447  22640439.85547
  23976138.227 6   1343925.371 6    930827.82046  23976137.64546
  21781575.789 7    485780.793 7    371734.22748  21781572.87148
  22973725.383 6   1580071.211 6   1193439.90247  22973727.03947
 18  5 30  0 31 40.0000000  0  9G03G14G16G22G26G27G29G31G32          0.000369362
  23925270.469 6    467416.965 6    352930.22746  23925270.43446
  20868285.008 6    895789.215 6    689242.14548  20868283.87548
  20724777.828 6     -5186.379 6     -3350.99648  20724774.85248
  23877763.633 5    744561.602 5    559676.53547  23877759.39547
  20856517.523 7    691360.805 7    532736.81648  20856518.61348
  22637785.867 5  -1273545.406 5   -972015.89147  22637786.23847
  23979372.023 6   1360920.066 6    944070.45346  23979371.79346
  21782817.797 7    492309.406 7    376821.46948  21782815.37548
  22977465.461 6   1599725.066 6   1208754.59447  22977467.66447
 18  5 30  0 31 45.0000000  0  9G03G14G16G22G26G27G29G31G32          0.000371658
  23926521.961 5    473996.422 5    358057.09446  23926522.92246
  20870498.313 6    907419.234 6    698304.49248  20870496.82448
  20724986.789 6     -4087.375 6     -2494.62548  20724984.43048
  23879634.656 5    754392.938 5    567337.30947  23879630.10547
  20858224.656 7    700333.559 7    539728.57448  20858226.10548
  22635132.625 6  -1287487.535 6   -982879.87547  22635133.18847
  23982607.875 5   1377922.906 5    957319.42246  23982607.74646
  21784059.922 6    498838.953 6    381909.41848  21784057.96948
  22981206.602 6   1619384.215 6   1224073.40647  22981208.85247
 18  5 30  0 31 50.0000000  0  9G03G14G16G22G26G27G29G31G32          0.000373955
  23927776.555 5    480584.531 5    363190.67246  23927776.32446
  20872713.641 6    919060.637 6    707375.70748  20872712.34048
  20725197.719 6     -2979.215 6     -1631.14148  20725194.81648
  23881506.164 5    764228.371 5    575001.32446  23881501.83646
  20859933.273 7    709310.895 7    546723.89548  20859934.04748
  22632479.594 6  -1301426.805 6   -993741.62947  22632480.63347
  23985844.953 5   1394933.473 5    970574.39846  23985844.39846
  21785302.922 6    505369.133 6    386997.87148  21785300.78948
  22984948.633 6   1639048.254 6   1239396.00847  22984951.56647
 18  5 30  0 31 55.0000000  0  9G03G14G16G22G26G27G29G31G32          0.000376247
  23929031.820 6    487180.969 6    368330.73847  23929031.81347
  20874930.695 6    930713.094 6    716455.54748  20874929.74248
  20725410.180 6     -1862.223 6      -760.75448  20725408.22748
  23883379.070 5    774067.652 5    582668.26647  23883373.77047
  20861641.969 7    718292.461 7    553722.52048  20861643.18848
  22629827.172 6  -1315363.547 6  -1004601.41447  22629827.85947
  23989082.828 5   1411951.422 5    983835.12946  23989082.99646
  21786545.641 6    511899.625 6    392086.55147  21786543.41847
  22988691.117 6   1658716.898 6   1254722.23447  22988694.29347
 18  5 30  0 32  0.0000000  0  9G03G14G16G22G26G27G29G31G32          0.000378540
  23930288.266 5    493785.180 5    373476.86346  23930288.53146
  20877150.531 6    942376.156 6    725543.64148  20877148.88348
  20725624.703 6      -736.914 6       116.10948  20725622.12148
  23885252.063 5    783910.172 5    590337.75446  23885247.10246
  20863352.180 7    727277.777 7    560724.06348  20863353.31648
  22627175.430 5  -1329298.199 5  -1015459.58247  22627176.61347
  23992322.344 5   1428976.188 5    997101.17646  23992323.26246
  21787787.930 7    518429.840 7    397175.03948  21787786.36748
  22992435.031 6   1678389.617 6   1270051.60247  22992438.18047
 18  5 30  0 32  5.0000000  0  9G03G14G16G22G26G27G29G31G32          0.000380829
  23931546.680 6    500397.184 6    378629.07046  23931547.60946
  20879372.117 6    954049.836 6    734640.00048  20879370.73848
  20725840.320 6       396.781 6       999.52048  20725837.92248
  23887125.695 6    793756.090 6    598009.83647  23887120.39147
  20865062.758 7    736266.859 7    567728.53948  20865064.03948
  22624524.844 5  -1343230.746 5  -1026316.12147  22624525.13347
  23995563.984 6   1446007.965 6   1010372.65246  23995563.02046
  21789030.789 7    524959.953 7    402263.44948  21789028.94548
  22996178.977 6   1698066.465 6   1285384.19547  22996182.34847
 18  5 30  0 32 10.0000000  0  9G03G14G16G22G26G27G29G31G32          0.000383116
  23932806.078 6    507016.617 6    383787.06346  23932807.63346
  20881595.633 6    965733.641 6    743744.25048  20881593.91448
  20726057.758 6      1538.402 6      1889.09448  20726054.39148
  23888999.109 5    803604.855 5    605684.21147  23888994.23447
  20866773.773 7    745259.254 7    574735.59448  20866775.14148
  22621874.367 5  -1357161.594 5  -1037171.33647  22621874.85247
  23998806.352 6   1463046.203 6   1023649.21146  23998804.98446
  21790273.484 7    531489.453 7    407351.35948  21790271.43448
  22999923.797 6   1717746.926 6   1300719.60947  22999927.13347
 18  5 30  0 32 15.0000000  0  8G03G14G16G22G26G27G31G32             0.000385399
  23934067.328 5    513643.645 5    388950.97746  23934068.26646
  20883820.547 6    977427.809 6    752856.59448  20883819.56348
  20726276.297 6      2688.137 6      2784.98848  20726274.05148
  23890874.586 5    813456.652 5    613360.91447  23890868.64147
  20868485.813 6    754255.113 6    581745.35948  20868486.82448
  22619224.172 6  -1371090.664 6  -1048025.14147  22619223.62547
  21791515.719 6    538018.574 6    412438.98448  21791513.73848
  23003669.859 6   1737431.234 6   1316057.97747  23003672.77047
 18  5 30  0 32 20.0000000  0  9G03G14G16G22G26G27G29G31G32          0.000387684
  23935329.461 6    520278.168 6    394120.71146  23935331.41846
  20886048.117 6    989132.250 6    761976.93048  20886046.56348
  20726496.773 6      3845.926 6      3687.15248  20726493.98448
  23892749.063 5    823311.363 5    621039.97346  23892744.46946
  20870198.453 7    763254.418 7    588757.77748  20870199.73448
  22616572.570 5  -1385017.848 5  -1058877.48447  22616573.93447
  24005294.18815   1497146.57815                
  21792758.344 7    544547.195 7    417526.21148  21792756.42648
  23007416.289 6   1757119.223 6   1331399.31347  23007418.76247
 18  5 30  0 32 25.0000000  0  9G03G14G16G22G26G27G29G31G32          0.000389963
  23936593.563 5    526920.246 5    399296.36346  23936594.91846
  20888277.445 6   1000847.102 6    771105.37148  20888275.95748
  20726718.664 6      5011.836 6      4595.64548  20726715.83248
  23894625.125 5    833169.195 5    628721.37947  23894620.55547
  20871911.703 7    772257.246 7    595772.96148  20871912.69948
  22613922.813 5  -1398943.023 5  -1069728.27047  22613923.27747
  24008540.961 6   1514204.707 6                
  21794000.656 7    551075.520 7    422613.20748  21793998.52748
  23011164.492 6   1776811.125 6   1346743.64547  23011166.03947
 18  5 30  0 32 30.0000000  0  9G03G14G16G22G26G27G29G31G32          0.000392241
  23937858.375 5    533569.988 5    404477.98446  23937860.19146
  20890508.703 6   1012572.328 6    780241.91448  20890506.94948
  20726941.883 6      6185.934 6      5510.53148  20726939.32448
  23896502.281 6    843030.043 6    636405.16047  23896496.54747
  20873625.188 7    781263.633 7    602790.92648  20873626.55148
  22611273.703 5  -1412866.219 5  -1080577.51647  22611273.87147
  24011788.508 6   1531269.559 6   1052356.13356  24011785.43456
  21795242.797 7    557603.539 7    427699.97748  21795240.30148
  23014910.992 6   1796506.930 6   1362090.99647  23014913.98047
 18  5 30  0 32 35.0000000  0  9G03G14G16G22G26G27G29G31G32          0.000394516
  23939125.125 5    540227.344 5    409665.53546  23939126.54746
  20892742.125 6   1024308.027 6    789386.61348  20892740.44148
  20727166.914 6      7368.227 6      6431.79748  20727164.43848
  23898379.117 6    852894.090 6    644091.41847  23898373.78547
  20875339.805 7    790273.609 7    609811.67248  20875341.40248
  22608624.070 5  -1426787.352 5  -1091425.15247  22608624.80147
  24015036.945 6   1548341.172 6   1065658.68846  24015034.47746
  21796484.813 7    564131.305 7    432786.52748  21796482.69148
  23018660.141 6   1816206.652 6   1377441.41447  23018663.31647
 18  5 30  0 32 40.0000000  0  9G03G14G16G22G26G27G29G31G32          0.000396790
  23940393.750 5    546892.684 5    414859.31646  23940395.26646
  20894977.531 6   1036054.512 6    798539.71148  20894975.46148
  20727393.344 6      8559.051 6      7359.71148  20727390.60948
  23900256.758 6    862761.563 6    651780.35547  23900251.56347
  20877055.594 7    799287.484 7    616835.46948  20877056.34848
  22605976.414 5  -1440706.047 5  -1102270.88347  22605976.08247
  24018286.758 6   1565419.789 6   1078966.67646  24018284.68846
  21797727.055 7    570659.137 7    437873.14848  21797725.08648
  23022409.594 6   1835910.613 6   1392795.12547  23022411.96947
 18  5 30  0 32 45.0000000  0  9G03G14G16G22G26G27G29G31G32          0.000399061
  23941663.375 5    553565.730 5    420059.09446  23941664.29746
  20897214.680 6   1047811.547 6    807701.03148  20897212.79748
  20727622.094 6      9758.184 6      8294.09848  20727619.27348
  23902135.547 6    872632.191 6    659471.75447  23902129.92647
  20878771.469 7    808304.988 7    623862.09048  20878772.19948
  22603328.125 5  -1454622.637 5  -1113114.98447  22603327.57447
  24021538.367 6   1582505.211 6   1092279.95746  24021536.13346
  21798969.375 7    577186.789 7    442959.63348  21798967.10948
  23026160.188 6   1855618.512 6   1408151.90647  23026162.40647
 18  5 30  0 32 50.0000000  0  9G03G14G16G22G26G27G29G31G32          0.000401331
  23942933.938 5    560246.363 5    425264.79346  23942935.71146
  20899454.094 6   1059579.008 6    816870.46948  20899451.82848
  20727851.633 6     10965.496 6      9234.85948  20727849.15248
  23904013.938 6    882505.898 6    667165.55147  23904008.95747
  20880487.609 7    817326.043 7    630891.48848  20880488.85548
  22600679.969 6  -1468537.078 6  -1123957.39147  22600679.67647
  24024790.469 6   1599597.297 6   1105598.48046  24024788.13346
  21800211.023 7    583714.141 7    448045.87548  21800209.52348
  23029910.914 6   1875330.305 6   1423511.71946  23029912.77046
 18  5 30  0 32 55.0000000  0  9G03G14G16G22G26G27G29G31G32          0.000403597
  23944207.016 5    566934.723 5    430476.52746  23944207.86346
  20901695.305 6   1071356.926 6    826048.07048  20901693.46948
  20728082.758 6     12181.012 6     10182.01648  20728080.09848
  23905893.656 6    892382.727 6    674861.77747  23905888.72347
  20882205.359 7    826350.691 7    637923.67248  20882205.94548
  22598032.570 5  -1482449.359 5  -1134798.12547  22598032.21947
  24028044.508 6   1616696.109 6   1118922.21946  24028041.52046
  21801453.047 6    590241.285 6    453131.94548  21801451.32048
  23033663.172 6   1895046.023 6   1438874.59847  23033664.74647
 18  5 30  0 33  0.0000000  0  9G03G14G16G22G26G27G29G31G32          0.000405863
  23945481.008 5    573630.727 5    435694.16046  23945481.75846
  20903938.703 6   1083145.379 6    835233.87548  20903936.36348
  20728315.625 6     13404.773 6     11135.59048  20728313.41848
  23907773.648 6    902262.668 6    682560.43047  23907768.59447
  20883923.281 7    835378.938 7    644958.66848  20883923.85948
  22595385.680 6  -1496359.492 6  -1145637.19947  22595385.33247
  24031299.570 5   1633801.633 5   1132251.20746  24031296.49646
  21802695.492 6    596768.266 6    458217.89848  21802693.41848
  23037416.281 6   1914765.621 6   1454240.49647  23037417.37947
 18  5 30  0 33  5.0000000  0  9G03G14G16G22G26G27G29G31G32          0.000408125
  23946756.852 5    580334.504 5    440917.89146  23946757.34046
  20906183.508 6   1094944.430 6    844427.92648  20906182.01248
  20728550.328 6     14636.867 6     12095.66448  20728547.85948
  23909654.055 6    912145.836 6    690261.58246  23909649.46946
  20885641.953 7    844410.895 7    651996.55948  20885642.75048
  22592738.641 6  -1510267.254 6  -1156474.39847  22592738.67647
  24034555.852 5   1650913.938 5   1145585.48046  24034552.78946
  21803937.375 6    603295.219 6    463303.82848  21803935.83248
  23041169.258 6   1934489.281 6   1469609.55147  23041171.01247
 18  5 30  0 33 10.0000000  0  9G03G14G16G22G26G27G29G31G32          0.000410385
  23948033.992 5    587046.254 5    446147.84046  23948034.59846
  20908431.172 6   1106754.258 6    853630.39148  20908429.48848
  20728786.266 6     15877.500 6     13062.39548  20728784.14548
  23911535.141 6    922032.371 6    697965.35247  23911530.40247
  20887361.203 7    853446.711 7    659037.45748  20887362.19548
  22590092.078 6  -1524172.504 6  -1167309.65647  22590092.66447
  24037813.516 5   1668033.234 5   1158925.15646  24037810.28146
  21805179.172 6    609822.398 6    468389.92648  21805178.02048
  23044923.328 6   1954217.109 6   1484981.89147  23044924.81647
 18  5 30  0 33 15.0000000  0  9G03G14G16G22G26G27G29G31G32          0.000412645
  23949312.953 5    593765.898 5    451383.90246  23949313.53146
  20910680.594 6   1118574.832 6    862841.22348  20910678.67248
  20729023.641 6     17126.656 6     14035.76648  20729021.64848
  23913417.758 5    931922.293 5    705671.78546  23913413.02046
  20889081.484 7    862486.371 7    666081.33248  20889082.17648
  22587446.477 6  -1538075.262 6  -1178142.95347  22587447.27047
  24041072.492 5   1685159.527 5   1172270.28946  24041069.53946
  21806421.391 7    616349.633 7    473476.08648  21806420.16848
  23048678.133 6   1973949.086 6   1500357.42647  23048680.55947
 18  5 30  0 33 20.0000000  0 10G03G14G16G22G23G26G27G29G31G32       0.000414904
  23950594.016 5    600493.688 5    456626.31346  23950593.75446
  20912932.203 6   1130406.367 6    872060.59448  20912929.89148
  20729263.406 6     18384.484 6     15015.89848  20729260.60248
  23915300.750 6    941815.789 6    713381.00446  23915295.46946
  24274102.89812    -78384.92212                
  20890802.906 7    871530.137 7    673128.41848  20890803.19948
  22584800.398 5  -1551975.270 5  -1188974.11347  22584802.78947
  24044333.508 5   1702293.035 5   1185621.07046  24044330.28146
  21807663.773 6    622877.199 6    478562.50048  21807662.23448
  23052433.305 5   1993685.469 5   1515736.41047  23052436.18447
 18  5 30  0 33 25.0000000  0 10G03G14G16G22G23G26G27G29G31G32       0.000417158
  23951875.570 5    607229.781 5    461875.20346  23951876.23046
  20915185.203 6   1142249.004 6    881288.61748  20915183.32448
  20729503.883 6     19651.223 6     16002.95748  20729502.00448
  23917182.164 6    951713.012 6    721093.12946  23917178.94546
  24271596.766 2    -91550.301 2                
  20892524.313 7    880578.074 7    680178.75448  20892524.82448
  22582156.188 5  -1565872.297 5  -1199802.96547  22582157.49647
  24047595.289 5   1719433.855 5   1198977.53546  24047591.97346
  21808905.891 6    629405.242 6    483649.27748  21808904.57048
  23056190.727 6   2013426.371 6   1531118.91447  23056193.31647
 18  5 30  0 33 30.0000000  0 10G03G14G16G22G23G26G27G29G31G32       0.000419413
  23953158.594 5    613974.016 5    467130.44946  23953159.08646
  20917441.031 6   1154102.680 6    890525.24648  20917439.39548
  20729747.367 6     20926.715 6     16996.84448  20729744.48848
  23919066.492 5    961613.871 5    728808.09846  23919063.12546
  24269091.469 2   -104714.559 2                
  20894247.164 7    889630.148 7    687232.31348  20894247.70748
  22579512.586 5  -1579766.531 5  -1210629.63747  22579513.69947
  24050858.242 6   1736581.938 6   1212339.65646  24050855.89546
  21810147.711 6    635933.660 6    488736.34848  21810146.68448
  23059947.719 5   2033171.645 5   1546504.83247  23059951.14147
 18  5 30  0 33 35.0000000  0 10G03G14G16G22G23G26G27G29G31G32       0.000421663
  23954443.820 5    620726.777 5    472392.32446  23954444.25446
  20919699.039 6   1165967.727 6    899770.72748  20919696.94548
  20729991.492 6     22211.313 6     17997.82048  20729988.95348
  23920951.188 6    971518.625 6    736526.08247  23920948.48047
  24266585.648 2   -117877.402 2                
  20895970.344 7    898686.598 7    694289.28148  20895970.73448
  22576869.055 5  -1593657.590 5  -1221453.82047  22576870.57447
  24054122.688 5   1753737.574 5   1225707.68846  24054120.86346
  21811390.445 6    642462.695 6    493823.90648  21811389.02048
  23063705.711 6   2052921.699 6   1561894.48447  23063709.44147
 18  5 30  0 33 40.0000000  0 10G03G14G16G22G23G26G27G29G31G32       0.000423914
  23955730.352 5    627487.992 5    477660.77746  23955731.22746
  20921958.914 6   1177844.105 6    909025.05548  20921956.92648
  20730237.484 6     23505.043 6     19005.92248  20730235.04348
  23922837.313 5    981427.320 5    744247.14847  23922833.59447
  24264080.773 2   -131038.754 2                
  20897694.508 7    907747.512 7    701349.73048  20897695.32848
  22574226.531 5  -1607545.441 5  -1232275.52047  22574227.92647
  24057388.281 6   1770900.719 6   1239081.54346  24057386.69146
  21812632.898 6    648992.504 6    498912.07048  21812631.58648
  23067465.469 6   2072676.457 6   1577287.77747  23067469.03947
 18  5 30  0 33 45.0000000  0 10G03G14G16G22G23G26G27G29G31G32       0.000426163
  23957018.055 5    634257.762 5    482935.93846  23957019.20346
  20924221.219 6   1189731.914 6    918288.27748  20924219.27748
  20730485.664 6     24807.895 6     20021.13748  20730483.11348
  23924724.453 6    991340.000 6    751971.31346  23924719.55946
  24261577.367 3   -144198.625 3                
  20899419.602 7    916812.871 7    708413.64848  20899420.46948
  22571584.469 5  -1621429.973 5  -1243094.63747  22571586.02347
  24060655.578 5   1788071.445 5   1252461.31646  24060654.16046
  21813875.531 6    655523.137 6    504000.85948  21813874.70348
  23071225.172 5   2092435.992 5   1592684.81647  23071230.04347
 18  5 30  0 33 50.0000000  0 10G03G14G16G22G23G26G27G29G31G32       0.000428410
  23958308.219 5    641036.125 5    488217.77746  23958309.14846
  20926485.797 6   1201631.172 6    927560.42248  20926483.50048
  20730734.727 6     26119.934 6     21043.50448  20730732.67248
  23926610.992 6   1001256.691 6    759698.59047  23926606.51647
  24259073.781 3   -157356.773 3                
  20901145.656 7    925882.773 7    715481.09848  20901146.29748
  22568942.961 5  -1635311.184 5  -1253911.17247  22568944.48847
  24063924.508 5   1805249.875 5   1265847.14546  24063923.29746
  21815118.641 6    662054.707 6    509090.39548  21815116.72348
  23074986.461 5   2112200.371 5   1608085.61747  23074989.98047
 18  5 30  0 33 55.0000000  0 10G03G14G16G22G23G26G27G29G31G32       0.000430655
  23959599.602 5    647823.410 5    493506.54346  23959600.87946
  20928752.219 6   1213542.219 6    936841.75048  20928750.32448
  20730986.586 6     27441.500 6     22073.29348  20730983.75848
  23928498.664 6   1011177.734 6    767429.27747  23928494.39547
  24256569.039 3   -170513.113 3                
  20902872.523 7    934957.520 7    722552.33248  20902873.29348
  22566303.531 5  -1649188.656 5  -1264724.78547  22566303.68847
  24067195.516 6   1822436.199 6   1279239.09446  24067192.83246
  21816361.945 6    668587.492 6    514180.86748  21816360.12948
  23078748.563 5   2131969.902 5   1623490.43047  23078752.85547
 18  5 30  0 34  0.0000000  0 10G03G14G16G22G23G26G27G29G31G32       0.000432899
  23960893.258 5    654619.668 5    498802.32446  23960894.13746
  20931020.617 6   1225465.074 6    946132.27348  20931019.26248
  20731239.836 6     28772.648 6     23110.55948  20731237.26248
  23930387.617 6   1021103.113 6    775163.33247  23930382.81347
  24254066.031 3   -183667.340 3                
  20904600.406 7    944037.121 7    729627.34448  20904600.90648
  22563662.055 5  -1663062.500 5  -1275535.56347  22563663.37547
  24070467.180 5   1839630.516 5   1292637.20746  24070464.61746
  21817605.273 6    675121.465 6    519272.26648  21817603.43848
  23082512.164 6   2151744.613 6   1638899.29347  23082515.11747
 18  5 30  0 34  5.0000000  0 10G03G14G16G22G23G26G27G29G31G32       0.000435143
  23962187.641 5    661425.137 5    504105.27046  23962189.73046
  20933292.227 6   1237400.125 6    955432.30948  20933290.51248
  20731494.711 6     30113.676 6     24155.50848  20731492.64148
  23932276.883 6   1031033.227 6    782901.07847  23932272.28947
  24251562.789 3   -196819.207 3                
  20906328.727 7    953121.918 7    736706.39848  20906329.83248
  22561024.227 5  -1676932.160 5  -1286343.10547  22561024.48847
  24073741.094 5   1856833.117 5   1306041.85246  24073738.99646
  21818849.242 6    681657.078 6    524364.95348  21818847.23448
  23086275.625 5   2171524.781 5   1654312.39147  23086278.66847
 18  5 30  0 34 10.0000000  0 10G03G14G16G22G23G26G27G29G31G32       0.000437384
  23963484.078 4    668239.613 4    509415.25446  23963486.48046
  20935565.461 6   1249347.016 6    964741.57448  20935563.71548
  20731752.164 6     31464.316 6     25207.95348  20731749.94148
  23934167.531 6   1040967.746 6    790642.24247  23934162.88347
  24249060.859 3   -209969.000 3                
  20908058.430 7    962211.641 7    743789.30148  20908059.92248
  22558384.344 5  -1690797.996 5  -1297147.65247  22558385.85247
  24077015.773 6   1874043.691 6   1319452.66446  24077013.47746
  21820093.289 6    688194.008 6    529458.65248  21820090.82048
  23090041.359 5   2191310.129 5   1669729.53947  23090043.62947
 18  5 30  0 34 15.0000000  0 10G03G14G16G22G23G26G27G29G31G32       0.000439625
  23964782.406 5    675063.184 5    514732.30946  23964784.96146
  20937841.383 6   1261305.914 6    974060.19548  20937839.37148
  20732011.211 6     32824.703 6     26267.99248  20732008.65648
  23936058.633 6   1050906.793 6    798386.93446  23936053.69546
  24246559.172 3   -223116.555 3                
  20909789.234 7    971306.367 7    750876.09448  20909790.26648
  22555746.922 5  -1704659.859 5  -1307949.10947  22555748.22347
  24080292.492 5   1891262.418 5   1332869.83646  24080289.96546
  21821337.289 6    694732.391 6    534553.49248  21821335.20748
  23093806.680 6   2211100.848 6   1685150.86747  23093809.37947
 18  5 30  0 34 20.0000000  0 10G03G14G16G22G23G26G27G29G31G32       0.000441864
  23966083.141 4    681896.039 4    520056.60546  23966085.01646
  20940118.852 6   1273276.918 6    983388.24648  20940117.34448
  20732272.094 6     34194.922 6     27335.69148  20732269.41048
  23937950.438 5   1060850.465 5    806135.23446  23937945.86346
  24244057.258 4   -236261.727 4                
  20911521.203 7    980406.281 7    757966.93848  20911522.38348
  22553109.875 6  -1718517.633 6  -1318747.36747  22553111.05547
  24083570.680 5   1908489.402 5   1346293.45346  24083568.52046
  21822581.773 6    701272.371 6    539649.58648  21822579.65648
  23097573.305 6   2230897.016 6   1700576.41447  23097576.05147
 18  5 30  0 34 25.0000000  0 10G03G14G16G22G23G26G27G29G31G32       0.000444103
  23967385.594 4    688738.027 4    525388.00446  23967386.80546
  20942399.414 6   1285259.988 6    992725.70748  20942397.73048
  20732534.672 6     35574.938 6     28411.02048  20732531.77048
  23939843.523 6   1070798.703 6    813887.11346  23939839.11346
  24241556.469 3   -249404.586 3                
  20913253.383 7    989511.258 7    765061.71948  20913254.98848
  22550473.852 6  -1732371.273 6  -1329542.41047  22550474.57447
  24086850.273 5   1925724.555 5   1359723.44146  24086848.21546
  21823826.469 7    707813.875 7    544746.85548  21823824.64148
  23101342.195 5   2250698.563 5   1716006.17246  23101343.37946
 18  5 30  0 34 30.0000000  0 10G03G14G16G22G23G26G27G29G31G32       0.000446341
  23968690.188 4    695589.867 4    530727.11746  23968690.98046
  20944681.922 6   1297255.762 6   1002073.05548  20944680.06348
  20732799.313 6     36965.422 6     29494.52048  20732796.68848
  23941738.352 5   1080752.172 5    821643.07046  23941733.22746
  24239055.094 3   -262544.430 3                
  20914987.281 7    998622.020 7    772161.01248  20914988.48448
  22547837.867 6  -1746220.191 6  -1340333.77047  22547839.31347
  24090131.648 5   1942968.543 5   1373160.32046  24090129.41046
  21825071.664 6    714357.633 6    549845.88348  21825069.78148
  23105111.016 6   2270506.129 6   1731440.61746  23105112.10546
 18  5 30  0 34 35.0000000  0 10G03G14G16G22G23G26G27G29G31G32       0.000448580
  23969995.180 3    702452.316 3    536074.44546  23969996.68446
  20946967.453 6   1309265.094 6   1011430.98048  20946965.51648
  20733065.883 6     38367.152 6     30586.77348  20733063.33248
  23943633.273 5   1090711.645 5    829403.67246  23943628.95746
  24236556.430 4   -275680.410 4                
  20916722.086 7   1007739.316 7    779265.39548  20916723.42648
  22545203.625 5  -1760063.461 5  -1351120.73447  22545205.65647
  24093414.828 5   1960222.199 5   1386604.70746  24093412.30946
  21826317.797 6    720904.344 6    554947.21148  21826315.79748
  23108882.203 6   2290320.609 6   1746880.43447  23108882.77347
 18  5 30  0 34 40.0000000  0 10G03G14G16G22G23G26G27G29G31G32       0.000450817
  23971303.234 3    709324.961 3    541429.76646  23971304.59046
  20949255.391 6   1321287.504 6   1020799.08648  20949253.29748
  20733335.156 6     39779.727 6     31687.47748  20733332.63348
  23945530.164 5   1100676.766 5    837168.69546  23945525.14546
  24234057.461 3   -288812.992 3                
  20918458.180 7   1016862.758 7    786374.56648  20918459.28148
  22542570.133 6  -1773901.527 6  -1361903.63747  22542572.00447
  24096699.234 5   1977485.043 5   1400056.25446  24096697.68446
  21827563.945 6    727453.707 6    560050.60948  21827561.68048
  23112654.297 6   2310141.484 6   1762325.24647  23112654.72747
 18  5 30  0 34 45.0000000  0 10G03G14G16G22G23G26G27G29G31G32       0.000453053
  23972613.250 3    716207.879 3    546793.06346  23972614.60246
  20951545.805 6   1333323.109 6   1030177.47348  20951543.54748
  20733606.648 6     41203.195 6     32796.67648  20733602.93848
  23947427.219 5   1110647.480 5    844938.06647  23947422.81347
  24231559.969 3   -301942.051 3                
  20920195.531 7   1025992.383 7    793488.55948  20920197.09848
  22539937.781 6  -1787734.383 6  -1372682.47347  22539939.84047
  24099987.094 5   1994757.148 5   1413515.03946  24099984.73046
  21828810.930 6    734005.734 6    565156.06648  21828808.88348
  23116427.367 6   2329968.820 6   1777775.09047  23116428.12547
 18  5 30  0 34 50.0000000  0 10G03G14G16G22G23G26G27G29G31G32       0.000455290
  23973925.281 4    723101.305 4    552164.57046  23973926.40646
  20953838.766 6   1345372.199 6   1039566.36348  20953836.42248
  20733879.148 6     42637.855 6     33914.58248  20733875.98048
  23949325.773 6   1120624.164 6    852712.12147  23949321.64847
  24229061.375 4   -315067.223 4                
  20921934.258 7   1035128.465 7    800607.58248  20921935.49248
  22537306.656 5  -1801561.648 5  -1383456.98047  22537308.29347
  24103274.898 5   2012038.820 5   1426981.24646  24103273.55946
  21830058.203 6    740560.773 6    570263.89148  21830056.35248
  23120201.273 5   2349802.895 5   1793230.19547  23120202.19147
 18  5 30  0 34 55.0000000  0 10G03G14G16G22G23G26G27G29G31G32       0.000457527
  23975239.000 4    730005.293 4    557544.29346  23975239.80546
  20956134.383 6   1357434.723 6   1048965.73048  20956131.92248
  20734154.234 6     44083.691 6     35041.20748  20734151.15648
  23951225.477 5   1130606.793 5    860490.78947  23951221.56647
  24226564.953 4   -328188.602 4                
  20923673.961 7   1044271.000 7    807731.63748  20923674.73848
  22534675.750 6  -1815383.309 6  -1394227.08647  22534677.97347
  24106565.172 5   2029330.051 5   1440454.89846  24106564.16046
  21831305.938 6    747118.781 6    575374.02348  21831304.29348
  23123977.438 5   2369643.711 5   1808690.53947  23123977.71947
 18  5 30  0 35  0.0000000  0 10G03G14G16G22G23G26G27G29G31G32       0.000459763
  23976554.531 4    736919.508 4    562931.98846  23976556.27746
  20958431.844 6   1369510.402 6   1058375.35248  20958429.42248
  20734430.977 6     45540.414 6     36176.31648  20734428.09848
  23953125.602 5   1140595.039 5    868273.85547  23953122.55947
  24224069.055 4   -341306.461 4                
  20925414.789 7   1053419.699 7    814860.49648  20925415.77348
  22532046.672 6  -1829199.676 6  -1404993.09047  22532048.89147
  24109857.133 5   2046630.480 5   1453935.73446  24109856.10546
  21832555.164 6    753679.480 6    580486.25848  21832552.75448
  23127753.844 5   2389490.965 5   1824155.90647  23127755.35547
 18  5 30  0 35  5.0000000  0 10G03G14G16G22G23G26G27G29G31G32       0.000461998
  23977872.805 5    743843.711 5    568327.45346  23977873.96146
  20960732.563 6   1381598.965 6   1067795.00048  20960730.15248
  20734710.531 6     47007.750 6     37319.68448  20734707.43448
  23955027.703 5   1150588.586 5    876061.03947  23955024.25047
  24221573.305 4   -354421.012 4                
  20927157.164 7   1062574.293 7    821993.94148  20927158.07848
  22529418.586 5  -1843010.965 5  -1415755.12147  22529420.50847
  24113151.242 5   2063939.895 5   1467423.57046  24113150.41046
  21833803.648 6    760242.645 6    585600.40248  21833801.43448
  23131532.984 6   2409344.383 6   1839626.05947  23131534.18847
 18  5 30  0 35 10.0000000  0 10G03G14G16G22G23G26G27G29G31G32       0.000464233
  23979192.031 5    750777.613 5    573730.50046  23979192.77046
  20963035.055 6   1393700.195 6   1077224.52748  20963032.78148
  20734991.586 6     48485.504 6     38471.18448  20734988.47348
  23956929.211 5   1160587.266 5    883852.22346  23956927.00046
  24219078.188 4   -367532.469 4                
  20928899.805 7   1071734.543 7    829131.79748  20928901.74648
  22526791.500 5  -1856817.410 5  -1426513.39547  22526793.72747
  24116446.727 4   2081258.055 4   1480918.25046  24116446.16446
  21835053.234 6    766808.051 6    590716.29748  21835050.85948
  23135311.898 5   2429203.719 5   1855100.86346  23135312.68446
 18  5 30  0 35 15.0000000  0 10G03G14G16G22G23G26G27G29G31G32       0.000466467
  23980513.508 5    757721.719 5    579141.47346  23980514.50446
  20965340.633 6   1405814.484 6   1086664.22748  20965338.30148
  20735274.492 6     49974.082 6     39631.12148  20735272.44148
  23958833.664 5   1170591.539 5    891647.76647  23958831.15247
  24216583.164 4   -380640.398 4                
  20930644.508 7   1080900.883 7    836274.39848  20930645.98848
  22524165.680 5  -1870618.547 5  -1437267.52347  22524167.73047
  24119744.438 4   2098585.340 4   1494420.02045  24119743.59445
  21836303.203 6    773376.102 6    595834.26248  21836300.95348
  23139091.195 5   2449069.426 5   1870580.62146  23139093.37546
 18  5 30  0 35 20.0000000  0 10G03G14G16G22G23G26G27G29G31G32       0.000468700
  23981836.570 5    764675.980 5    584560.37546  23981837.37946
  20967648.188 6   1417941.910 6   1096114.16048  20967645.55148
  20735559.758 6     51473.496 6     40799.49648  20735557.44948
  23960738.656 5   1180601.410 5    899447.64547  23960735.67647
  24214090.250 4   -393744.719 4                
  20932389.898 7   1090073.336 7    843421.75848  20932391.16048
  22521540.578 5  -1884414.273 5  -1448017.44947  22521542.34447
  24123042.680 4   2115921.902 4   1507929.01646  24123042.28546
  21837553.227 6    779946.848 6    600954.31648  21837550.85548
  23142871.992 5   2468941.508 5   1886065.36346  23142875.17246
 18  5 30  0 35 25.0000000  0 10G03G14G16G22G23G26G27G29G31G32       0.000470934
  23983162.422 5    771640.898 5    589987.58646  23983162.53946
  20969958.250 6   1430082.895 6   1105574.66048  20969956.24648
  20735847.297 6     52984.234 6     41976.68848  20735845.09448
  23962645.063 5   1190617.340 5    907252.25847  23962641.53947
  24211596.820 4   -406844.988 4                
  20934136.469 7   1099252.375 7    850574.25448  20934137.96148
  22518916.805 5  -1898204.176 5  -1458762.82047  22518918.12147
  24126344.508 4   2133268.027 4   1521445.49246  24126343.10246
  21838804.242 7    786520.754 7    606076.83648  21838802.26248
  23146655.766 4   2488820.434 4   1901555.42646  23146658.26246
 18  5 30  0 35 30.0000000  0 10G03G14G16G22G23G26G27G29G31G32       0.000473169
  23984489.242 5    778616.715 5    595423.30546  23984489.56346
  20972271.023 6   1442237.738 6   1115045.96948  20972269.14848
  20736136.805 6     54506.551 6     43162.91048  20736133.98448
  23964552.805 5   1200639.516 5    915061.73446  23964548.88746
  24209104.508 4   -419940.922 4                
  20935884.414 7   1108438.258 7    857732.08248  20935886.08648
  22516294.031 5  -1911987.961 5  -1469503.44947  22516295.06347
  24129646.180 4   2150624.109 4   1534969.69146  24129646.17646
  21840055.883 7    793098.082 7    611202.03148  21840053.74648
  23150439.070 4   2508706.441 4   1917051.03146  23150442.96546
 18  5 30  0 35 35.0000000  0 10G03G14G16G22G23G26G27G29G31G32       0.000475403
  23985819.016 4    785603.430 4    600867.48846  23985819.38746
  20974587.375 7   1454406.465 7   1124528.08248  20974584.90648
  20736428.891 6     56040.414 6     44358.13348  20736426.10548
  23966460.570 5   1210667.922 5    922876.04346  23966456.49646
  24206613.781 4   -433032.500 4                
  20937633.969 7   1117630.945 7    864895.21548  20937635.41448
  22513672.414 5  -1925765.590 5  -1480239.25447  22513673.00847
  24132951.758 4   2167990.129 4   1548501.64546  24132951.33246
  21841307.961 7    799678.898 7    616329.94548  21841305.97748
  23154223.914 4   2528599.563 4   1932552.14146  23154228.37146
 18  5 30  0 35 40.0000000  0 10G03G14G16G22G23G26G27G29G31G32       0.000477636
  23987150.375 5    792600.902 5    606320.06646  23987150.98046
  20976905.125 6   1466588.883 6   1134020.87148  20976903.39848
  20736722.711 6     57585.738 6     45562.28148  20736720.19148
  23968369.406 5   1220702.496 5    930695.18846  23968366.09446
  24204122.297 3   -446119.883 3                
  20939384.461 7   1126830.316 7    872063.54348  20939386.08248
  22511051.617 5  -1939537.203 5  -1490970.37947  22511052.37547
  24136257.953 4   2185365.762 4   1562041.09046  24136257.66846
  21842561.406 7    806263.008 7    621460.40648  21842559.43848
  23158011.336 5   2548499.602 5   1948058.67646  23158015.32046
 18  5 30  0 35 45.0000000  0 10G03G14G16G22G23G26G27G29G31G32       0.000479870
  23988483.961 4    799609.012 4    611780.93046  23988484.03946
  20979225.953 6   1478784.859 6   1143524.22748  20979224.43848
  20737018.914 6     59142.340 6     46775.21948  20737016.54348
  23970280.773 5   1230742.977 5    938518.93846  23970276.85246
  24201632.883 3   -459203.152 3                
  20941136.180 7   1136036.191 7    879236.95348  20941137.79348
  22508432.008 5  -1953302.953 5  -1501696.93447  22508433.13747
  24139566.633 4   2202751.035 4   1575588.07846  24139565.90646
  21843814.344 7    812850.320 7    626593.38748  21843812.41048
  23161800.227 5   2568406.445 5   1963570.48046  23161803.21946
 18  5 30  0 35 50.0000000  0 10G03G14G16G22G23G26G27G29G31G32       0.000482103
  23989819.750 4    806627.773 4    617250.08646  23989819.38746
  20981549.445 6   1490994.531 6   1153038.25848  20981547.79748
  20737317.484 6     60710.336 6     47997.03148  20737315.23448
  23972191.453 5   1240789.441 5    946347.34847  23972188.50447
  24199144.563 4   -472282.219 4                
  20942889.336 7   1145248.707 7    886415.52748  20942890.81348
  22505813.898 5  -1967062.680 5  -1512418.80147  22505814.80947
  24142875.930 4   2220145.830 4   1589142.42845  24142875.53545
  21845068.867 6    819440.926 6    631728.91848  21845066.51648
  23165589.555 6   2588320.203 6   1979087.68446  23165592.76246
 18  5 30  0 35 55.0000000  0 10G03G14G16G22G23G26G27G29G31G32       0.000484337
  23991157.539 4    813657.316 4    622727.62946  23991156.87146
  20983875.195 6   1503217.934 6   1162562.98048  20983873.85548
  20737617.758 6     62289.832 6     49227.80948  20737615.11748
  23974104.750 5   1250842.012 5    954180.51647  23974101.80547
  24196656.586 4   -485356.914 4                
  20944643.578 7   1154467.949 7    893599.34848  20944645.41048
  22503196.000 5  -1980816.313 5  -1523135.91447  22503197.34447
  24146188.531 3   2237550.500 3   1602704.50446  24146188.34046
  21846324.094 7    826034.934 7    636867.09848  21846321.87548
  23169380.367 6   2608240.891 6   1994610.27046  23169383.18446
 18  5 30  0 36  0.0000000  0 10G03G14G16G22G23G26G27G29G31G32       0.000486570
  23992497.875 4    820697.938 4    628213.84046  23992497.09846
  20986204.289 6   1515455.391 6   1172098.65648  20986202.74648
  20737920.555 6     63881.082 6     50467.75048  20737918.68048
  23976018.727 5   1260901.078 5    962018.75447  23976016.09047
  24194169.789 4   -498427.063 4                
  20946399.461 7   1163694.172 7    900788.60548  20946400.65248
  22500579.680 6  -1994563.504 6  -1533847.98847  22500581.12147
  24149502.766 3   2254965.164 3   1616274.32445  24149502.12945
  21847579.391 7    832632.605 7    642008.13748  21847576.72348
  23173172.797 6   2628168.879 6   2010138.53146  23173175.07446
 18  5 30  0 36  5.0000000  0 10G03G14G16G22G23G26G27G29G31G32       0.000488806
  23993838.953 4    827749.391 4    633708.47746  23993838.66846
  20988535.836 6   1527706.703 6   1181645.12148  20988533.73048
  20738225.914 6     65483.840 6     51716.64548  20738223.19948
  23977934.148 5   1270966.395 5    969861.84446  23977931.35946
  24191682.906 4   -511492.773 4                
  20948156.266 7   1172927.172 7    907983.14548  20948158.04348
  22497965.484 6  -2008304.441 6  -1544555.20747  22497966.34847
  24152818.469 3   2272389.633 3   1629851.87546  24152818.47346
  21848835.453 6    839233.777 6    647151.90648  21848832.87948
  23176965.898 6   2648103.855 6   2025672.25446  23176967.78946
 18  5 30  0 36 10.0000000  0 10G03G14G16G22G23G26G27G29G31G32       0.000491039
  23995182.875 4    834812.008 4    639211.80946  23995182.94146
  20990869.898 6   1539972.141 6   1191202.61348  20990867.30148
  20738532.875 6     67098.484 6     52974.80948  20738530.20348
  23979850.703 5   1281038.215 5    977710.02346  23979847.59846
  24189197.820 4   -524553.703 4                
  20949914.711 7   1182167.238 7    915183.19148  20949916.39548
  22495351.719 6  -2022038.867 6  -1555257.35247  22495352.21947
  24156136.047 4   2289824.258 4   1643437.27746  24156135.96946
  21850092.398 7    845838.750 7    652298.63748  21850090.35548
  23180761.063 6   2668046.188 6   2041211.71546  23180763.22746
 18  5 30  0 36 15.0000000  0 10G03G14G16G22G23G26G27G29G31G32       0.000493275
  23996529.078 4    841886.168 4    644724.13746  23996528.90246
  20993206.438 6   1552252.102 6   1200771.40648  20993204.80948
  20738842.281 6     68725.348 6     54242.50448  20738840.37548
  23981768.906 5   1291116.961 5    985563.55946  23981764.97746
  24186713.414 4   -537609.430 4                
  20951674.500 7   1191414.777 7    922389.06348  20951675.69148
  22492739.438 6  -2035766.309 6  -1565954.04347  22492740.55947
  24159455.266 4   2307269.332 4   1657030.82446  24159455.77046
  21851349.789 7    852447.949 7    657448.67248  21851347.96148
  23184557.320 6   2687996.207 6   2056757.15246  23184558.84046
 18  5 30  0 36 20.0000000  0 10G03G14G16G22G23G26G27G29G31G32       0.000495508
  23997877.555 4    848971.227 4    650244.98846  23997877.01246
  20995546.070 6   1564545.914 6   1210350.99648  20995544.35548
  20739154.523 6     70363.824 6     55519.23448  20739152.32048
  23983687.742 5   1301201.922 5    993421.98846  23983684.05946
  24184228.789 4   -550660.641 4                
  20953435.539 7   1200669.105 7    929600.21948  20953436.97348
  22490128.039 6  -2049487.422 6  -1576645.82047  22490129.10947
  24162777.078 4   2324724.292 4   1670632.07546  24162777.34446
  21852607.883 7    859060.652 7    662601.42248  21852605.80548
  23188355.391 6   2707953.313 6   2072308.11746  23188356.44946
 18  5 30  0 36 25.0000000  0 10G03G14G16G22G23G26G27G29G31G32       0.000497744
  23999227.563 4    856067.328 4    655774.39146  23999227.35946
  20997888.008 6   1576853.852 6   1219941.59048  20997885.96148
  20739468.516 6     72014.133 6     56805.18848  20739465.98848
  23985608.203 5   1311293.336 5   1001285.39846  23985603.91046
  24181745.430 4   -563707.078 4                
  20955197.742 7   1209930.477 7    936816.87148  20955199.59448
  22487517.961 6  -2063201.953 6  -1587332.45747  22487519.30947
  24166100.336 4   2342189.281 4   1684241.16046  24166101.09846
  21853866.961 7    865677.152 7    667757.13348  21853865.71148
  23192154.008 5   2727917.652 5   2087864.73046  23192155.52746
 18  5 30  0 36 30.0000000  0 10G03G14G16G22G23G26G27G29G31G32       0.000499979
  24000581.023 4    863174.598 4    661312.52046  24000580.03946
  21000232.641 6   1589175.887 6   1229543.16448  21000231.09048
  20739784.977 6     73676.266 6     58100.35248  20739782.61348
  23987529.969 5   1321391.160 5   1009153.83246  23987526.23446
  24179264.516 4   -576748.730 4                
  20956961.672 7   1219198.922 7    944039.03148  20956963.30548
  22484909.398 5  -2076909.855 5  -1598013.94147  22484910.63347
  24169425.289 4   2359664.344 4   1697858.07046  24169426.19946
  21855126.984 7    872297.531 7    672915.86748  21855125.03948
  23195953.430 5   2747889.309 5   2103427.04746  23195956.04746
 18  5 30  0 36 35.0010000  0 10G03G14G16G22G23G26G27G29G31G32      -0.000497786
  24001935.114 4    870294.355 4    666860.35946  24001934.24746
  21002580.755 6   1601514.477 6   1239157.64548  21002579.19648
  20740103.505 6     75350.500 6     59404.94948  20740100.67748
  23989452.716 5   1331497.480 5   1017028.89146  23989448.51346
  24176782.989 4   -589788.145 4                
  20958726.833 7   1228476.191 7    951268.07048  20958728.09948
  22482301.927 6  -2090613.922 6  -1608692.42247  22482303.00947
  24172753.911 5   2377152.781 5   1711485.43046  24172754.81346
  21856387.919 7    878923.090 7    678078.62948  21856386.32948
  23199757.013 5   2767872.191 5   2118998.10546  23199758.54446
 18  5 30  0 36 40.0010000  0 10G03G14G16G22G23G26G27G29G31G32      -0.000495550
  24003292.630 4    877424.051 4    672415.96146  24003291.71646
  21004930.942 6   1613864.961 6   1248781.39148  21004929.39948
  20740424.091 6     77036.465 6     60718.69148  20740421.56348
  23991377.411 5   1341608.453 5   1024907.55546  23991372.01746
  24174303.544 4   -602819.949 4                
  20960493.403 7   1237758.906 7    958501.35548  20960494.79848
  22479696.591 6  -2104308.316 6  -1619363.39147  22479696.76747
  24176083.208 4   2394648.109 4   1725118.13746  24176084.19646
  21857649.083 7    885551.383 7    683243.52748  21857647.36048
  23203559.419 5   2787858.598 5   2134571.94146  23203561.19646
 18  5 30  0 36 45.0010000  0 10G03G14G16G22G23G26G27G29G31G32      -0.000493313
  24004650.888 4    884565.137 4    677980.44146  24004650.50146
  21007284.060 6   1626229.867 6   1258416.37548  21007282.76748
  20740747.528 6     78734.547 6     62041.87148  20740744.38448
  23993302.427 5   1351726.172 5   1032791.48446  23993297.71646
  24171824.044 4   -615846.563 4                
  20962261.364 7   1247048.957 7    965740.34448  20962262.30248
  22477091.505 6  -2117995.754 6  -1630028.93047  22477092.27147
  24179414.192 5   2412153.836 5   1738758.94946  24179415.38046
  21858911.341 7    892183.883 7    688411.69948  21858909.72848
  23207363.364 5   2807852.598 5   2150151.66846  23207366.07546
 18  5 30  0 36 50.0010000  0 10G03G14G16G22G23G26G27G29G31G32      -0.000491076
  24006011.700 4    891717.594 4    683553.77546  24006011.21646
  21009639.396 6   1638609.215 6   1268062.61348  21009637.98148
  20741072.974 6     80444.813 6     63374.53548  20741069.72448
  23995229.036 5   1361850.648 5   1040680.67246  23995225.13046
  24169346.528 4   -628867.953 4                
  20964030.661 7   1256346.355 7    972985.07448  20964031.80248
  22474488.474 6  -2131676.160 6  -1640688.98447  22474489.33747
  24182747.716 5   2429669.930 5   1752407.85546  24182748.54446
  21860174.325 7    898820.570 7    693583.12548  21860172.47048
  23211170.231 5   2827854.133 5   2165737.28146  23211172.43146
 18  5 30  0 36 55.0010000  0 10G03G14G16G22G23G26G27G29G31G32      -0.000488838
  24007375.372 4    898881.504 4    689136.05546  24007374.56046
  21011998.747 6   1651002.961 6   1277720.07848  21011996.47448
  20741401.028 6     82167.156 6     64716.62548  20741397.31748
  23997157.638 6   1371981.914 6   1048575.14847  23997153.18847
  24166868.935 3   -641884.082 3                
  20965801.294 7   1265651.086 7    980235.50448  20965802.25148
  22471886.810 6  -2145349.551 6  -1651343.57847  22471887.23947
  24186082.872 5   2447196.422 5   1766064.83646  24186083.65346
  21861438.036 7    905461.371 7    698757.77048  21861436.11848
  23214977.911 5   2847863.277 5   2181328.80946  23214979.80646
 18  5 30  0 37  0.0010000  0 10G03G14G16G22G23G26G27G29G31G32      -0.000486601
  24008740.013 4    906056.898 4    694727.25846  24008740.79046
  21014359.114 6   1663411.211 6   1287388.83648  21014357.30648
  20741730.896 6     83901.734 6     66068.24248  20741727.86848
  23999086.911 6   1382120.000 6   1056474.93047  23999082.94647
  24164392.427 3   -654894.961 3                
  20967573.200 7   1274963.262 7    987491.75048  20967574.96648
  22469286.083 6  -2159015.805 6  -1661992.60947  22469286.79047
  24189420.372 5   2464733.352 5   1779729.97346  24189420.76346
  21862702.724 7    912106.414 7    703935.73048  21862700.67348
  23218786.528 6   2867880.094 6   2196926.31646  23218788.67746
 18  5 30  0 37  5.0010000  0 10G03G14G16G22G23G26G27G29G31G32      -0.000484364
  24010107.864 4    913243.566 4    700327.26646  24010108.20046
  21016723.278 6   1675833.762 6   1297068.74248  21016720.94248
  20742063.247 6     85648.301 6     67429.19548  20742060.14248
  24001017.911 6   1392264.680 6   1064379.86347  24001013.56047
  24161917.755 3   -667900.734 3                
  20969346.810 7   1284282.586 7    994753.55548  20969347.74748
  22466686.755 6  -2172675.180 6  -1672636.26247  22466687.63447
  24192759.458 5   2482280.398 5   1793403.00846  24192759.93846
  21863968.021 7    918755.492 7    709116.82048  21863966.14648
  23222597.513 6   2887904.332 6   2212529.59046  23222599.94646
 18  5 30  0 37 10.0010000  0 10G03G14G16G22G23G26G27G29G31G32      -0.000482124
  24011477.583 5    920441.523 5    705936.05546  24011477.90746
  21019089.942 6   1688270.656 6   1306759.83248  21019087.77848
  20742398.271 6     87406.922 6     68799.53948  20742394.95848
  24002949.552 6   1402415.992 6   1072289.98047  24002945.80647
  24159443.833 3   -680901.297 3                
  20971121.942 7   1293609.207 7   1002021.04748  20971122.94648
  22464089.356 6  -2186327.504 6  -1683274.44947  22464089.75547
  24196100.224 5   2499837.750 5   1807084.03546  24196101.10346
  21865234.106 7    925408.664 7    714301.10948  21865232.11448
  23226409.755 6   2907936.063 6   2228138.70346  23226412.34946
 18  5 30  0 37 15.0010000  0 10G03G14G16G22G23G26G27G29G31G32      -0.000479885
  24012849.317 5    927650.961 5    711553.77347  24012850.33747
  21021459.224 6   1700722.000 6   1316462.15648  21021457.51348
  20742735.435 6     89177.656 6     70179.33648  20742731.97848
  24004882.966 5   1412574.020 5   1080205.32846  24004878.84146
  24156969.075 2   -693896.633 2                
  20972897.911 7   1302943.152 7   1009294.25048  20972898.74748
  22461492.153 6  -2199972.703 6  -1693907.06647  22461493.02447
  24199443.364 5   2517405.449 5   1820773.16046  24199443.70846
  21866501.021 7    932066.008 7    719488.65248  21866498.40748
  23230223.700 6   2927975.367 6   2243753.73846  23230225.61846
 18  5 30  0 37 20.0010000  0 10G03G14G16G22G23G26G27G29G31G32      -0.000477646
  24014222.935 4    934871.688 4    717180.30946  24014224.54446
  21023831.653 6   1713187.719 6   1326175.71148  21023829.44648
  20743074.497 6     90960.543 6     71568.60248  20743071.00948
  24006816.810 5   1422738.695 5   1088125.85546  24006812.93546
  24154498.192 2   -706886.633 2                
  20974675.716 7   1312284.375 7   1016573.11748  20974676.61448
  22458896.489 6  -2213610.852 6  -1704534.18047  22458897.52147
  24202788.692 5   2534983.410 5   1834470.26646  24202788.32146
  21867768.622 7    938727.582 7    724679.47748  21867766.26348
  23234037.849 6   2948022.172 6   2259374.59046  23234040.65746
 18  5 30  0 37 25.0010000  0 10G03G14G16G22G23G26G27G29G31G32      -0.000475405
  24015599.802 5    942104.008 5    722815.86746  24015600.34946
  21026206.177 6   1725668.098 6   1335900.67648  21026204.32148
  20743416.239 6     92755.801 6     72967.49648  20743412.95848
  24008751.903 5   1432910.313 5   1096051.78146  24008748.47846
  24152027.817 3   -719871.098 3                
  20976454.794 7   1321633.141 7   1023857.87148  20976455.31748
  22456302.731 6  -2227241.613 6  -1715155.55147  22456303.88847
  24206135.903 6   2552571.934 6   1848175.58646  24206135.77446
  21869036.864 7    945393.547 7    729873.73448  21869034.57148
  23237854.458 6   2968076.742 6   2275001.49646  23237857.02846
 18  5 30  0 37 30.0010000  0 10G03G14G16G22G23G26G27G29G31G32      -0.000473166
  24016978.638 5    949348.105 5    728460.60546  24016979.58346
  21028584.513 6   1738163.262 6   1345637.15648  21028581.82948
  20743760.333 6     94563.527 6     74376.11348  20743757.28248
  24010688.403 5   1443088.996 5   1103983.21546  24010685.77846
  24149557.216 2   -732849.887 2                
  20978235.325 7   1330989.602 7   1031148.61348  20978235.69648
  22453710.317 6  -2240864.820 6  -1725771.03147  22453712.01347
  24209484.997 6   2570171.180 6   1861889.27046  24209484.49746
  21870306.333 7    952064.195 7    735071.64548  21870304.02448
  23241671.185 5   2988139.238 5   2290634.59446  23241675.32146
 18  5 30  0 37 35.0010000  0 10G03G14G16G22G23G26G27G29G31G32      -0.000470922
  24018359.552 5    956603.875 5    734114.43846  24018360.32546
  21030964.661 7   1750673.148 7   1355385.11348  21030962.50548
  20744106.599 6     96383.695 6     75794.43048  20744103.61848
  24012626.317 5   1453274.625 5   1111920.08246  24012624.27846
  24147088.153 3   -745823.098 3                
  20980016.989 7   1340353.637 7   1038445.27348  20980018.14948
  22451118.856 6  -2254480.594 6  -1736380.72347  22451120.67347
  24212835.481 5   2587781.016 5   1875611.19946  24212835.54446
  21871576.310 7    958739.383 7    740273.07848  21871573.88848
  23245491.771 5   3008209.539 5   2306273.78546  23245495.10646
 18  5 30  0 37 40.0010000  0 10G03G14G16G22G23G26G27G29G31G32      -0.000468681
  24019742.271 4    963871.348 4    739777.41046  24019743.32146
  21033348.685 7   1763197.840 7   1365144.59848  21033346.57148
  20744454.989 6     98216.355 6     77222.47348  20744452.29448
  24014565.427 5   1463467.328 5   1119862.43446  24014563.74746
  24144620.591 2   -758790.578 2                
  20981800.231 7   1349725.363 7   1045747.91448  20981801.09148
  22448529.606 6  -2268088.813 6  -1746984.51647  22448531.40347
  24216188.896 6   2605401.461 6   1889341.40246  24216188.29046
  21872847.622 7    965419.172 7    745478.10548  21872844.63048
  23249311.513 5   3028287.691 5   2321919.08646  23249315.59546
 18  5 30  0 37 45.0010000  0 10G03G14G16G22G23G26G27G29G31G32      -0.000466438
  24021127.989 5    971150.504 5    745449.46146  24021127.92346
  21035734.864 7   1775737.227 7   1374915.54348  21035732.43848
  20744805.927 6    100061.438 6     78660.19148  20744803.21248
  24016507.005 5   1473666.969 5   1127810.24246  24016504.52846
  24142153.810 2   -771752.383 2                
  20983585.317 7   1359104.652 7   1053056.44948  20983586.08348
  22445941.278 6  -2281689.508 6  -1757582.46547  22445943.11847
  24219544.427 5   2623032.520 5   1903079.88346  24219543.37246
  21874119.575 7    972103.539 7    750686.69948  21874116.73548
  23253134.575 5   3048373.637 5   2337570.45346  23253138.54046
 18  5 30  0 37 50.0010000  0 10G03G14G16G22G23G26G27G29G31G32      -0.000464195
  24022515.974 5    978441.270 5    751130.57446  24022515.43146
  21038123.630 7   1788291.297 7   1384697.93448  21038121.44648
  20745159.583 6    101918.938 6     80107.59048  20745157.25148
  24018448.466 5   1483873.570 5   1135763.40246  24018446.04046
  24139688.731 2   -784708.484 2                
  20985371.349 7   1368491.547 7   1060370.91449  20985372.43149
  22443354.981 5  -2295282.688 5  -1768174.55147  22443356.02847
  24222900.716 6   2640674.109 6   1916826.58246  24222900.14946
  21875392.489 7    978792.469 7    755898.83648  21875389.60648
  23256957.630 5   3068467.398 5   2353227.92246  23256962.08346
 18  5 30  0 37 55.0010000  0 10G03G14G16G22G23G26G27G29G31G32      -0.000461950
  24023905.192 5    985743.531 5    756820.64546  24023905.28646
  21040515.505 7   1800859.945 7   1394491.68448  21040513.12648
  20745515.583 6    103788.688 6     81564.53548  20745512.88048
  24020392.263 5   1494086.984 5   1143721.91846  24020389.77146
  24137224.481 2   -797659.098 2                
  20987158.966 7   1377885.855 7   1067691.14848  20987160.31048
  22440769.849 5  -2308868.461 5  -1778760.87147  22440771.07147
  24226260.028 5   2658326.133 5   1930581.39546  24226259.78246
  21876666.216 7    985485.813 7    761114.41848  21876663.72448
  23260783.255 5   3088568.797 5   2368891.34446  23260787.38846
 18  5 30  0 38  0.0010000  0 10G03G14G16G22G23G26G27G29G31G32      -0.000459705
  24025297.231 5    993057.574 5    762519.87946  24025296.57146
  21042909.903 6   1813443.426 6   1404296.98048  21042907.57148
  20745873.763 6    105670.973 6     83031.25048  20745871.06348
  24022337.271 5   1504307.457 5   1151685.91446  24022334.88046
  24134761.239 2   -810603.895 2                
  20988947.974 7   1387287.855 7   1075017.37148  20988949.06048
  22438185.771 5  -2322446.547 5  -1789341.19947  22438186.93147
  24229620.786 5   2675988.797 5   1944344.51246  24229620.94246
  21877941.310 7    992183.863 7    766333.68048  21877938.30648
  23264610.028 4   3108678.078 4   2384560.90246  23264614.27446
 18  5 30  0 38  5.0010000  0 10G03G14G16G22G23G26G27G29G31G32      -0.000457458
  24026691.200 5   1000383.594 5    768228.46146  24026691.23146
  21045306.653 6   1826041.980 6   1414114.03548  21045304.83348
  20746234.583 6    107566.016 6     84507.89848  20746231.96648
  24024283.974 5   1514535.250 5   1159655.62146  24024280.99746
  24132298.872 1   -823542.520 1                
  20990738.552 7   1396697.793 7   1082349.78549  20990740.06749
  22435604.161 5  -2336016.695 5  -1799915.32847  22435604.41147
  24232983.958 5   2693662.410 5   1958116.16446  24232983.98546
  21879216.442 7    998886.871 7    771556.79748  21879213.81048
  23268438.153 5   3128795.520 5   2400236.82446  23268442.77146
 18  5 30  0 38 10.0010000  0 10G03G14G16G22G23G26G27G29G31G32      -0.000455212
  24028087.106 5   1007721.625 5    773946.40646  24028088.07546
  21047707.450 6   1838655.625 6   1423942.84448  21047705.43848
  20746597.646 6    109473.840 6     85994.51648  20746594.99748
  24026231.536 5   1524770.344 5   1167631.02046  24026229.02146
  24129837.310 1   -836475.027 1                
  20992530.731 7   1406115.691 7   1089688.39148  20992532.23948
  22433023.278 5  -2349578.867 5  -1810483.25847  22433023.62647
  24236349.505 5   2711346.910 5   1971896.27746  24236349.51746
  21880493.052 7   1005594.855 7    776783.78548  21880490.30248
  23272268.521 5   3148921.148 5   2415919.10546  23272272.43146
 18  5 30  0 38 15.0010000  0 10G03G14G16G22G23G26G27G29G31G32      -0.000452965
  24029486.067 4   1015071.605 4    779673.65246  24029486.54846
  21050110.630 6   1851284.238 6   1433783.31648  21050108.82948
  20746962.724 6    111394.402 6     87491.06348  20746960.78648
  24028180.950 5   1535012.680 5   1175612.05546  24028177.75946
  24127377.271 2   -849401.492 2                
  20994324.317 7   1415541.414 7   1097033.10548  20994325.72448
  22430443.341 5  -2363133.129 5  -1821045.01647  22430443.89947
  24239716.630 6   2729042.227 6   1985684.82846  24239716.43546
  21881770.271 7   1012307.766 7    782014.62548  21881767.29448
  23276098.958 5   3169054.781 5   2431607.64846  23276104.06046
 18  5 30  0 38 20.0010000  0 10G03G14G16G22G23G26G27G29G31G32      -0.000450716
  24030887.177 4   1022433.340 4    785410.07046  24030887.52146
  21052516.536 6   1863927.781 6   1443635.42648  21052514.85348
  20747330.411 6    113327.582 6     88997.43048  20747328.36448
  24030131.614 5   1545262.086 5   1183598.60246  24030128.01746
  24124918.638 1   -862322.008 1                
  20996119.286 7   1424974.918 7   1104383.87948  20996120.78248
  22427866.013 6  -2376679.563 6  -1831600.68447  22427865.91547
  24243085.653 6   2746748.277 6   1999481.74646  24243086.16946
  21883048.896 7   1019025.465 7    787249.18848  21883046.09148
  23279932.700 5   3189196.398 5   2447302.38746  23279937.18846
 18  5 30  0 38 25.0010000  0 10G03G14G16G22G23G26G27G29G31G32      -0.000448465
  24032289.427 5   1029807.195 5    791155.91346  24032290.46646
  21054925.692 6   1876586.449 6   1453499.32448  21054923.70048
  20747701.028 6    115273.570 6     90513.78148  20747698.18848
  24032082.927 6   1555518.867 6   1191590.89146  24032079.63846
  24122461.872 2   -875236.191 2                
  20997915.466 7   1434416.406 7   1111740.87148  20997917.53648
  22425290.200 6  -2390217.930 6  -1842150.06347  22425289.30247
  24246457.997 6   2764465.293 6   2013287.19146  24246457.37646
  21884328.356 7   1025748.254 7    792487.72748  21884325.31348
  23283766.325 5   3209346.215 5   2463003.51646  23283770.69246
 18  5 30  0 38 30.0010000  0 10G03G14G16G22G23G26G27G29G31G32      -0.000446215
  24033695.216 5   1037192.766 5    796910.91446  24033696.17746
  21057337.380 6   1889260.027 6   1463374.82848  21057335.27148
  20748073.435 6    117232.156 6     92039.95348  20748070.81048
  24034036.224 5   1565782.727 5   1199588.67646  24034033.02846
  24120005.091 1   -888144.469 1                
  20999714.278 7   1443865.602 7   1119103.88748  20999715.57948
  22422715.130 6  -2403748.398 6  -1852693.27047  22422714.77147
  24249830.888 6   2782193.004 6   2027100.99246  24249831.02446
  21885608.286 7   1032475.855 7    797730.01248  21885604.95448
  23287602.731 5   3229503.953 5   2478710.82846  23287606.59946
 18  5 30  0 38 35.0010000  0 10G03G14G16G22G23G26G27G29G31G32      -0.000443964
  24035102.739 5   1044590.105 5    802675.08646  24035103.87646
  21059751.513 6   1901948.469 6   1473261.93048  21059749.91148
  20748448.591 6    119203.289 6     93575.89848  20748446.07948
  24035991.403 5   1576053.570 5   1207591.93046  24035987.16946
  24117549.255 2   -901046.730 2                
  21001513.880 7   1453322.527 7   1126472.91448  21001515.56048
  22420141.653 6  -2417271.059 6  -1863230.40647  22420140.94247
  24253206.700 6   2799931.355 6   2040923.07046  24253206.66946
  21886889.653 7   1039208.277 7    802976.05148  21886886.53248
  23291440.286 5   3249669.563 5   2494424.24646  23291443.61446
 18  5 30  0 38 40.0010000  0 10G03G14G16G22G23G26G27G29G31G32      -0.000441711
  24036512.849 5   1051999.402 5    808448.53546  24036513.76346
  21062168.716 6   1914651.969 6   1483160.74648  21062166.77448
  20748826.411 6    121187.180 6     95121.78148  20748823.25148
  24037947.106 6   1586331.688 6   1215600.83246  24037942.96646
  24115096.106 1   -913942.754 1                
  21003314.599 7   1462787.332 7   1133848.07848  21003316.44248
  22417569.692 6  -2430785.625 6  -1873761.22747  22417569.04447
  24256584.091 6   2817680.551 6   2054753.59446  24256583.37646
  21888171.802 7   1045945.684 7    808225.97348  21888168.93148
  23295278.716 5   3269843.250 5   2510143.97746  23295281.91946
 18  5 30  0 38 45.0010000  0 10G03G14G16G22G23G26G27G29G31G32      -0.000439459
  24037924.927 5   1059420.727 5    814231.38746  24037926.22446
  21064589.536 6   1927370.566 6   1493071.34448  21064587.41948
  20749206.060 6    123183.949 6     96677.70348  20749202.95448
  24039903.560 5   1596617.078 5   1223615.40246  24039899.61846
  24112643.028 2   -926832.535 2                
  21005117.606 7   1472260.102 7   1141229.45748  21005119.23548
  22414999.700 6  -2444292.066 6  -1884285.71547  22414998.95047
  24259964.130 6   2835440.703 6   2068592.68046  24259963.50946
  21889454.935 7   1052688.230 7    813479.90648  21889452.02148
  23299119.864 5   3290025.086 5   2525870.05946  23299122.19646
 18  5 30  0 38 50.0010000  0 10G03G14G16G22G23G26G27G29G31G32      -0.000437204
  24039339.302 5   1066853.969 5    820023.51646  24039340.54846
  21067012.513 6   1940104.242 6   1502993.67648  21067010.34948
  20749588.442 6    125193.414 6     98243.52048  20749585.49348
  24041862.521 5   1606909.738 5   1231635.64546  24041858.38446
  24110193.271 2   -939716.121 2                
  21006921.825 7   1481740.770 7   1148616.98448  21006923.11848
  22412430.794 6  -2457790.387 6  -1894803.88747  22412430.57947
  24263345.403 6   2853211.590 6   2082440.10946  24263344.94246
  21890739.099 7   1059435.781 7    818737.73848  21890735.93548
  23302961.669 5   3310215.027 5   2541602.46146  23302963.46246
 18  5 30  0 38 55.0010000  0 10G03G14G16G22G23G26G27G29G31G32      -0.000434950
  24040756.552 5   1074299.098 5    825824.89146  24040756.79846
  21069438.872 6   1952852.891 6   1512927.68448  21069436.54448
  20749973.731 6    127215.570 6     99819.22348  20749970.35648
  24043822.255 5   1617209.516 5   1239661.41846  24043818.28246
  24107741.981 2   -952593.512 2                
  21008727.356 7   1491229.211 7   1156010.56648  21008729.09148
  22409863.278 5  -2471280.664 5  -1905315.78147  22409863.25947
  24266729.513 6   2870993.281 6   2096295.97346  24266728.62246
  21892023.927 7   1066188.316 7    823999.44548  21892020.97848
  23306805.388 5   3330412.957 5   2557341.06646  23306807.24346
 18  5 30  0 39  0.0010000  0 10G03G14G16G22G23G26G27G29G31G32      -0.000432693
  24042175.388 5   1081756.188 5    831635.62146  24042175.86846
  21071867.505 6   1965616.605 6   1522873.43448  21071865.09148
  20750360.700 6    129250.520 6    101404.90248  20750357.46648
  24045783.560 5   1627516.543 5   1247692.87546  24045779.66946
  24105293.153 2   -965464.629 2                
  21010534.403 7   1500725.539 7   1163410.30548  21010535.97848
  22407298.169 6  -2484762.773 6  -1915821.31647  22407297.71647
  24270115.411 6   2888785.793 6   2110160.25847  24270114.31347
  21893310.185 7   1072945.906 7    829265.09448  21893306.99348
  23310650.989 5   3350618.918 5   2573085.96546  23310651.71646
 18  5 30  0 39  5.0010000  0 10G03G14G16G22G23G26G27G29G31G32      -0.000430435
  24043596.216 5   1089225.285 5    837455.67246  24043597.20046
  21074298.950 6   1978395.488 6   1532830.99248  21074296.80248
  20750750.364 6    131298.328 6    103000.59448  20750747.17748
  24047745.880 5   1637830.859 5   1255730.00846  24047742.38446
  24102846.349 3   -978329.344 3                
  21012343.099 7   1510229.887 7   1170816.28148  21012344.67348
  22404733.731 6  -2498236.629 6  -1926320.42647  22404733.45447
  24273502.950 6   2906589.238 6   2124033.06346  24273502.23946
  21894597.177 7   1079708.652 7    834534.76248  21894593.72448
  23314497.825 5   3370833.059 5   2588837.21546  23314498.24346
 18  5 30  0 39 10.0010000  0 10G03G14G16G22G23G26G27G29G31G32      -0.000428177
  24045019.911 5   1096706.641 5    843285.29746  24045020.89646
  21076734.075 6   1991189.758 6   1542800.55548  21076731.49748
  20751142.372 6    133359.195 6    104606.46548  20751139.39648
  24049710.716 5   1648152.707 5   1263772.97346  24049706.95046
  24100399.278 2   -991187.504 2                
  21014153.083 7   1519742.391 7   1178228.62548  21014154.62248
  22402172.208 6  -2511701.996 6  -1936812.91847  22402171.31347
  24276892.958 6   2924403.789 6   2137914.52047  24276892.39647
  21895884.802 7   1086476.785 7    839808.62948  21895881.75948
  23318346.130 5   3391055.582 5   2604595.02346  23318346.76746
 18  5 30  0 39 15.0010000  0 10G03G14G16G22G23G26G27G29G31G32      -0.000425919
  24046446.356 5   1104200.418 5    849124.57046  24046447.42346
  21079171.255 6   2003999.559 6   1552782.20748  21079168.76348
  20751537.216 6    135433.297 6    106222.65248  20751534.10648
  24051676.747 5   1658482.270 5   1271822.02346  24051672.77446
  24097953.911 3  -1004038.824 3                
  21015965.005 7   1529263.277 7   1185647.49648  21015966.61448
  22399610.958 6  -2525158.633 6  -1947298.61347  22399611.18547
  24280284.817 6   2942229.676 6   2151804.81647  24280284.45447
  21897173.841 7   1093250.488 7    845086.84048  21897170.97448
  23322195.700 5   3411286.621 5   2620359.46146  23322196.28246
 18  5 30  0 39 20.0010000  0 10G03G14G16G22G23G26G27G29G31G32      -0.000423656
  24047874.521 5   1111706.367 5    854973.35546  24047875.32146
  21081612.021 6   2016824.656 6   1562775.78948  21081609.74348
  20751934.224 6    137520.367 6    107848.93848  20751931.42748
  24053642.599 5   1668819.203 5   1279876.73446  24053639.80246
  24095509.060 3  -1016883.578 3                
  21017778.325 7   1538792.270 7   1193072.67648  21017779.99748
  22397052.216 6  -2538606.836 6  -1957777.72747  22397051.88447
  24283679.177 6   2960066.563 6   2165703.67646  24283678.94246
  21898463.716 7   1100029.484 7    850369.16448  21898460.59148
  23326047.106 4   3431525.957 4   2636130.30146  23326047.97846
 18  5 30  0 39 25.0010000  0 10G03G14G16G22G23G26G27G29G31G32      -0.000421396
  24049305.505 4   1119224.379 4    860831.55946  24049306.16146
  21084055.349 6   2029665.000 6   1572781.24248  21084053.31348
  20752333.825 6    139620.352 6    109485.28948  20752331.00548
  24055612.388 5   1679163.531 5   1287937.24646  24055608.23946
  24093066.239 3  -1029721.793 3                
  21019593.364 7   1548329.266 7   1200504.09448  21019594.80648
  22394494.388 6  -2552046.629 6  -1968250.28547  22394494.67347
  24287075.903 6   2977914.398 6   2179611.07047  24287075.19247
  21899754.653 7   1106813.719 7    855655.58248  21899751.93148
  23329899.864 5   3451773.504 5   2651907.61346  23329900.68846
 18  5 30  0 39 30.0010000  0 10G03G14G16G22G23G26G27G29G31G32      -0.000419132
  24050738.575 4   1126754.500 4    866699.19146  24050739.35346
  21086501.646 6   2042520.641 6   1582798.62148  21086499.85648
  20752736.294 6    141733.320 6    111131.75448  20752733.13848
  24057582.036 5   1689515.242 5   1296003.53546  24057578.13446
  24090625.302 3  -1042553.434 3     -4000.38356  24090620.41956
  21021409.685 7   1557874.336 7   1207941.80148  21021410.97848
  22391938.810 6  -2565477.957 6  -1978716.25447  22391938.95447
  24290474.849 6   2995773.313 6   2193527.09846  24290473.86046
  21901046.513 7   1113603.309 7    860946.16848  21901043.84148
  23333754.505 4   3472029.254 4   2667691.29746  23333755.88446
 18  5 30  0 39 35.0010000  0 10G03G14G16G22G23G26G27G29G31G32      -0.000416868
  24052173.044 4   1134296.895 4    872576.39146  24052174.86446
  21088951.013 6   2055391.656 6   1592827.97348  21088949.13848
  20753140.497 6    143859.293 6    112788.35548  20753137.80248
  24059553.919 5   1699874.406 5   1304075.57846  24059549.41946
  24088185.130 3  -1055378.359 3    -13993.87545  24088179.94645
  21023228.021 7   1567427.605 7   1215385.89848  21023228.86848
  22389384.450 6  -2578900.648 6  -1989175.49247  22389384.97447
  24293874.005 6   3013643.277 6   2207451.73447  24293874.54847
  21902339.794 7   1120398.316 7    866240.97348  21902336.95448
  23337611.013 5   3492293.461 5   2683481.55546  23337612.49746
 18  5 30  0 39 40.0010000  0 10G03G14G16G22G23G26G27G29G31G32      -0.000414602
  24053611.083 4   1141851.531 4    878463.14146  24053611.97846
  21091403.286 6   2068278.090 6   1602869.34448  21091401.09548
  20753547.817 6    145998.379 6    114455.17248  20753544.78248
  24061526.099 5   1710241.164 5   1312153.55946  24061521.88046
  24085744.950 3  -1068196.480 3    -23981.99245  24085740.95845
  21025047.091 7   1576989.105 7   1222836.41848  21025048.33748
  22386832.130 6  -2592314.703 6  -1999628.00047  22386832.32547
  24297277.349 6   3031524.383 6   2221385.06646  24297277.09946
  21903633.810 7   1127198.832 7    871540.07048  21903631.50148
  23341468.622 5   3512565.930 5   2699278.26246  23341470.07946
 18  5 30  0 39 45.0010000  0 10G03G14G16G22G23G26G27G29G31G32      -0.000412336
  24055051.864 4   1149418.656 4    884359.61745  24055052.04445
  21093858.388 6   2081180.145 6   1612922.88748  21093856.44648
  20753957.474 6    148150.785 6    116132.37548  20753954.30648
  24063499.974 5   1720615.621 5   1320237.56346  24063496.28246
  24083307.411 4  -1081007.559 4    -33964.64845  24083303.11045
  21026868.474 7   1586559.051 7   1230293.52048  21026869.57148
  22384280.974 6  -2605719.809 6  -2010073.53147  22384281.74747
  24300681.575 5   3049416.875 5   2235327.26246  24300682.18846
  21904928.903 6   1134005.078 6    876843.63748  21904926.44248
  23345327.685 5   3532847.070 5   2715081.73846  23345329.71646
 18  5 30  0 39 50.0010000  0 10G03G14G16G22G23G26G27G29G31G32      -0.000410069
  24056493.599 5   1156998.090 5    890265.62945  24056494.22045
  21096316.528 6   2094097.676 6   1622988.49648  21096314.33748
  20754369.263 6    150316.363 6    117819.83648  20754366.04448
  24065475.755 5   1730997.637 5   1328327.46146  24065471.84546
  24080871.286 4  -1093811.820 4    -43942.01645  24080866.16545
  21028690.927 7   1596137.242 7   1237757.03948  21028692.01348
  22381730.950 6  -2619116.172 6  -2020512.25047  22381732.57147
  24304088.919 5   3067320.551 5   2249278.18846  24304089.63446
  21906225.231 7   1140816.848 7    882151.49648  21906222.69248
  23349188.888 5   3553136.605 5   2730891.73446  23349191.14646
 18  5 30  0 39 55.0010000  0 10G03G14G16G22G23G26G27G29G31G32      -0.000407799
  24057938.575 5   1164589.871 5    896181.32845  24057939.05645
  21098777.169 6   2107030.691 6   1633066.16448  21098775.49348
  20754784.231 6    152495.176 6    119517.60948  20754781.15748
  24067453.216 5   1741387.262 5   1336423.25046  24067448.78646
  24078436.169 4  -1106609.113 4    -53913.91445  24078431.16545
  21030515.489 7   1605723.754 7   1245227.04348  21030516.43148
  22379183.966 6  -2632503.703 6  -2030944.09047  22379185.19647
  24307498.380 6   3085235.395 6   2263237.80547  24307498.21247
  21907522.708 7   1147634.277 7    887463.77048  21907520.20848
  23353051.341 5   3573434.652 5   2746708.36746  23353053.92746
 18  5 30  0 40  0.0010000  0 10G03G14G16G22G23G26G27G29G31G32      -0.000405529
  24059384.989 5   1172193.910 5    902106.55545  24059385.96645
  21101241.927 6   2119979.207 6   1643155.91048  21101239.55248
  20755201.239 6    154687.141 6    121225.63348  20755197.72848
  24069431.380 5   1751784.395 5   1344524.94146  24069427.35346
  24076002.294 4  -1119399.559 4    -63880.50446  24075996.68846
  21032341.208 7   1615318.473 7   1252703.45748  21032341.90348
  22376637.786 6  -2645882.492 6  -2041369.11347  22376640.00147
  24310908.997 5   3103161.406 5   2277206.12547  24310909.45847
  21908820.700 7   1154457.234 7    892780.35248  21908818.14648
  23356915.364 5   3593741.023 5   2762531.51246  23356917.79846
 18  5 30  0 40  5.0010000  0 10G03G14G16G22G23G26G27G29G31G32      -0.000403257
  24060833.747 5   1179810.418 5    908041.50045  24060834.83345
  21103708.872 6   2132943.297 6   1653257.80148  21103706.63048
  20755620.927 6    156892.387 6    122944.00048  20755617.58748
  24071410.794 5   1762189.223 5   1352632.58246  24071407.18846
  24073569.544 5  -1132182.938 5    -73841.59446  24073565.04446
  21034168.497 7   1624921.586 7   1260186.39548  21034169.26348
  22374093.419 6  -2659252.320 6  -2051787.16847  22374094.93547
  24314322.638 6   3121098.652 6   2291183.19146  24314322.80246
  21910120.458 7   1161285.918 7    898101.39148  21910118.11448
  23360780.935 4   3614055.965 4   2778361.31646  23360783.51346
 18  5 30  0 40 10.0010000  0 10G03G14G16G22G23G26G27G29G31G32      -0.000400984
  24062285.349 5   1187438.961 5    913985.82845  24062286.49345
  21106178.661 6   2145922.617 6   1663371.54748  21106176.74348
  20756042.997 6    159110.547 6    124672.43848  20756039.73148
  24073392.278 5   1772601.355 5   1360745.91446  24073388.97446
  24071137.849 4  -1144959.672 4    -83797.47346  24071133.94246
  21035997.739 7   1634532.660 7   1267675.54748  21035998.38848
  22371550.622 6  -2672613.582 6  -2062198.54747  22371552.66147
  24317737.567 6   3139046.766 6   2305168.73046  24317738.18546
  21911421.239 7   1168119.934 7    903426.60248  21911417.99748
  23364647.896 4   3634379.039 4   2794197.46946  23364650.59546
 18  5 30  0 40 15.0010000  0 10G03G14G16G22G23G26G27G29G31G32      -0.000398710
  24063739.685 5   1195079.645 5    919939.60246  24063739.92346
  21108651.481 6   2158917.313 6   1673497.28148  21108649.72048
  20756467.731 6    161341.859 6    126411.12148  20756464.52848
  24075374.630 5   1783020.914 5   1368865.07446  24075371.29446
  24068707.341 4  -1157729.523 4    -93748.02346  24068703.39946
  21037828.052 7   1644151.918 7   1275171.07849  21037828.91549
  22369009.786 6  -2685966.074 6  -2072603.09047  22369011.78647
  24321155.435 6   3157005.914 6   2319162.86747  24321155.66947
  21912721.989 7   1174959.480 7    908756.10948  21912719.54448
  23368517.825 4   3654710.383 4   2810040.09446  23368520.06346
 18  5 30  0 40 20.0010000  0 10G03G14G16G22G23G26G27G29G31G32      -0.000396435
  24065196.036 4   1202732.348 4    925902.75045  24065195.98145
  21111127.130 6   2171927.141 6   1683634.80148  21111125.59948
  20756894.427 6    163585.926 6    128159.74648  20756891.41548
  24077359.435 5   1793447.629 5   1376989.77346  24077355.40746
  24066279.380 5  -1170492.789 5   -103693.44146  24066274.64246
  21039659.583 7   1653779.078 7   1282672.76248  21039660.92748
  22366470.646 5  -2699310.031 5  -2083000.99247  22366472.77847
  24324575.474 6   3174975.930 6   2333165.45746  24324575.58746
  21914024.755 7   1181804.266 7    914089.71148  21914021.97848
  23372387.927 5   3675049.785 5   2825888.96546  23372389.86046
 18  5 30  0 40 25.0010000  0 10G03G14G16G22G23G26G27G29G31G32      -0.000394159
  24066654.599 4   1210396.836 4    931875.07445  24066653.95445
  21113605.216 6   2184951.973 6   1693784.01648  21113603.56048
  20757323.833 6    165842.707 6    129918.27048  20757320.34948
  24079344.388 4   1803881.438 4   1385120.04746  24079341.17346
  24063851.560 4  -1183249.566 4   -113633.78146  24063847.25546
  21041492.888 6   1663413.996 6   1290180.48848  21041493.68548
  22363933.349 5  -2712645.559 5  -2093392.30147  22363934.59147
  24327996.255 5   3192956.570 5   2347176.32846  24327996.64246
  21915328.614 6   1188654.211 6    919427.32048  21915325.45048
  23376259.552 4   3695397.113 4   2841743.99246  23376261.46646
 18  5 30  0 40 30.0010000  0 10G03G14G16G22G23G26G27G29G31G32      -0.000391882
  24068115.528 5   1218073.355 5    937856.77745  24068115.07545
  21116087.310 6   2197992.066 6   1703945.12548  21116084.92348
  20757755.950 6    168112.375 6    131686.84048  20757752.42748
  24081330.685 5   1814322.551 5   1393255.93846  24081327.56346
  24061425.802 5  -1195999.551 5   -123568.84446  24061421.09546
  21043328.146 7   1673056.953 7   1297694.47348  21043329.23548
  22361397.481 6  -2725972.406 6  -2103776.86747  22361398.77847
  24331420.981 6   3210948.121 6   2361195.70746  24331420.48946
  21916633.130 7   1195509.598 7    924769.17648  21916629.52848
  23380133.786 5   3715752.621 5   2857605.41046  23380134.61046
 18  5 30  0 40 35.0010000  0 10G03G14G16G22G23G26G27G29G31G32      -0.000389603
  24069578.833 5   1225762.141 5    943848.03946  24069578.09546
  21118571.169 6   2211047.547 6   1714118.22348  21118569.02848
  20758190.208 6    170395.152 6    133465.62948  20758187.11448
  24083320.560 5   1824771.117 5   1401397.66046  24083315.71646
  24058999.521 5  -1208742.547 5   -133498.46146  24058996.07946
  21045164.810 7   1682708.070 7   1305214.82848  21045166.04848
  22358862.669 6  -2739290.328 6  -2114154.46947  22358864.08747
  24334846.677 6   3228950.773 6   2375223.75446  24334846.09946
  21917938.700 7   1202370.609 7    930115.41048  21917935.45048
  23384008.755 5   3736116.496 5   2873473.34046  23384009.50546
 18  5 30  0 40 40.0010000  0 10G03G14G16G22G23G26G27G29G31G32      -0.000387323
  24071043.708 5   1233462.805 5    949848.55946  24071043.38846
  21121058.474 6   2224118.117 6   1724303.08248  21121056.57548
  20758626.763 6    172690.750 6    135254.40248  20758623.73148
  24085309.474 5   1835226.859 5   1409544.99646  24085305.38046
  24056576.021 5  -1221478.961 5   -143422.93446  24056572.11846
  21047002.481 7   1692367.082 7   1312741.32048  21047003.97848
  22356330.052 6  -2752599.711 6  -2124525.41447  22356331.80647
  24338274.067 6   3246964.184 6   2389260.15246  24338274.14946
  21919244.950 6   1209236.895 6    935465.76648  21919241.45848
  23387885.841 6   3756488.336 6   2889347.48846  23387886.13846
 18  5 30  0 40 45.0010000  0 10G03G14G16G22G23G26G27G29G31G32      -0.000385042
  24072511.669 5   1241175.676 5    955858.58646  24072511.27146
  21123548.950 6   2237204.078 6   1734499.93048  21123546.81348
  20759065.927 6    174999.473 6    137053.40648  20759062.78648
  24087300.841 5   1845690.016 5   1417698.07846  24087296.45046
  24054154.606 5  -1234208.348 5   -153341.95346  24054149.93146
  21048842.310 7   1702034.254 7   1320274.18449  21048843.71249
  22353799.310 6  -2765900.141 6  -2134889.37947  22353800.34547
  24341704.302 6   3264988.676 6   2403305.21547  24341704.04047
  21920552.966 6   1216108.820 6    940820.50448  21920549.48948
  23391764.544 6   3776868.539 6   2905228.10546  23391764.41546
 18  5 30  0 40 50.0010000  0 10G03G14G16G22G23G26G27G29G31G32      -0.000382761
  24073981.763 5   1248900.836 5    961878.16846  24073981.31346
  21126041.864 6   2250305.512 6   1744708.83248  21126040.30248
  20759507.966 6    177321.363 6    138862.66448  20759504.89648
  24089293.122 4   1856160.730 4   1425857.07046  24089288.84146
  24051733.903 5  -1246930.563 5   -163255.34046  24051729.26346
  21050683.474 7   1711709.695 7   1327813.48849  21050684.77849
  22351269.911 6  -2779191.523 6  -2145246.28547  22351270.98947
  24345136.411 6   3283024.305 6   2417358.93847  24345135.74347
  21921861.872 6   1222986.453 6    946179.70348  21921858.06048
  23395645.060 6   3797257.109 6   2921115.29746  23395644.34146
 18  5 30  0 40 55.0010000  0 10G03G14G16G22G23G26G27G29G31G32      -0.000380478
  24075454.075 5   1256638.250 5    967907.31346  24075453.79446
  21128537.333 6   2263422.367 6   1754929.76248  21128535.88848
  20759952.427 6    179656.352 6    140682.14148  20759949.22048
  24091286.810 5   1866638.867 5   1434021.83645  24091282.79445
  24049313.786 5  -1259645.805 5   -173163.28946  24049309.52846
  21052525.833 7   1721393.301 7   1335359.15249  21052527.66549
  22348742.083 6  -2792473.992 6  -2155596.25447  22348743.06747
  24348570.497 6   3301070.977 6   2431421.27047  24348569.97847
  21923171.458 6   1229869.727 6    951543.29748  21923167.90748
  23399526.239 6   3817653.988 6   2937008.92646  23399525.75146
 18  5 30  0 41  0.0010000  0 10G03G14G16G22G23G26G27G29G31G32      -0.000378193
  24076928.903 5   1264387.914 5    973946.03546  24076928.53646
  21131036.622 6   2276554.793 6   1765162.81348  21131035.32948
  20760399.333 6    182004.523 6    142511.88748  20760396.41148
  24093282.536 4   1877124.539 4   1442192.51646  24093278.06746
  24046894.942 5  -1272353.836 5   -183065.65246  24046891.02846
  21054370.442 7   1731085.188 7   1342911.27049  21054371.70849
  22346216.388 6  -2805747.336 6  -2165939.11347  22346217.42747
  24352006.841 6   3319128.789 6   2445492.27746  24352006.62246
  21924482.302 6   1236758.762 6    956911.37148  21924478.61048
  23403409.489 6   3838059.266 6   2952909.10246  23403409.13446
 18  5 30  0 41  5.0010000  0 10G03G14G16G22G23G26G27G29G31G32      -0.000375906
  24078405.802 5   1272149.738 5    979994.19946  24078405.21246
  21133538.575 6   2289702.547 6   1775407.81648  21133536.77148
  20760848.286 6    184365.711 6    144351.76248  20760845.32548
  24095279.521 4   1887617.574 4   1450368.91446  24095274.74746
  24044478.622 5  -1285054.844 5   -192962.52746  24044474.73546
  21056216.161 7   1740785.164 7   1350469.68848  21056217.72048
  22343691.638 6  -2819011.723 6  -2176274.98847  22343693.25547
  24355445.692 6   3337197.598 6   2459571.84847  24355444.76747
  21925794.247 7   1243653.367 7    962283.78948  21925790.79448
  23407293.997 6   3858472.789 6   2968815.71946  23407293.92346
 18  5 30  0 41 10.0010000  0 10G03G14G16G22G23G26G27G29G31G32      -0.000373619
  24079884.872 5   1279923.758 5    986051.89146  24079884.69646
  21136043.989 6   2302865.781 6   1785664.87148  21136042.04048
  20761300.380 6    186740.016 6    146201.87148  20761297.27848
  24097277.630 5   1898118.020 5   1458551.05146  24097272.90746
  24042063.239 5  -1297748.754 5   -202853.86346  24042058.25946
  21058063.528 7   1750493.328 7   1358034.48448  21058065.43548
  22341169.005 6  -2832267.074 6  -2186603.84047  22341170.76347
  24358885.864 6   3355277.453 6   2473660.03547  24358885.10347
  21927107.146 7   1250553.672 7    967660.65648  21927104.12248
  23411180.028 6   3878894.609 6   2984728.80546  23411180.04046
 18  5 30  0 41 15.0010000  0 10G03G14G16G22G23G26G27G29G31G32      -0.000371330
  24081366.388 5   1287709.773 5    992118.89846  24081366.52446
  21138551.372 6   2316044.234 6   1795933.78148  21138549.58348
  20761754.388 6    189127.184 6    148062.00048  20761751.70048
  24099277.200 5   1908625.727 5   1466738.87946  24099272.25946
  24039648.864 5  -1310435.699 5   -212739.80146  24039643.59146
  21059912.403 7   1760209.457 7   1365605.49248  21059913.97448
  22338648.786 6  -2845513.617 6  -2196925.81347  22338650.27147
  24362328.591 6   3373368.086 6   2487756.61347  24362326.91947
  21928421.599 7   1257459.469 7    973041.79748  21928417.76348
  23415067.278 5   3899324.484 5   3000648.18046  23415067.43146
 18  5 30  0 41 20.0010000  0 10G03G14G16G22G23G26G27G29G31G32      -0.000369041
  24082850.388 5   1295508.176 5    998195.55546  24082850.60346
  21141062.169 6   2329238.293 6   1806214.85948  21141060.82148
  20762211.208 6    191527.617 6    149932.46948  20762208.22848
  24101278.708 5   1919140.965 5   1474932.56345  24101273.16545
  24037235.849 5  -1323115.418 5   -222620.10246  24037231.41146
  21061762.864 7   1769933.891 7   1373182.96948  21061764.73948
  22336130.036 5  -2858750.902 5  -2207240.57847  22336131.04447
  24365773.481 6   3391469.902 6   2501861.91447  24365771.55247
  21929736.669 7   1264371.164 7    978427.53548  21929733.47448
  23418955.521 5   3919762.813 5   3016574.12546  23418957.16946
 18  5 30  0 41 25.0010000  0 10G03G14G16G22G23G26G27G29G31G32      -0.000366749
  24084336.575 5   1303318.676 5   1004281.66446  24084336.30246
  21143575.646 6   2342447.668 6   1816507.87948  21143574.05248
  20762670.411 6    193941.102 6    151813.10248  20762667.36048
  24103281.216 5   1929663.578 5   1483131.99246  24103275.40746
  24034824.294 5  -1335788.059 5   -232494.88346  24034819.52846
  21063615.106 7   1779666.414 7   1380766.75048  21063617.00148
  22333613.052 6  -2871979.188 6  -2217548.34047  22333613.76347
  24369219.974 6   3409582.660 6   2515975.75046  24369218.07546
  21931052.630 7   1271288.488 7    983817.66048  21931050.01348
  23422845.349 4   3940209.316 4   3032506.46546  23422848.16146
 18  5 30  0 41 30.0010000  0 10G03G14G16G22G23G26G27G29G31G32      -0.000364458
  24085824.802 5   1311141.281 5   1010377.19946  24085825.12646
  21146092.646 6   2355672.387 6   1826812.84448  21146091.02848
  20763132.731 6    196367.605 6    153703.87948  20763129.11448
  24105284.364 5   1940193.508 5   1491337.12545  24105278.90345
  24032413.958 5  -1348453.605 5   -242364.14546  24032409.95846
  21065468.575 7   1789407.031 7   1388356.83648  21065470.55648
  22331097.419 5  -2885198.406 5  -2227849.02747  22331098.83347
  24372669.028 6   3427706.406 6   2530098.13347  24372667.30247
  21932370.356 7   1278211.430 7    989212.15648  21932367.19648
  23426737.942 4   3960664.055 4   3048445.22746  23426741.06046
 18  5 30  0 41 35.0010000  0 10G03G14G16G22G23G26G27G29G31G32      -0.000362164
  24087315.427 5   1318975.805 5   1016482.03546  24087316.26346
  21148612.200 6   2368912.250 6   1837129.62548  21148610.72048
  20763596.981 6    198806.957 6    155604.66848  20763593.52148
  24107290.310 5   1950730.563 5   1499547.75045  24107284.00945
  24030005.044 5  -1361112.191 5   -252227.96546  24030000.89946
  21067323.505 7   1799155.531 7   1395953.06648  21067325.43848
  22328583.685 5  -2898408.746 5  -2238142.80547  22328584.59147
  24376119.638 6   3445840.867 6   2544228.89547  24376118.17747
  21933688.778 7   1285139.828 7    994610.91048  21933685.69648
  23430631.864 4   3981126.773 4   3064390.23046  23430635.46246
 18  5 30  0 41 40.0010000  0 10G03G14G16G22G23G26G27G29G31G32      -0.000359869
  24088809.052 5   1326822.336 5   1022596.19546  24088809.70446
  21151134.122 6   2382167.426 6   1847458.32448  21151132.43548
  20764063.778 6    201259.270 6    157515.56348  20764060.08748
  24109296.802 5   1961274.883 5   1507764.13745  24109290.84945
  24027597.419 5  -1373763.750 5   -262086.30146  24027593.20446
  21069179.833 7   1808912.074 7   1403555.56648  21069182.16948
  22326071.872 5  -2911610.094 5  -2248429.57047  22326072.31047
  24379572.614 6   3463986.211 6   2558368.10546  24379570.62646
  21935008.567 7   1292073.836 7   1000014.03148  21935005.63048
  23434527.614 5   4001597.617 5   3080341.52746  23434530.73546
 18  5 30  0 41 45.0010000  0 10G03G14G16G22G23G26G27G29G31G32      -0.000357574
  24090304.396 4   1334680.832 4   1028719.71146  24090304.95446
  21153659.802 6   2395437.750 6   1857798.82848  21153658.17348
  20764532.185 6    203724.430 6    159436.47348  20764528.81048
  24111304.505 5   1971826.367 5   1515986.00045  24111298.59945
  24025191.700 5  -1386408.277 5   -271939.19146  24025186.97846
  21071038.028 7   1818676.477 7   1411164.18848  21071040.27448
  22323561.263 5  -2924802.523 5  -2258709.38747  22323562.22447
  24383027.567 6   3482142.297 6   2572515.69546  24383025.57946
  21936329.208 7   1299013.324 7   1005421.42248  21936326.10648
  23438424.685 5   4022076.500 5   3096299.09046  23438427.71646
 18  5 30  0 41 50.0010000  0 10G03G14G16G22G23G26G27G29G31G32      -0.000355276
  24091801.544 5   1342551.582 5   1034852.77746  24091802.72846
  21156187.739 6   2408723.523 6   1868151.38748  21156186.54048
  20765004.122 6    206202.805 6    161367.67248  20765000.70448
  24113314.067 5   1982385.285 5   1524213.73045  24113308.07145
  24022786.255 5  -1399045.480 5   -281786.34446  24022782.33746
  21072897.763 7   1828449.141 7   1418779.24648  21072900.22448
  22321052.958 5  -2937985.648 5  -2268981.95747  22321053.10647
  24386484.747 6   3500309.469 6   2586671.91446  24386482.98146
  21937650.481 7   1305958.691 7   1010833.39548  21937647.96648
  23442323.560 6   4042563.695 6   3112263.12546  23442326.31746
 18  5 30  0 41 55.0010000  0 10G03G14G16G22G23G26G27G29G31G32      -0.000352978
  24093302.356 5   1350434.371 5   1040995.19146  24093302.93146
  21158719.130 6   2422024.641 6   1878515.87948  21158717.43548
  20765478.005 6    208694.184 6    163309.00848  20765474.75548
  24115325.153 5   1992951.504 5   1532447.15245  24115319.13045
  24020383.263 5  -1411675.512 5   -291627.91046  24020378.85346
  21074758.896 7   1838229.828 7   1426400.55148  21074760.99348
  22318545.896 5  -2951159.684 5  -2279247.43447  22318546.39247
  24389943.849 6   3518487.500 6   2600836.61746  24389942.34146
  21938973.224 7   1312909.727 7   1016249.78948  21938970.62248
  23446223.427 6   4063059.094 6   3128233.56346  23446226.32546
 18  5 30  0 42  0.0010000  0 10G03G14G16G22G23G26G27G29G31G32      -0.000350677
  24094804.560 5   1358329.391 5   1047147.14846  24094805.30246
  21161253.216 6   2435341.297 6   1888892.50448  21161251.22448
  20765954.505 7    211198.750 7    165260.62148  20765951.52448
  24117336.544 5   2003525.102 5   1540686.28545  24117330.98945
  24017981.177 5  -1424298.223 5   -301463.77046  24017976.39646
  21076621.794 7   1848018.754 7   1434028.28148  21076624.28248
  22316040.606 5  -2964324.434 5  -2289505.68047  22316041.27847
  24393404.536 6   3536676.563 6   2615009.90246  24393403.20446
  21940296.880 7   1319866.602 7   1021670.73448  21940294.39948
  23450126.489 6   4083562.824 6   3144210.45346  23450127.95446
 18  5 30  0 42  5.0010000  0 10G03G14G16G22G23G26G27G29G31G32      -0.000348377
  24096309.669 5   1366236.754 5   1053308.73446  24096310.09146
  21163789.903 6   2448673.500 6   1899281.21948  21163788.59148
  20766433.864 6    213716.563 6    167222.54748  20766430.78648
  24119349.856 5   2014106.234 5   1548931.31345  24119344.88445
  24015580.669 5  -1436913.477 5   -311293.86746  24015575.57946
  21078486.208 7   1857815.938 7   1441662.45348  21078488.33748
  22313537.083 5  -2977479.777 5  -2299756.58247  22313537.44247
  24396868.606 6   3554876.719 6   2629191.82846  24396866.70046
  21941621.903 7   1326829.449 7   1027096.32048  21941619.66148
  23454029.825 6   4104074.910 6   3160193.85546  23454030.85346
 18  5 30  0 42 10.0010000  0 10G03G14G16G22G23G26G27G29G31G32      -0.000346075
  24097816.286 5   1374156.137 5   1059479.66846  24097817.04846
  21166329.763 6   2462021.016 6   1909681.87948  21166328.09548
  20766914.958 6    216247.352 6    169194.59048  20766912.06748
  24121365.364 5   2024694.613 5   1557182.03945  24121359.86445
  24013181.255 5  -1449521.563 5   -321118.35946  24013177.01346
  21080352.380 7   1867621.133 7   1449302.85948  21080354.04048
  22311035.411 5  -2990625.973 5  -2310000.36747  22311035.98147
  24400333.872 6   3573087.730 6   2643382.23046  24400332.14246
  21942948.169 7   1333797.965 7   1032526.33648  21942945.54848
  23457934.747 6   4124595.086 6   3176183.58646  23457935.79446
 18  5 30  0 42 15.0010000  0 10G03G14G16G22G23G26G27G29G31G32      -0.000343771
  24099325.513 5   1382087.512 5   1065659.95746  24099326.18846
  21168872.802 6   2475383.758 6   1920094.39848  21168870.69248
  20767399.005 6    218791.070 6    171176.70748  20767396.42748
  24123380.763 4   2035290.125 4   1565438.22745  24123376.20845
  24010783.474 5  -1462122.504 5   -330937.26246  24010779.10646
  21082219.700 7   1877434.254 7   1456949.44148  21082221.49748
  22308535.083 5  -3003763.082 5  -2320237.07847  22308536.37647
  24403801.419 6   3591309.539 6   2657581.03946  24403800.20846
  21944275.544 7   1340772.090 7   1037960.71148  21944273.55248
  23461841.974 6   4145123.336 6   3192179.60546  23461841.59546
 18  5 30  0 42 20.0010000  0 10G03G14G16G22G23G26G27G29G31G32      -0.000341467
  24100837.872 5   1390031.035 5   1071849.68846  24100837.49746
  21171418.786 6   2488761.949 6   1930518.95748  21171416.95048
  20767885.872 6    221347.918 6    173169.05148  20767882.57548
  24125399.872 4   2045893.070 4   1573700.27745  24125394.34545
  24008386.310 5  -1474716.027 5   -340750.38346  24008382.18146
  21084088.833 7   1887255.570 7   1464602.41448  21084090.17348
  22306037.224 5  -3016890.797 5  -2330466.46547  22306037.90347
  24407271.528 6   3609542.320 6   2671788.39146  24407269.54046
  21945603.911 7   1347752.102 7   1043399.68048  21945600.93848
  23465749.224 6   4165659.832 6   3208182.00046  23465749.43846
 18  5 30  0 42 25.0010000  0 10G03G14G16G22G23G26G27G29G31G32      -0.000339159
  24102351.536 5   1397986.637 5   1078048.83646  24102351.66146
  21173967.630 6   2502155.527 6   1940955.51648  21173965.75548
  20768374.544 6    223917.809 6    175171.56348  20768371.97448
  24127418.935 4   2056503.227 4   1581967.94145  24127413.44245
  24005991.317 5  -1487302.246 5   -350557.84846  24005987.54046
  21085959.638 7   1897084.961 7   1472261.67248  21085960.85648
  22303541.106 5  -3030009.246 5  -2340688.63347  22303541.75147
  24410742.614 6   3627786.012 6   2686004.23846  24410740.98946
  21946933.169 7   1354737.887 7   1048843.14848  21946930.56748
  23469658.700 5   4186204.492 5   3224190.81645  23469658.89645
 18  5 30  0 42 30.0010000  0 10G03G14G16G22G23G26G27G29G31G32      -0.000336851
  24103867.966 5   1405954.227 5   1084257.34046  24103868.02846
  21176518.724 6   2515564.406 6   1951403.97748  21176517.16148
  20768865.841 6    226500.613 6    177184.13748  20768863.31748
  24129437.771 3   2067120.555 3   1590241.20745  24129433.19645
  24003597.271 5  -1499881.289 5   -360359.67246  24003593.41146
  21087831.739 7   1906922.313 7   1479927.14148  21087832.39648
  22301046.474 5  -3043118.539 5  -2350903.66447  22301046.96247
  24414216.208 6   3646040.477 6   2700228.49246  24414215.13846
  21948263.302 7   1361729.305 7   1054291.00848  21948260.68548
  23473568.833 5   4206757.180 5   3240205.88746  23473570.32946
 18  5 30  0 42 35.0010000  0 10G03G14G16G22G23G26G27G29G31G32      -0.000334543
  24105386.278 4   1413934.117 4   1090475.41846  24105386.23946
  21179073.427 6   2528988.844 6   1961864.57448  21179071.85348
  20769359.927 6    229096.707 6    179207.06648  20769357.41548
  24131460.161 4   2077745.316 4   1598520.27745  24131455.22045
  24001205.677 5  -1512452.742 5   -370155.60946  24001200.98546
  21089704.896 7   1916767.914 7   1487599.03948  21089705.85348
  22298553.317 6  -3056218.281 6  -2361111.23447  22298553.98947
  24417691.896 6   3664306.008 6   2714461.35946  24417690.68146
  21949594.927 7   1368726.742 7   1059743.55548  21949592.52148
  23477481.888 4   4227318.215 4   3256227.42246  23477482.56346
 18  5 30  0 42 40.0010000  0 10G03G14G16G22G23G26G27G29G31G32      -0.000332233
  24106907.185 4   1421926.551 4   1096703.31346  24106906.88446
  21181631.692 6   2542429.098 6   1972337.48848  21181629.49748
  20769856.528 6    231706.281 6    181240.50448  20769854.08348
  24133483.036 5   2088377.848 5   1606805.38745  24133478.48945
  23998814.380 5  -1525016.387 5   -379945.44946  23998810.37246
  21091580.380 7   1926622.043 7   1495277.58648  21091581.23548
  22296063.130 6  -3069308.203 6  -2371311.16847  22296063.35347
  24421170.106 6   3682582.891 6   2728703.07446  24421169.16546
  21950928.083 7   1375730.426 7   1065200.97348  21950925.01348
  23481396.388 3   4247887.855 3   3272255.70346  23481396.06346
 18  5 30  0 42 45.0010000  0 10G03G14G16G22G23G26G27G29G31G32      -0.000329920
  24108430.278 4   1429931.207 4   1102940.67646  24108429.90746
  21184191.810 6   2555884.906 6   1982822.52748  21184189.88448
  20770355.731 6    234329.082 6    183284.23448  20770353.45848
  24135507.567 5   2099017.867 5   1615096.28545  24135502.58745
  23996425.349 5  -1537572.473 5   -389729.41846  23996421.20446
  21093457.208 7   1936484.406 7   1502962.53148  21093457.45448
  22293573.099 6  -3082388.684 6  -2381503.73847  22293574.17747
  24424649.888 6   3700870.762 6   2742953.35946  24424648.98546
  21952262.036 7   1382740.137 7   1070663.07448  21952258.86448
  23485311.435 3   4268465.832 3   3288290.52745  23485312.37245
 18  5 30  0 42 50.0010000  0 10G03G14G16G22G23G26G27G29G31G32      -0.000327606
  24109956.185 4   1437948.086 4   1109187.60246  24109955.61846
  21186755.505 6   2569356.234 6   1993319.66448  21186753.16148
  20770857.239 6    236965.074 6    185338.25848  20770854.99748
  24137533.817 5   2109665.211 5   1623392.92246  24137529.14946
  23994037.356 5  -1550120.941 5   -399507.45346  23994033.30246
  21095335.317 7   1946354.977 7   1510653.89548  21095336.38848
  22291085.685 6  -3095459.566 6  -2391688.84047  22291086.88447
  24428132.278 6   3719169.695 6   2757212.26647  24428131.02147
  21953596.849 7   1389755.836 7   1076129.85248  21953593.98548
  23489229.396 3   4289052.008 3   3304331.70345  23489229.84545
 18  5 30  0 42 55.0010000  0 10G03G14G16G22G23G26G27G29G31G32      -0.000325293
  24111484.692 4   1445976.887 4   1115443.82046  24111483.18146
  21189322.224 6   2582842.805 6   2003828.66848  21189320.04848
  20771361.583 6    239614.031 6    187402.37548  20771359.23548
  24139561.278 5   2120319.715 5   1631695.09445  24139556.30645
  23991651.130 5  -1562662.125 5   -409279.77746  23991646.67346
  21097215.216 7   1956233.508 7   1518351.44548  21097216.16548
  22288600.099 6  -3108521.160 6  -2401866.69147  22288601.23147
  24431617.091 6   3737479.398 6   2771479.57046  24431615.48946
  21954933.044 7   1396777.250 7   1081601.07048  21954930.48548
  23493149.583 3   4309646.289 3   3320379.20345  23493148.94245
 18  5 30  0 43  0.0010000  0 10G03G14G16G22G23G26G27G29G31G32      -0.000322977
  24113014.481 4   1454017.656 4   1121709.33246  24113013.51746
  21191891.146 6   2596344.645 6   2014349.57848  21191889.38848
  20771868.364 7    242275.871 7    189476.53948  20771865.36448
  24141589.677 5   2130981.379 5   1640002.88745  24141585.49345
  23989265.169 5  -1575195.984 5   -419046.41446  23989261.67346
  21099096.927 7   1966119.984 7   1526055.18848  21099097.39648
  22286116.427 6  -3121573.477 6  -2412037.32847  22286117.66547
  24435103.083 6   3755799.844 6   2785755.23046  24435101.62646
  21956270.614 7   1403804.387 7   1087076.76248  21956267.25148
  23497068.091 4   4330248.590 4   3336432.90246  23497069.33746
 18  5 30  0 43  5.0010000  0 10G03G14G16G22G23G26G27G29G31G32      -0.000320660
  24114546.419 4   1462070.473 4   1127984.25046  24114546.00146
  21194463.278 6   2609861.820 6   2024882.43448  21194461.27448
  20772377.317 6    244950.785 6    191560.89148  20772374.99748
  24143620.880 5   2141650.270 5   1648316.30545  24143616.43545
  23986881.755 5  -1587722.391 5   -428807.26246  23986878.11846
  21100979.794 7   1976014.504 7   1533765.19948  21100979.84148
  22283634.091 6  -3134616.324 6  -2422200.58647  22283635.63847
  24438591.364 6   3774131.121 6   2800039.34846  24438589.94246
  21957609.060 7   1410837.410 7   1092557.02748  21957605.33348
  23500989.333 4   4350859.020 4   3352492.94946  23500992.03246
 18  5 30  0 43 10.0010000  0 10G03G14G16G22G23G26G27G29G31G32      -0.000318340
  24116081.497 4   1470135.375 4   1134268.60946  24116080.94246
  21197038.427 6   2623394.336 6   2035427.26248  21197036.46248
  20772888.724 7    247638.727 7    193655.37548  20772886.14948
  24145652.060 5   2152326.402 5   1656635.32845  24145647.80245
  23984499.638 6  -1600241.375 6   -438562.32046  23984495.89646
  21102863.919 7   1985917.066 7   1541481.47348  21102864.47448
  22281154.380 6  -3147649.680 6  -2432356.43847  22281155.15347
  24442082.325 6   3792473.227 6   2814331.88346  24442080.18146
  21958948.372 7   1417876.305 7   1098041.87948  21958944.39648
  23504913.646 5   4371477.582 5   3368559.35546  23504916.09146
 18  5 30  0 43 15.0010000  0 10G03G14G16G22G23G26G27G29G31G32      -0.000316021
  24117618.114 4   1478212.543 4   1140562.50046  24117617.63446
  21199616.528 6   2636942.500 6   2045984.26248  21199614.93548
  20773402.771 7    250339.992 7    195760.26648  20773400.09948
  24147685.786 5   2163009.988 5   1664960.20745  24147680.81045
  23982118.560 5  -1612752.590 5   -448311.31646  23982115.05246
  21104749.966 7   1995827.926 7   1549204.22348  21104750.27848
  22278675.771 5  -3160673.344 5  -2442504.75447  22278677.13047
  24445575.161 6   3810826.414 6   2828633.06346  24445573.22046
  21960289.427 7   1424921.344 7   1103531.51648  21960285.38448
  23508839.317 5   4392104.504 5   3384632.24646  23508840.99346
 18  5 30  0 43 20.0010000  0 10G03G14G16G22G23G26G27G29G31G32      -0.000313700
  24119158.052 4   1486301.879 4   1146865.90246  24119156.82146
  21202198.146 6   2650506.129 6   2056553.32448  21202195.81748
  20773919.630 6    253054.391 6    197875.38348  20773917.10648
  24149719.153 5   2173700.867 5   1673290.72745  24149715.73145
  23979739.247 5  -1625256.148 5   -458054.37946  23979735.59146
  21106637.278 7   2005746.953 7   1556933.32848  21106638.27148
  22276199.099 5  -3173687.387 5  -2452645.55147  22276200.75547
  24449069.075 5   3829190.563 5   2842942.78946  24449067.21246
  21961630.591 7   1431972.375 7   1109025.82448  21961626.97848
  23512766.497 5   4412739.676 5   3400711.56646  23512768.06046
 18  5 30  0 43 25.0010000  0 10G03G14G16G22G23G26G27G29G31G32      -0.000311377
  24120698.778 4   1494403.438 4   1153178.75046  24120698.55646
  21204781.638 6   2664085.293 6   2067134.49648  21204779.68848
  20774438.466 6    255782.031 6    200000.80948  20774436.15348
  24151755.067 5   2184399.160 5   1681627.07045  24151751.63045
  23977361.060 5  -1637751.977 5   -467791.37946  23977357.51746
  21108526.560 7   2015674.195 7   1564668.83248  21108527.93148
  22273725.239 6  -3186691.734 6  -2462778.80947  22273726.41147
  24452565.864 6   3847565.652 6   2857261.00446  24452564.15346
  21962973.786 7   1439029.492 7   1114524.87148  21962970.34548
  23516694.974 5   4433383.098 5   3416797.30146  23516696.43846
 18  5 30  0 43 30.0010000  0 10G03G14G16G22G23G26G27G29G31G32      -0.000309052
  24122243.208 4   1502517.223 4   1159501.21146  24122243.16146
  21207368.146 6   2677680.051 6   2077727.81348  21207366.60648
  20774960.528 6    258522.879 6    202136.53548  20774957.56048
  24153792.724 4   2195104.875 4   1689969.20745  24153788.78245
  23974985.692 5  -1650240.117 5   -477522.41046  23974981.49346
  21110417.450 7   2025609.652 7   1572410.74648  21110418.38848
  22271252.349 6  -3199686.324 6  -2472904.46947  22271253.66147
  24456064.567 5   3865951.781 5   2871587.85946  24456062.91946
  21964317.731 7   1446092.723 7   1120028.69148  21964314.16548
  23520625.114 5   4454034.805 5   3432889.52346  23520626.43546
 18  5 30  0 43 35.0010000  0 10G03G14G16G22G23G26G27G29G31G32      -0.000306726
  24123790.153 5   1510643.086 5   1165833.02346  24123789.56346
  21209958.278 6   2691290.242 6   2088333.14548  21209956.94648
  20775484.161 7    261276.828 7    204282.46948  20775481.93548
  24155831.653 4   2205817.867 4   1698316.98046  24155827.22846
  23972610.583 5  -1662720.609 5   -487247.48046  23972606.18546
  21112309.278 7   2035553.195 7   1580158.96148  21112309.91948
  22268781.192 5  -3212671.305 5  -2483022.62947  22268782.49347
  24459565.497 5   3884348.723 5   2885923.12546  24459563.54446
  21965662.661 7   1453161.926 7   1125537.15648  21965659.68148
  23524558.380 5   4474694.684 5   3448988.06346  23524557.59546
 18  5 30  0 43 40.0010000  0 10G03G14G16G22G23G26G27G29G31G32      -0.000304398
  24125338.427 5   1518781.309 5   1172174.50446  24125338.27446
  21212551.216 6   2704916.117 6   2098950.72348  21212549.42348
  20776011.075 6    264044.145 6    206438.81648  20776007.92748
  24157871.739 5   2216538.422 5   1706670.69945  24157867.34945
  23970236.208 5  -1675193.191 5   -496966.36346  23970232.29446
  21114202.708 7   2045505.105 7   1587913.68848  21114203.41948
  22266311.911 5  -3225646.406 5  -2493133.09047  22266313.33347
  24463068.286 5   3902756.883 5   2900267.11746  24463066.76346
  21967009.372 7   1460237.387 7   1131050.50448  21967006.06048
  23528489.880 5   4495362.965 5   3465093.21946  23528491.15346
 18  5 30  0 43 45.0010000  0 10G03G14G16G22G23G26G27G29G31G32      -0.000302069
  24126888.974 5   1526931.754 5   1178525.50046  24126889.18846
  21215147.224 6   2718557.582 6   2109580.42648  21215145.41148
  20776540.224 6    266824.711 6    208605.48448  20776537.39648
  24159913.216 5   2227266.363 5   1715030.10546  24159909.19246
  23967864.731 5  -1687657.910 5   -506679.14546  23967860.77146
  21116098.630 7   2055465.258 7   1595674.84048  21116099.54848
  22263844.661 6  -3238611.699 6  -2503235.91847  22263845.82147
  24466573.239 5   3921175.996 5   2914619.67646  24466571.52846
  21968356.606 7   1467319.016 7   1136568.65248  21968353.72048
  23532425.067 4   4516039.543 4   3481204.78546  23532425.41946
 18  5 30  0 43 50.0010000  0 10G03G14G16G22G23G26G27G29G31G32      -0.000299738
  24128442.333 5   1535094.387 5   1184886.00046  24128442.91946
  21217746.075 6   2732214.590 6   2120222.23848  21217744.43848
  20777071.731 7    269618.449 7    210782.42648  20777068.95848
  24161955.989 5   2238001.617 5   1723395.21945  24161952.20045
  23965494.239 5  -1700114.813 5   -516385.78546  23965490.04846
  21117995.231 7   2065433.594 7   1603442.37548  21117996.08348
  22261378.856 5  -3251567.215 5  -2513331.12947  22261380.90347
  24470080.638 5   3939606.047 5   2928980.73046  24470078.75946
  21969705.630 7   1474406.793 7   1142091.59448  21969702.66148
  23536361.763 3   4536724.348 3   3497322.78546  23536361.68546
 18  5 30  0 43 55.0010000  0 10G03G14G16G22G23G26G27G29G31G32      -0.000297407
  24129998.583 5   1543268.746 5   1191255.62146  24129998.82946
  21220347.896 6   2745886.652 6   2130875.78948  21220345.79048
  20777605.794 7    272424.926 7    212969.28548  20777602.75148
  24164000.278 5   2248743.719 5   1731765.64145  24163996.20045
  23963125.481 5  -1712564.406 5   -526086.76246  23963121.05246
  21119893.575 7   2075409.629 7   1611215.90648  21119894.65748
  22258915.981 6  -3264513.379 6  -2523419.03547  22258916.88447
  24473589.442 5   3958046.586 5   2943349.98846  24473588.01346
  21971055.489 7   1481500.195 7   1147618.92248  21971052.36848
  23540299.044 2   4557416.871 2   3513446.79746  23540299.02446
 18  5 30  0 44  0.0010000  0  9G03G14G16G22G23G26G27G31G32         -0.000295076
  24131555.755 5   1551454.887 5   1197634.44546  24131556.52446
  21222952.552 6   2759573.953 6   2141541.21148  21222950.52448
  20778142.575 7    275244.293 7    215166.19148  20778139.27848
  24166046.771 4   2259492.898 4   1740141.63745  24166041.87645
  23960757.09115                   -535782.37556  23960753.73956
  21121793.317 7   2085393.547 7   1618995.57848  21121794.50148
  22256454.263 6  -3277450.023 6  -2533499.54347  22256455.25147
  21972406.122 7   1488599.418 7   1153150.78148  21972403.50548
  23544234.77112                   3529577.12955  23544238.73555
 18  5 30  0 44  5.0010000  0 10G03G14G16G22G23G26G27G29G31G32      -0.000292740
  24133115.325 5   1559653.238 5   1204022.73846  24133117.27846
  21225559.833 6   2773276.723 6   2152218.69148  21225558.26748
  20778681.560 7    278076.855 7    217373.37948  20778678.59148
  24168091.114 4   2270249.383 4   1748523.32045  24168089.04845
  23958391.474 5  -1737441.906 5   -545472.08246  23958387.26346
  21123695.013 7   2095385.609 7   1626781.59448  21123695.93148
  22253994.161 5  -3290376.855 5  -2543572.39547  22253995.25147
  24480614.16915   3994960.78915   2972114.55556  24480613.08356
  21973758.474 7   1495704.793 7   1158687.44148  21973755.60648
  23548176.61411                   3545713.64156  23548179.53256
 18  5 30  0 44 10.0010000  0 10G03G14G16G22G23G26G27G29G31G32      -0.000290405
  24134677.864 5   1567863.785 5   1210420.57046  24134679.77146
  21228170.552 6   2786994.988 6   2162908.24648  21228168.35348
  20779222.919 7    280922.613 7    219590.85948  20779220.12648
  24170140.677 5   2281013.160 5   1756910.67645  24170137.84545
  23956026.146 5  -1749868.352 5   -555155.01246  23956022.62646
  21125597.630 7   2105385.887 7   1634574.02048  21125598.58348
  22251536.122 6  -3303293.805 6  -2553637.54347  22251536.99747
  24484129.552 5   4013433.793 5   2986509.03546  24484128.43146
  21975111.622 7   1502816.313 7   1164228.88748  21975109.76348
  23552119.356 2   4619542.816 2   3561856.62946  23552121.43546
 18  5 30  0 44 15.0010000  0 10G03G14G16G22G23G26G27G29G31G32      -0.000288069
  24136243.052 5   1576086.570 5   1216827.94546  24136244.37246
  21230783.708 6   2800728.930 6   2173610.02748  21230782.20848
  20779766.950 7    283781.699 7    221818.71948  20779763.94648
  24172191.005 5   2291784.426 5   1765303.86345  24172186.88845
  23953663.677 5  -1762286.828 5   -564831.73446  23953659.32946
  21127502.255 7   2115394.465 7   1642372.91448  21127503.57148
  22249079.528 6  -3316200.734 6  -2563694.88747  22249080.81747
  24487646.239 5   4031917.887 5   3000912.24246  24487646.06346
  21976465.731 7   1509934.129 7   1169775.23048  21976463.74348
  23556062.771 2   4640268.027 2   3578006.18046  23556065.54446
 18  5 30  0 44 20.0010000  0 10G03G14G16G22G23G26G27G29G31G32      -0.000285728
  24137810.161 5   1584321.379 5   1223244.66846  24137811.35646
  21233400.294 6   2814478.281 6   2184323.78948  21233398.73148
  20780313.356 6    286653.820 6    224056.72348  20780310.41548
  24174240.989 5   2302562.832 5   1773702.62145  24174238.51745
  23951302.028 5  -1774697.523 5   -574502.44546  23951297.57146
  21129408.028 7   2125411.055 7   1650178.04348  21129409.60648
  22246625.560 6  -3329097.965 6  -2573744.69147  22246626.39647
  24491166.239 5   4050412.711 5   3015323.78146  24491165.44246
  21977821.810 7   1517058.012 7   1175326.29748  21977819.64948
  23560007.810 3   4661001.297 3   3594161.92646  23560010.70446
 18  5 30  0 44 25.0010000  0 10G03G14G16G22G23G26G27G29G31G32      -0.000283390
  24139379.294 5   1592567.891 5   1229670.54346  24139380.56046
  21236019.513 6   2828242.645 6   2195049.26248  21236018.03248
  20780862.474 6    289538.711 6    226304.69148  20780859.36048
  24176292.685 5   2313348.078 5   1782106.73845  24176290.88845
  23948941.560 5  -1787100.738 5   -584167.29746  23948937.15746
  21131315.864 7   2135435.367 7   1657989.19548  21131317.06048
  22244173.146 5  -3341985.695 5  -2583787.07447  22244174.21647
  24494687.505 5   4068917.996 5   3029743.48446  24494686.72846
  21979178.146 7   1524187.586 7   1180881.81648  21979176.14248
  23563956.396 4   4681742.402 4   3610323.80946  23563957.60646
 18  5 30  0 44 30.0010000  0 10G03G14G16G22G23G26G27G29G31G32      -0.000281048
  24140951.919 5   1600826.188 5   1236105.54746  24140952.11446
  21238641.614 6   2842022.160 6   2205786.54348  21238639.99348
  20781413.591 6    292436.418 6    228562.64548  20781410.71248
  24178346.653 5   2324140.301 5   1790516.25045  24178344.35645
  23946582.872 5  -1799496.406 5   -593826.27746  23946578.36846
  21133224.638 7   2145467.469 7   1665806.41048  21133225.89648
  22241723.528 6  -3354863.797 6  -2593821.96147  22241722.95847
  24498210.521 5   4087433.855 5   3044171.40246  24498210.60646
  21980536.021 7   1531323.000 7   1186441.86348  21980533.72448
  23567903.528 4   4702491.270 4   3626491.75846  23567905.84546
 18  5 30  0 44 35.0010000  0 10G03G14G16G22G23G26G27G29G31G32      -0.000278706
  24142524.599 5   1609096.324 5   1242549.83246  24142525.30646
  21241267.294 6   2855816.922 6   2216535.69548  21241265.15348
  20781967.864 6    295347.035 6    230830.65248  20781964.99348
  24180402.208 5   2334939.508 5   1798931.19545  24180399.53645
  23944225.192 5  -1811884.379 5   -603479.21946  23944221.27146
  21135135.130 7   2155507.445 7   1673629.76648  21135136.49348
  22239274.403 6  -3367732.289 6  -2603849.36347  22239274.26347
  24501736.521 5   4105960.242 5   3058607.55546  24501735.67746
  21981895.083 7   1538464.305 7   1192006.51648  21981892.93148
  23571854.067 5   4723248.055 5   3642665.82446  23571856.10346
 18  5 30  0 44 40.0010000  0 10G03G14G16G22G23G26G27G29G31G32      -0.000276361
  24144100.552 5   1617377.969 5   1249003.04346  24144101.74746
  21243894.669 6   2869626.531 6   2227296.44148  21243893.10648
  20782524.271 6    298270.195 6    233108.44548  20782521.27148
  24182459.138 5   2345745.320 5   1807351.26645  24182455.96245
  23941869.302 5  -1824264.977 5   -613126.43446  23941865.48946
  21137047.489 7   2165554.945 7   1681458.97748  21137048.55648
  22236827.919 6  -3380591.395 6  -2613869.45347  22236827.46647
  24505263.505 5   4124496.953 5   3073051.73446  24505263.74346
  21983255.021 7   1545611.215 7   1197575.53548  21983253.03248
  23575806.122 5   4744012.371 5   3658845.74646  23575807.36046
 18  5 30  0 44 45.0010000  0 10G03G14G16G22G23G26G27G29G31G32      -0.000274017
  24145678.786 5   1625671.531 5   1255465.56646  24145680.11446
  21246525.575 6   2883451.438 6   2238069.08648  21246523.67348
  20783082.880 6    301206.363 6    235396.37148  20783080.12648
  24184517.044 5   2356558.246 5   1815776.91045  24184513.46245
  23939514.560 5  -1836637.859 5   -622767.64146  23939510.47846
  21138960.888 7   2175610.352 7   1689294.35548  21138961.97048
  22234382.239 6  -3393440.754 6  -2623881.93847  22234382.15347
  24508793.146 5   4143044.281 5   3087504.19546  24508792.53646
  21984616.091 7   1552764.141 7   1203149.24248  21984614.17748
  23579758.708 5   4764784.668 5   3675031.93446  23579759.81346
 18  5 30  0 44 50.0010000  0 10G03G14G16G22G23G26G27G29G31G32      -0.000271669
  24147259.192 5   1633977.055 5   1261937.39146  24147259.93146
  21249159.763 6   2897291.711 6   2248853.69948  21249157.45048
  20783644.591 7    304155.551 7    237694.43048  20783641.76748
  24186576.255 5   2367378.176 5   1824208.02745  24186572.85645
  23937162.239 5  -1849002.965 5   -632402.79746  23937157.85346
  21140875.638 7   2185673.781 7   1697135.98848  21140877.03648
  22231939.185 6  -3406280.250 6  -2633886.71547  22231938.64947
  24512325.435 5   4161602.340 5   3101965.00846  24512323.62646
  21985978.341 7   1559923.160 7   1208727.69548  21985976.11048
  23583714.255 5   4785565.004 5   3691224.33246  23583714.16546
 18  5 30  0 44 55.0010000  0 10G03G14G16G22G23G26G27G29G31G32      -0.000269321
  24148842.200 5   1642294.727 5   1268418.64546  24148842.67346
  21251796.294 6   2911147.492 6   2259650.42248  21251794.14248
  20784208.255 7    307117.879 7    240002.74248  20784204.97848
  24188635.528 4   2378205.500 4   1832644.87145  24188633.20845
  23934810.677 5  -1861359.996 5   -642031.63346  23934806.54446
  21142792.669 7   2195745.336 7   1704983.94548  21142793.66148
  22229497.231 6  -3419109.680 6  -2643883.68047  22229497.77847
  24515857.271 5   4180171.277 5   3116434.30146  24515857.51346
  21987341.872 7   1567088.445 7   1214311.03948  21987339.54448
  23587670.091 5   4806353.457 5   3707423.14546  23587670.02446
 18  5 30  0 45  0.0010000  0 10G03G14G16G22G23G26G27G29G31G32      -0.000266972
  24150427.528 5   1650624.578 5   1274909.49646  24150427.47846
  21254435.521 6   2925018.883 6   2270459.28548  21254433.43148
  20784773.942 7    310093.559 7    242321.44548  20784771.12248
  24190697.114 4   2389040.055 4   1841087.37945  24190695.10345
  23932460.974 5  -1873708.828 5   -651654.12946  23932456.72846
  21144710.544 7   2205825.180 7   1712838.36748  21144711.95448
  22227057.005 6  -3431928.969 6  -2653872.73847  22227058.09147
  24519393.669 5   4198751.172 5   3130912.12146  24519393.31046
  21988706.528 7   1574260.129 7   1219899.36348  21988704.49748
  23591628.388 4   4827150.203 4   3723628.34046  23591627.47846
 18  5 30  0 45  5.0010000  0 10G03G14G16G22G23G26G27G29G31G32      -0.000264622
  24152014.778 5   1658966.418 5   1281409.61746  24152014.87246
  21257078.028 6   2938905.672 6   2281280.15648  21257075.90348
  20785342.739 7    313082.270 7    244650.31348  20785340.09548
  24192761.435 4   2399881.828 4   1849535.49645  24192758.19645
  23930112.005 5  -1886049.836 5   -661270.48846  23930107.79846
  21146630.013 7   2215913.020 7   1720699.02048  21146631.20848
  22224620.216 6  -3444738.273 6  -2663854.00047  22224620.92747
  24522931.685 5   4217341.793 5   3145398.31646  24522930.86046
  21990072.271 7   1581437.887 7   1225492.41448  21990070.12648
  23595587.239 4   4847954.980 4   3739839.82846  23595586.77146
 18  5 30  0 45 10.0010000  0 10G03G14G16G22G23G26G27G29G31G32      -0.000262268
  24153604.310 5   1667320.094 5   1287918.95746  24153603.96246
  21259724.114 6   2952807.676 6   2292112.87948  21259721.75948
  20785913.950 6    316083.855 6    246989.19948  20785910.83748
  24194824.677 4   2410730.473 4   1857989.00845  24194822.84945
  23927765.060 5  -1898383.027 5   -670880.78146  23927761.04846
  21148551.067 7   2226008.711 7   1728565.78548  21148552.59948
  22222184.833 6  -3457537.801 6  -2673827.65247  22222185.37647
  24526471.067 4   4235942.977 4   3159892.75846  24526470.72046
  21991439.278 7   1588621.688 7   1231090.18448  21991437.12248
  23599547.208 3   4868767.566 3   3756057.40646  23599547.49746
 18  5 30  0 45 15.0010000  0 10G03G14G16G22G23G26G27G29G31G32      -0.000259914
  24155196.153 5   1675685.488 5   1294437.46146  24155195.86046
  21262372.161 6   2966724.797 6   2302957.38348  21262370.38848
  20786487.599 6    319098.301 6    249338.11748  20786484.90348
  24196890.739 4   2421586.043 4   1866447.89545  24196888.57545
  23925419.239 5  -1910708.496 5   -680485.04346  23925415.52146
  21150474.099 7   2236112.156 7   1736438.59448  21150474.77148
  22219750.599 6  -3470327.633 6  -2683793.74247  22219751.96247
  24530012.911 4   4254554.617 4   3174395.31646  24530012.29846
  21992807.271 7   1595811.379 7   1236692.53148  21992804.84148
  23603508.825 4   4889587.934 4   3772281.07046  23603509.16146
 18  5 30  0 45 20.0010000  0 10G03G14G16G22G23G26G27G29G31G32      -0.000257561
  24156790.575 5   1684062.953 5   1300965.32046  24156790.49746
  21265023.192 6   2980657.418 6   2313813.96548  21265021.39648
  20787063.997 6    322125.867 6    251697.25448  20787061.26348
  24198956.802 4   2432448.836 4   1874912.34445  24198955.82545
  23923075.317 5  -1923025.883 5   -690083.01646  23923071.63446
  21152397.849 7   2246223.738 7   1744317.74648  21152398.79048
  22217318.771 6  -3483107.270 6  -2693751.90247  22217319.32147
  24533556.083 4   4273177.090 4   3188906.35246  24533555.84946
  21994176.630 7   1603007.367 7   1242299.79748  21994174.73948
  23607471.989 4   4910416.406 4   3788511.02346  23607472.74346
 18  5 30  0 45 25.0010000  0 10G03G14G16G22G23G26G27G29G31G32      -0.000255203
  24158386.903 5   1692452.211 5   1307502.39846  24158387.02146
  21267677.833 6   2994605.250 6   2324682.41848  21267675.69248
  20787642.130 6    325166.301 6    254066.42248  20787639.40748
  24201025.677 4   2443318.539 4   1883382.25045  24201024.31045
  23920733.106 5  -1935335.406 5   -699674.84046  23920729.31046
  21154323.591 7   2256343.125 7   1752202.97348  21154324.72848
  22214888.817 6  -3495877.086 6  -2703702.39847  22214889.94647
  24537101.622 4   4291810.070 4   3203425.54746  24537101.68846
  21995547.310 7   1610209.332 7   1247911.70748  21995544.86048
  23611436.505 4   4931252.703 4   3804747.08646  23611437.97046
 18  5 30  0 45 30.0010000  0 10G03G14G16G22G23G26G27G29G31G32      -0.000252846
  24159985.817 5   1700852.949 5   1314048.42646  24159985.83346
  21270334.403 6   3008568.016 6   2335562.48848  21270332.09948
  20788223.575 7    328219.332 7    256445.39848  20788220.39948
  24203095.083 5   2454194.902 5   1891857.31645  24203094.48145
  23918392.427 5  -1947637.336 5   -709260.74246  23918388.70846
  21156251.106 7   2266470.070 7   1760094.09848  21156251.89248
  22212459.927 6  -3508637.320 6  -2713645.43447  22212461.52447
  24540650.263 5   4310453.320 5   3217952.74646  24540649.50946
  21996919.106 7   1617417.012 7   1253528.07848  21996916.74748
  23615403.685 5   4952096.594 5   3820989.07046  23615404.47846
 18  5 30  0 45 35.0010000  0 10G03G14G16G22G23G26G27G29G31G32      -0.000250486
  24161585.763 5   1709264.930 5   1320603.20346  24161586.75146
  21272994.528 6   3022545.379 6   2346453.93448  21272992.72448
  20788806.552 7    331284.621 7    258833.93048  20788803.48948
  24205165.763 4   2465077.609 4   1900337.35945  24205165.69645
  23916052.169 5  -1959931.969 5   -718840.97746  23916049.08746
  21158179.317 7   2276604.211 7   1767990.83248  21158180.39248
  22210034.052 6  -3521388.219 6  -2723581.20347  22210035.48547
  24544198.458 3   4329106.641 3   3232487.80546  24544199.43546
  21998291.560 7   1624630.137 7   1259148.69548  21998288.66148
  23619371.177 5   4972947.680 5   3837236.65246  23619372.87646
 18  5 30  0 45 40.0010000  0 10G03G14G16G22G23G26G27G29G31G32      -0.000248127
  24163188.771 5   1717688.625 5   1327167.14146  24163189.95446
  21275657.036 6   3036537.895 6   2357357.18448  21275655.06348
  20789392.747 7    334362.738 7    261232.46148  20789389.51348
  24207236.989 3   2475967.027 3   1908822.65246  24207237.43846
  23913714.763 5  -1972218.840 5   -728415.14146  23913710.69246
  21160109.216 7   2286746.156 7   1775893.64148  21160110.41548
  22207610.200 6  -3534129.242 6  -2733509.28147  22207611.23147
  24547751.216 4   4347770.125 4   3247030.78146  24547750.99346
  21999665.380 7   1631849.266 7   1264773.97748  21999662.62648
  23623341.177 5   4993806.559 5   3853490.28946  23623342.21646
 18  5 30  0 45 45.0010000  0 10G03G14G16G22G23G26G27G29G31G32      -0.000245766
  24164794.067 5   1726123.832 5   1333739.99646  24164795.75546
  21278322.708 6   3050545.316 6   2368272.05148  21278320.81348
  20789980.505 6    337453.500 6    263640.84848  20789977.50948
  24209310.825 3   2486863.180 3   1917313.14846  24209311.69246
  23911377.599 5  -1984498.059 5   -737983.35546  23911373.86446
  21162040.771 7   2296895.656 7   1783802.32848  21162041.80248
  22205187.153 6  -3546860.586 6  -2743429.82447  22205188.38847
  24551304.591 4   4366443.977 4   3261581.79746  24551304.68146
  22001040.661 7   1639074.230 7   1270403.81348  22001037.96648
  23627312.177 5   5014673.016 5   3869749.83246  23627312.95846
 18  5 30  0 45 50.0010000  0 10G03G14G16G22G23G26G27G29G31G32      -0.000243404
  24166401.044 5   1734570.801 5   1340322.08246  24166402.95046
  21280991.060 6   3064567.895 6   2379198.72748  21280989.04448
  20790571.310 7    340557.086 7    266059.21948  20790567.60648
  24211387.052 3   2497766.188 3   1925809.02345  24211386.97045
  23909042.677 5  -1996769.461 5   -747545.50446  23909039.10346
  21163973.614 7   2307052.941 7   1791717.09448  21163974.57148
  22202767.028 6  -3559582.031 6  -2753342.64547  22202767.50547
  24554859.685 4   4385128.305 4   3276141.00046  24554859.72846
  22002416.161 7   1646305.191 7   1276038.32448  22002413.92348
  23631284.747 5   5035547.234 5   3886015.41446  23631285.93546
 18  5 30  0 45 55.0010000  0 10G03G14G16G22G23G26G27G29G31G32      -0.000241039
  24168011.200 5   1743029.770 5   1346913.45746  24168012.62246
  21283662.638 6   3078605.938 6   2390137.46148  21283660.61048
  20791164.442 6    343673.813 6    268487.84048  20791160.90348
  24213462.950 3   2508676.371 3   1934310.46945  24213463.40745
  23906708.927 5  -2009032.660 5   -757101.22346  23906705.14646
  21165907.981 7   2317218.309 7   1799638.15248  21165909.37648
  22200347.700 6  -3572293.234 6  -2763247.47747  22200348.56047
  24558417.294 3   4403823.367 3   3290708.57846  24558417.20846
  22003793.224 7   1653542.465 7   1281677.76248  22003791.28648
  23635258.450 5   5056429.480 5   3902287.25446  23635259.86446
 18  5 30  0 46  0.0010000  0 10G03G14G16G22G23G26G27G29G31G32      -0.000238674
  24169623.489 5   1751500.410 5   1353513.96946  24169624.89946
  21286336.685 6   3092659.160 6   2401088.01648  21286335.01348
  20791759.763 6    346803.340 6    270926.42248  20791756.77848
  24215540.200 3   2519593.336 3   1942817.15645  24215540.24345
  23904376.208 5  -2021288.008 5   -766650.84046  23904372.94246
  21167843.927 7   2327391.383 7   1807565.22748  21167845.08748
  22197930.911 6  -3584994.543 6  -2773144.59447  22197931.52147
  24561976.833 3   4422528.855 3   3305284.28946  24561977.47046
  22005171.849 7   1660785.727 7   1287321.85948  22005169.61448
  23639234.325 5   5077319.484 5   3918565.18446  23639235.19246
 18  5 30  0 46  5.0010000  0 10G03G14G16G22G23G26G27G29G31G32      -0.000236307
  24171237.583 4   1759983.133 4   1360123.88346  24171239.30646
  21289014.653 6   3106727.875 6   2412050.64848  21289012.48148
  20792358.224 6    349946.113 6    273375.34048  20792354.57548
  24217618.692 4   2530517.555 4   1951329.55545  24217618.98945
  23902045.685 5  -2033535.020 5   -776193.97346  23902042.84146
  21169781.442 7   2337572.633 7   1815498.67248  21169782.36848
  22195514.536 6  -3597685.473 6  -2783033.62147  22195516.10347
  24565538.099 3   4441245.199 3   3319868.44546  24565538.89646
  22006551.466 7   1668035.402 7   1292970.95348  22006549.19248
  23643210.263 5   5098217.590 5   3934849.37546  23643211.90346
 18  5 30  0 46 10.0010000  0 10G03G14G16G22G23G26G27G29G31G32      -0.000233938
  24172853.591 4   1768477.887 4   1366743.16846  24172855.72446
  21291694.427 6   3120812.031 6   2423025.30548  21291692.74748
  20792958.575 7    353101.965 7    275834.44148  20792955.09148
  24219699.606 4   2541448.887 4   1959847.47745  24219699.25145
  23899717.380 5  -2045773.867 5   -785730.74646  23899713.75546
  21171720.653 7   2347761.902 7   1823438.35948  21171721.41548
  22193101.981 6  -3610366.152 6  -2792914.67647  22193103.48147
  24569102.403 3   4459972.285 3   3334460.96546  24569102.19246
  22007932.364 7   1675291.441 7   1298625.00048  22007930.18848
  23647188.364 5   5119123.715 5   3951139.83646  23647190.65346
 18  5 30  0 46 15.0010000  0 10G03G14G16G22G23G26G27G29G31G32      -0.000231569
  24174472.599 5   1776984.398 5   1373371.58246  24174474.63446
  21294377.685 6   3134911.402 6   2434011.82448  21294375.81048
  20793561.231 7    356270.672 7    278303.56648  20793558.17748
  24221780.778 3   2552387.070 3   1968370.66045  24221780.53245
  23897390.013 5  -2058004.641 5   -795261.23046  23897386.22846
  21173661.052 7   2357958.988 7   1831384.14548  21173661.84148
  22190691.138 6  -3623036.746 6  -2802787.87147  22190692.27447
  24572668.349 4   4478709.734 4   3349061.55146  24572667.81746
  22009314.122 7   1682553.578 7   1304283.80148  22009312.36448
  23651166.661 4   5140037.613 4   3967436.36746  23651169.89946
 18  5 30  0 46 20.0010000  0 10G03G14G16G22G23G26G27G29G31G32      -0.000229198
  24176092.505 4   1785502.598 4   1380009.16046  24176095.43846
  21297063.192 6   3149025.949 6   2445010.16048  21297061.77448
  20794166.942 6    359452.227 6    280782.69548  20794163.59148
  24223864.216 3   2563332.074 3   1976899.19145  24223862.73145
  23895063.614 5  -2070227.480 5   -804785.52046  23895060.15746
  21175602.591 7   2368163.855 7   1839335.99248  21175604.08748
  22188281.872 6  -3635697.316 6  -2812653.23047  22188282.84547
  24576234.997 4   4497457.770 4   3363670.43046  24576235.26346
  22010696.966 7   1689821.801 7   1309947.35248  22010695.52448
  23655148.364 4   5160959.277 4   3983738.93046  23655151.55646
 18  5 30  0 46 25.0010000  0 10G03G14G16G22G23G26G27G29G31G32      -0.000226826
  24177715.536 3   1794032.121 3   1386655.52746  24177718.88046
  21299751.841 6   3163155.227 6   2456019.97748  21299750.70048
  20794774.646 6    362646.203 6    283271.51248  20794771.38848
  24225948.560 2   2574283.566 2   1985432.86745  24225947.76345
  23892739.099 5  -2082442.617 5   -814303.80546  23892735.79446
  21177545.661 7   2378376.035 7   1847293.53148  21177547.04448
  22185874.692 6  -3648348.227 6  -2822511.09047  22185874.92347
  24579806.052 4   4516215.769 4   3378287.05446  24579805.01746
  22012081.630 7   1697095.691 7   1315615.30548  22012079.38448
  23659129.606 3   5181888.223 3   4000047.23046  23659133.75546
 18  5 30  0 46 30.0010000  0 10G03G14G16G22G23G26G27G29G31G32      -0.000224453
  24179342.31713                   1393310.34056  24179343.90756
  21302443.442 6   3177299.484 6   2467041.48048  21302442.09948
  20795384.903 6    365852.785 6    285770.14148  20795381.84148
  24228032.27113                   1993971.73055  24228031.53255
  23890416.161 5  -2094650.023 5   -823816.04946  23890412.61846
  21179490.169 7   2388595.820 7   1855256.99248  21179491.54048
  22183469.231 6  -3660989.203 6  -2832361.20747  22183469.76347
  24583379.48911                                
  22013467.028 7   1704375.539 7   1321287.90648  22013464.70048
  23663114.489 4   5202824.595 4   4016361.30246  23663118.25546
 18  5 30  0 46 35.0010000  0  8G03G14G16G23G26G27G31G32            -0.000222076
  24180969.62214                   1399974.40956  24180971.85356
  21305137.411 6   3191458.980 6   2478074.84848  21305136.01748
  20795997.341 7    369072.301 7    288278.84848  20795994.37248
  23888094.896 5  -2106849.223 5   -833321.93846  23888091.81746
  21181436.802 7   2398823.387 7   1863226.53548  21181438.10348
  22181065.302 6  -3673620.055 6  -2842203.42247  22181065.81047
  22014853.013 7   1711661.566 7   1326965.32448  22014851.50948
  23667102.208 5   5223768.958 5   4032681.53846  23667103.64246
 18  5 30  0 46 40.0010000  0  9G03G14G16G22G23G26G27G31G32         -0.000219702
  24182598.958 3   1819689.219 3   1406647.82046  24182601.23946
  21307835.372 6   3205633.570 6   2489119.98848  21307833.86048
  20796612.224 6    372304.547 6    290797.49648  20796609.56348
  24232206.63013   2607173.47713                
  23885774.692 5  -2119040.531 5   -842821.64146  23885771.53246
  21183384.411 7   2409058.695 7   1871202.07848  21183385.76348
  22178663.958 6  -3686240.852 6  -2852037.80547  22178664.43147
  22016240.880 7   1718953.645 7   1332647.47748  22016238.89948
  23671085.817 4   5244720.832 4   4049007.72346  23671089.96646
 18  5 30  0 46 45.0010000  0  9G03G14G16G22G23G26G27G31G32         -0.000217325
  24184231.185 4   1828265.133 4   1413330.37146  24184233.21646
  21310535.544 6   3219823.184 6   2500176.81648  21310533.98548
  20797230.060 6    375549.461 6    293325.99248  20797227.16948
  24234296.747 4   2618151.863 4                
  23883457.091 5  -2131223.852 5   -852315.12946  23883453.11046
  21185333.833 7   2419301.570 7   1879183.54748  21185334.72848
  22176264.349 6  -3698851.645 6  -2861864.39147  22176264.39947
  22017629.161 7   1726251.715 7   1338334.28548  22017627.68548
  23675074.161 4   5265680.328 4   4065339.77746  23675078.31046
 18  5 30  0 46 50.0010000  0  9G03G14G16G22G23G26G27G31G32         -0.000214947
  24185865.325 5   1836852.609 5   1420021.89546  24185866.93546
  21313238.552 6   3234027.801 6   2511245.35248  21313236.84948
  20797849.731 6    378807.070 6    295864.39548  20797846.76348
  24236386.099 4   2629136.887 4                
  23881139.919 5  -2143399.234 5   -861802.44546  23881135.93546
  21187284.036 7   2429552.063 7   1887170.94148  21187285.38448
  22173866.896 6  -3711452.426 6  -2871683.18047  22173866.54447
  22019019.700 7   1733555.773 7   1344025.75048  22019017.29848
  23679064.747 5   5286647.426 5   4081677.74646  23679068.54046
 18  5 30  0 46 55.0010000  0 10G03G14G16G22G23G26G27G29G31G32      -0.000212566
  24187501.263 5   1845452.012 5   1426722.71546  24187503.14646
  21315944.372 6   3248247.859 6   2522325.91448  21315942.71248
  20798472.192 6    382077.809 6    298413.02348  20798469.19248
  24238478.505 4   2640128.895 4                
  23878824.005 5  -2155566.223 5   -871283.22746  23878820.88446
  21189236.224 7   2439810.602 7   1895164.60248  21189237.88048
  22171470.942 6  -3724042.711 6  -2881493.78547  22171470.22447
  24601264.95014     16559.37914                
  22020410.677 7   1740866.293 7   1349722.25448  22020408.56048
  23683056.677 5   5307622.496 5   4098021.91446  23683059.53246
 18  5 30  0 47  0.0010000  0 10G03G14G16G22G23G26G27G29G31G32      -0.000210182
  24189140.099 4   1854063.969 4   1433433.32446  24189141.67346
  21318653.216 6   3262483.887 6   2533418.92648  21318651.25148
  20799097.161 6    385362.227 6    300972.30548  20799094.29048
  24240572.169 3   2651128.531 3                
  23876510.575 5  -2167724.156 5   -880756.94546  23876506.86046
  21191190.192 7   2450077.691 7   1903164.93048  21191191.70848
  22169077.208 6  -3736621.977 6  -2891295.80547  22169076.66547
  24604847.083 4     35390.762 4   3393500.39556  24604846.02856
  22021803.106 7   1748183.852 7   1355424.23848  22021801.26748
  23687049.716 6   5328606.137 6   4114372.78146  23687052.90346
 18  5 30  0 47  5.0010000  0 10G03G14G16G22G23G26G27G29G31G32      -0.000207798
  24190780.474 4   1862688.410 4   1440153.68446  24190782.64646
  21321365.130 6   3276735.941 6   2544524.41448  21321363.25148
  20799724.591 6    388660.348 6    303542.26648  20799722.36048
  24242666.560 4   2662135.895 4                
  23874198.794 5  -2179873.098 5   -890223.65646  23874195.22446
  21193145.536 7   2460353.398 7   1911171.95748  21193146.84148
  22166685.122 6  -3749190.105 6  -2901089.14147  22166685.20447
  24608432.810 3     54233.438 3   3408182.96946  24608431.57146
  22023196.935 7   1755508.465 7   1361131.72348  22023194.44248
  23691045.114 6   5349598.324 6   4130730.29346  23691047.16946
 18  5 30  0 47 10.0010000  0 10G03G14G16G22G23G26G27G29G31G32      -0.000205412
  24192424.349 5   1871324.895 5   1446883.41846  24192425.77146
  21324080.161 6   3291003.492 6   2555641.98848  21324078.25548
  20800354.614 6    391971.609 6    306122.46148  20800351.98548
  24244763.013 3   2673150.316 3                
  23871888.286 5  -2192013.590 5   -899683.77046  23871885.54446
  21195102.333 7   2470637.141 7   1919185.23448  21195103.68848
  22164295.606 6  -3761747.715 6  -2910874.28147  22164295.97047
  24612020.247 3     73086.711 3   3422873.82846  24612019.15346
  22024591.950 7   1762839.602 7   1366844.28548  22024589.75948
  23695041.239 5   5370598.527 5   4147094.05546  23695043.71246
 18  5 30  0 47 15.0010000  0 10G03G14G16G22G23G26G27G29G31G32      -0.000203024
  24194070.013 4   1879973.418 4   1453622.52746  24194071.32146
  21326798.419 6   3305286.512 6   2566771.59848  21326796.23948
  20800987.528 6    395296.055 6    308712.94148  20800984.68548
  24246860.614 3   2684171.859 3                
  23869580.286 5  -2204145.477 5   -909137.19546  23869576.27446
  21197060.966 7   2480929.055 7   1927204.89548  21197062.42348
  22161907.942 6  -3774294.688 6  -2920651.14147  22161908.47847
  24615609.700 3     91950.766 3   3437573.10546  24615609.13046
  22025988.325 7   1770177.336 7   1372561.99248  22025986.11848
  23699039.067 5   5391606.781 5   4163464.07446  23699041.48146
 18  5 30  0 47 20.0010000  0 10G03G14G16G22G23G26G27G29G31G32      -0.000200634
  24195718.380 5   1888633.590 5   1460370.69546  24195719.60646
  21329518.864 6   3319584.730 6   2577913.06648  21329516.88448
  20801622.185 6    398633.320 6    311313.40248  20801619.57948
  24248958.349 3   2695200.145 3                
  23867273.286 5  -2216269.168 5   -918584.23846  23867269.54846
  21199021.013 7   2491228.723 7   1935230.60948  21199022.38848
  22159521.685 6  -3786831.320 6  -2930419.94547  22159523.10347
  24619201.435 2    110825.180 2   3452280.44946  24619200.70046
  22027386.356 7   1777521.262 7   1378284.52048  22027383.41548
  23703038.708 5   5412622.723 5   4179840.11346  23703040.64246
 18  5 30  0 47 25.0010000  0 10G03G14G16G22G23G26G27G29G31G32      -0.000198244
  24197369.044 5   1897305.656 5   1467128.13346  24197370.11446
  21332243.091 6   3333898.363 6   2589066.53548  21332241.12248
  20802259.763 6    401983.668 6    313924.06648  20802257.22448
  24251058.247 2   2706235.398 2                
  23864967.505 5  -2228384.410 5   -928024.66046  23864963.95046
  21200982.349 7   2501536.328 7   1943262.51248  21200983.72848
  22157138.075 6  -3799357.473 6  -2940180.56647  22157139.59547
  24622794.692 3    129710.133 3   3466995.99645  24622794.78645
  22028785.286 7   1784871.762 7   1384012.17248  22028782.32948
  23707039.606 5   5433646.566 5   4196222.27346  23707041.46246
 18  5 30  0 47 30.0010000  0 10G03G14G16G22G23G26G27G29G31G32      -0.000195850
  24199021.138 5   1905989.875 5   1473895.04746  24199022.24346
  21334969.685 6   3348227.652 6   2600232.20748  21334967.77448
  20802899.536 6    405347.336 6    316545.10548  20802897.49348
  24253160.161 3   2717277.898 3                
  23862664.060 5  -2240490.871 5   -937458.27046  23862660.26346
  21202945.614 7   2511852.223 7   1951300.87548  21202947.05648
  22154756.380 6  -3811872.801 6  -2949932.77747  22154757.95847
  24626390.599 3    148605.957 3   3481720.02046  24626390.40346
  22030185.067 7   1792228.988 7   1389745.07048  22030182.55648
  23711041.685 5   5454678.563 5   4212610.83646  23711044.25146
 18  5 30  0 47 35.0010000  0 10G03G14G16G22G23G26G27G29G31G32      -0.000193457
  24200675.771 5   1914685.894 5   1480671.14646  24200677.09146
  21337699.411 6   3362572.270 6   2611409.82448  21337697.18848
  20803542.333 6    408724.016 6    319176.28148  20803539.96648
  24255262.450 3   2728327.367 3                
  23860361.349 5  -2252588.867 5   -946885.25846  23860357.43146
  21204910.200 7   2522175.973 7   1959345.35548  21204911.39948
  22152376.856 6  -3824377.563 6  -2959676.74247  22152378.79447
  24629988.747 3    167512.355 3   3496452.25845  24629988.96245
  22031586.192 7   1799592.598 7   1395482.94548  22031584.26348
  23715045.247 4   5475718.422 4   4229005.49646  23715048.36046
 18  5 30  0 47 40.0010000  0 10G03G14G16G22G23G26G27G29G31G32      -0.000191061
  24202332.927 5   1923393.578 5   1487456.35946  24202334.25946
  21340431.872 6   3376932.008 6   2622599.22348  21340429.97448
  20804187.591 6    412113.492 6    321817.43048  20804184.87648
  24257366.411 3   2739383.516 3   2007012.94555  24257362.67755
  23858061.060 5  -2264678.617 5   -956305.85946  23858057.09146
  21206876.185 7   2532507.453 7   1967395.84048  21206877.83748
  22149999.122 6  -3836871.973 6  -2969412.64847  22150001.36847
  24633588.630 3    186429.023 3   3511192.53545  24633588.34145
  22032988.638 7   1806962.500 7   1401225.72348  22032986.27448
  23719049.005 2   5496765.906 2   4245406.10946  23719052.50146
 18  5 30  0 47 45.0010000  0 10G03G14G16G22G23G26G27G29G31G32      -0.000188665
  24203992.474 5   1932112.367 5   1494250.20346  24203993.60646
  21343167.403 6   3391306.410 6   2633800.05148  21343165.51348
  20804834.763 6    415515.273 6    324468.16048  20804832.10348
  24259471.739 3   2750445.926 3   2015632.99245  24259468.25145
  23855762.310 5  -2276760.559 5   -965720.34446  23855758.14246
  21208843.560 7   2542846.121 7   1975451.94548  21208845.03248
  22147623.239 5  -3849356.547 5  -2979140.88347  22147625.26747
  24637189.958 4    205355.543 4   3525940.46145  24637190.06045
  22034392.067 7   1814338.098 7   1406972.93448  22034389.70448
  23723058.013 1   5517820.477 1   4261812.26646  23723059.81046
 18  5 30  0 47 50.0010000  0 10G03G14G16G22G23G26G27G29G31G32      -0.000186268
  24205653.911 5   1940842.766 5   1501053.10246  24205655.13446
  21345905.481 6   3405695.961 6   2645012.68848  21345903.87648
  20805484.739 6    418929.859 6    327128.88348  20805481.81748
  24261578.427 4   2761515.086 4   2024258.32845  24261575.12645
  23853464.724 5  -2288834.156 5   -975128.34846  23853460.57146
  21210812.794 7   2553192.563 7   1983514.12148  21210813.68848
  22145249.606 5  -3861830.691 5  -2988861.00047  22145251.48147
  24640793.677 4    224292.402 4   3540696.46145  24640793.59945
  22035796.708 7   1821719.941 7   1412725.01648  22035794.61848
  23727063.981 1   5538882.664 1   4278224.39146  23727068.02446
 18  5 30  0 47 55.0010000  0 10G03G14G16G22G23G26G27G29G31G32      -0.000183868
  24207318.169 5   1949584.980 5   1507865.19146  24207319.00546
  21348646.763 6   3420100.820 6   2656237.24648  21348644.57948
  20806136.802 6    422357.469 6    329799.73848  20806134.00148
  24263685.911 4   2772591.109 4   2032888.94545  24263683.56045
  23851168.724 5  -2300899.234 5   -984529.68846  23851164.44646
  21212782.794 7   2563546.871 7   1991582.42248  21212784.31748
  22142877.427 6  -3874294.258 6  -2998572.87547  22142879.56747
  24644399.130 4    243239.699 4   3555460.53145  24644399.02445
  22037202.700 7   1829108.246 7   1418482.12948  22037200.88448
  23731074.177 2   5559952.773 2   4294642.67646  23731077.60346
 18  5 30  0 48  0.0010000  0  9G03G14G16G22G23G26G27G31G32         -0.000181469
  24208982.880 5   1958338.887 5   1514686.43446  24208984.57146
  21351390.911 6   3434520.922 6   2667473.69148  21351388.84948
  20806792.106 6    425797.953 6    332480.64148  20806788.93548
  24265795.90314   2783675.10914                
  23848874.66115                                
  21214754.708 6   2573909.051 6   1999656.84447  21214755.85347
  22140507.599 5  -3886747.273 5  -3008276.52747  22140511.03647
  22038609.521 5   1836502.965 5   1424244.26647  22038607.70447
  23735087.48916   5581030.56316   4311066.80156  23735088.96256
 18  5 30  0 48  5.0010000  0 10G03G14G16G22G23G26G27G29G31G32      -0.000179062
  24210651.146 4   1967104.602 4   1521516.81646  24210653.00146
  21354137.450 6   3448956.305 6   2678722.03948  21354136.07548
  20807448.622 6    429251.422 6    335171.65648  20807445.73148
  24267905.356 3   2794764.668 3                
  23846581.794 4  -2325003.906 4   -991670.51256  23846577.59956
  21216727.935 7   2584279.000 7   2007737.32048  21216729.35348
  22138140.942 6  -3899189.680 6  -3017971.90247  22138142.43147
  24651616.67713                                
  22040017.731 7   1843904.109 7   1430011.34448  22040016.18848
  23739095.396 3   5602116.094 3   4327497.23446  23739101.28246
 18  5 30  0 48 10.0010000  0 10G03G14G16G22G23G26G27G29G31G32      -0.000176659
  24212322.560 5   1975881.484 5   1528355.95346  24212323.05246
  21356887.403 6   3463406.387 6   2689981.84848  21356885.63448
  20808108.513 7    432717.293 7    337872.33648  20808104.96648
  24270017.208 3   2805860.648 3                
  23844290.567 4  -2337044.059 4  -1001052.46146  23844286.41546
  21218702.981 7   2594656.230 7   2015823.47748  21218703.97048
  22135775.731 6  -3911622.031 6  -3027659.46547  22135776.42747
  24655228.403 2    300153.598 2   3577338.11356  24655226.76356
  22041427.513 7   1851311.188 7   1435783.09848  22041425.73548
  23743110.435 4   5623208.863 4   4343933.05946  23743115.26346
 18  5 30  0 48 15.0010000  0 10G03G14G16G22G23G26G27G29G31G32      -0.000174253
  24213994.231 5   1984669.477 5   1535203.73846  24213995.68546
  21359640.114 6   3477871.172 6   2701253.09848  21359638.31748
  20808770.317 7    436195.512 7    340582.64148  20808766.85348
  24272130.942 4   2816962.762 4                
  23842001.208 4  -2349076.262 4  -1010428.18046  23841997.09546
  21220678.896 7   2605040.707 7   2023915.27748  21220679.96248
  22133411.708 6  -3924044.336 6  -3037339.18047  22133412.68147
  24658841.700 2    319141.348 2   3592133.93445  24658840.27845
  22042838.075 7   1858724.129 7   1441559.41048  22042836.22048
  23747125.817 5   5644308.781 5   4360374.54346  23747129.89646
 18  5 30  0 48 20.0010000  0 10G03G14G16G22G23G26G27G29G31G32      -0.000171848
  24215667.427 5   1993468.641 5   1542060.23446  24215669.86846
  21362395.552 6   3492350.730 6   2712535.86748  21362393.55648
  20809434.239 7    439686.191 7    343302.65648  20809431.47848
  24274244.255 3   2828071.270 3                
  23839713.638 5  -2361100.371 5  -1019797.61746  23839708.68546
  21222656.685 7   2615432.543 7   2032012.79748  21222657.39948
  22131049.794 6  -3936456.504 6  -3047010.99247  22131050.61047
  24662456.661 2    338139.133 2   3606937.32045  24662455.62245
  22044249.911 7   1866143.039 7   1447340.37948  22044247.84148
  23751142.989 5   5665416.012 5   4376821.70746  23751146.22846
 18  5 30  0 48 25.0010000  0 10G03G14G16G22G23G26G27G29G31G32      -0.000169439
  24217344.575 4   2002279.008 4   1548925.41846  24217346.59546
  21365153.927 6   3506844.875 6   2723830.00448  21365151.82548
  20810101.083 7    443189.172 7    346032.25448  20810097.77448
  24276357.692 4   2839185.848 4                
  23837426.388 5  -2373116.549 5  -1029160.87246  23837422.25946
  21224635.169 7   2625831.570 7   2040115.93848  21224636.36048
  22128689.583 6  -3948858.617 6  -3056674.98047  22128690.67347
  24666074.075 3    357146.652 3   3621748.39845  24666072.93545
  22045663.169 7   1873567.742 7   1453125.85248  22045660.99748
  23755160.036 5   5686530.332 5   4393274.40646  23755163.99746
 18  5 30  0 48 30.0010000  0 10G03G14G16G22G23G26G27G29G31G32      -0.000167032
  24219023.606 4   2011100.621 4   1555799.41446  24219025.89246
  21367914.950 6   3521353.832 6   2735135.67648  21367912.35348
  20810769.755 6    446704.594 6    348771.54348  20810766.69648
  24278474.528 4   2850306.840 4                
  23835141.450 5  -2385124.715 5  -1038517.87546  23835137.24346
  21226615.505 7   2636237.918 7   2048224.77348  21226616.27848
  22126330.669 6  -3961250.543 6  -3066331.02047  22126332.30247
  24669692.427 3    376164.055 3   3636567.17245  24669692.05245
  22047077.341 7   1880998.512 7   1458916.05548  22047074.77848
  23759179.817 5   5707651.879 5   4409732.69546  23759183.32146
 18  5 30  0 48 35.0010000  0 10G03G14G16G22G23G26G27G29G31G32      -0.000164621
  24220704.599 4   2019933.434 4   1562682.10546  24220706.51346
  21370678.716 6   3535877.609 6   2746452.91048  21370676.34548
  20811441.646 7    450232.512 7    351520.56348  20811438.36048
  24280591.333 4   2861434.152 4                
  23832857.974 5  -2397124.594 5  -1047868.41046  23832853.17346
  21228597.177 7   2646651.668 7   2056339.37948  21228597.92748
  22123974.810 6  -3973632.207 6  -3075979.07847  22123976.27147
  24673314.106 3    395191.469 3   3651393.70345  24673313.36045
  22048492.099 7   1888435.285 7   1464710.94948  22048489.85348
  23763201.935 6   5728780.711 6   4426196.69546  23763203.95046
 18  5 30  0 48 40.0010000  0 10G03G14G16G22G23G26G27G29G31G32      -0.000162210
  24222387.208 3   2028777.750 3   1569573.78946  24222389.62246
  21373445.192 6   3550416.383 6   2757781.81648  21373442.89648
  20812115.817 6    453773.117 6    354279.47748  20812112.26748
  24282710.716 4   2872568.055 4                
  23830576.185 5  -2409116.102 5  -1057212.45346  23830571.94246
  21230580.333 7   2657072.969 7   2064459.86348  21230581.06048
  22121620.841 6  -3986003.348 6  -3085618.92247  22121621.95047
  24676936.528 3    414229.000 3   3666228.14145  24676935.59945
  22049908.528 7   1895878.316 7   1470510.70348  22049906.02148
  23767223.060 5   5749917.051 5   4442666.52046  23767225.96646
 18  5 30  0 48 45.0010000  0 10G03G14G16G22G23G26G27G29G31G32      -0.000159798
  24224073.208 3   2037633.121 3   1576474.05946  24224073.98946
  21376214.599 6   3564969.828 6   2769122.16848  21376211.92748
  20812791.466 6    457326.031 6    357047.98448  20812788.36048
  24284830.442 3   2883708.090 3                
  23828295.317 5  -2421099.645 5  -1066550.25846  23828291.50946
  21232564.669 7   2667501.516 7   2072585.99648  21232565.44648
  22119268.700 6  -3998364.383 6  -3095250.89147  22119268.85347
  24680560.653 3    433276.316 3   3681070.17645  24680560.63045
  22051325.724 7   1903327.293 7   1476315.10248  22051323.86848
  23771247.130 5   5771060.461 5   4459141.88346  23771249.34146
 18  5 30  0 48 50.0010000  0 10G03G14G16G22G23G26G27G29G31G32      -0.000157385
  24225759.044 4   2046499.617 4   1583383.02046  24225761.51346
  21378986.692 6   3579537.965 6   2780473.96148  21378984.54448
  20813469.739 6    460891.305 6    359826.12148  20813466.70448
  24286953.130 3   2894854.234 3                
  23826016.481 5  -2433075.070 5  -1075881.76646  23826012.34146
  21234550.708 7   2677937.289 7   2080717.77348  21234551.29048
  22116918.122 6  -4010715.211 6  -3104874.92247  22116918.56047
  24684186.567 2    452333.387 2   3695919.82045  24684186.96645
  22052744.911 7   1910782.191 7   1482124.10948  22052742.01748
  23775272.341 5   5792211.008 5   4475622.80546  23775274.10346
 18  5 30  0 48 55.0010000  0 10G03G14G16G22G23G26G27G29G31G32      -0.000154970
  24227449.497 4   2055376.563 4   1590300.10946  24227450.59946
  21381761.817 6   3594120.074 6   2791836.63748  21381759.39248
  20814150.474 6    464468.270 6    362613.37148  20814147.50548
  24289075.677 4   2906006.039 4                
  23823739.591 5  -2445043.094 5  -1085207.49646  23823734.84946
  21236537.856 7   2688379.586 7   2088854.62148  21236538.52148
  22114569.856 6  -4023056.539 6  -3114491.52747  22114570.43547
  24687814.497 2    471399.594 2   3710776.64545  24687815.24745
  22054164.419 7   1918242.398 7   1487937.24248  22054161.96648
  23779299.185 5   5813367.992 5   4492108.70346  23779300.54046
 18  5 30  0 49  0.0010000  0 10G03G14G16G22G23G26G27G29G31G32      -0.000152555
  24229140.005 4   2064264.094 4   1597225.45746  24229141.59146
  21384539.177 6   3608716.336 6   2803210.34048  21384536.42748
  20814833.513 6    468057.004 6    365409.78148  20814830.61848
  24291197.888 4   2917163.434 4                
  23821463.528 5  -2457003.602 5  -1094527.36346  23821459.26746
  21238525.966 7   2698828.590 7   2096996.69548  21238526.86048
  22112223.364 6  -4035388.160 6  -3124100.58647  22112223.57547
  24691445.036 2    490475.035 2   3725640.59445  24691445.68145
  22055584.911 7   1925708.012 7   1493754.60948  22055582.60348
  23783325.583 5   5834531.500 5   4508599.72746  23783328.10646
 18  5 30  0 49  5.0010000  0 10G03G14G16G22G23G26G27G29G31G32      -0.000150139
  24230832.856 3   2073162.258 3   1604159.08646  24230834.94246
  21387319.552 6   3623326.762 6   2814595.09448  21387317.03248
  20815518.685 6    471657.645 6    368215.48048  20815515.68148
  24293322.958 4   2928326.492 4                
  23819189.075 5  -2468956.383 5  -1103841.22746  23819184.68846
  21240515.935 7   2709284.340 7   2105144.02348  21240516.56348
  22109878.614 6  -4047710.008 6  -3133702.02347  22109879.31047
  24695076.567 2    509559.711 2   3740511.71145  24695077.39945
  22057006.341 7   1933179.191 7   1499576.31348  22057004.43548
  23787354.536 5   5855701.695 5   4525095.95346  23787356.77446
 18  5 30  0 49 10.0010000  0 10G03G14G16G22G23G26G27G29G31G32      -0.000147722
  24232528.325 3   2082071.133 3   1611101.07046  24232530.29846
  21390102.489 6   3637951.496 6   2825990.97748  21390100.31348
  20816206.060 6    475270.246 6    371030.49648  20816203.10348
  24295446.614 3   2939495.277 3                
  23816915.896 5  -2480901.418 5  -1113149.04346  23816911.33746
  21242506.966 7   2719746.941 7   2113296.68848  21242507.77848
  22107535.192 6  -4060021.977 6  -3143295.75447  22107535.92747
  24698710.341 2    528653.918 2   3755390.40645  24698711.25945
  22058428.950 6   1940655.965 6   1505402.37148  22058427.38848
  23791384.349 4   5876878.609 4   4541597.44146  23791386.59946
 18  5 30  0 49 15.0010000  0 10G03G14G16G22G23G26G27G29G31G32      -0.000145302
  24234226.513 4   2090990.887 4   1618051.48046  24234227.82546
  21392888.263 6   3652590.719 6   2837398.15248  21392885.98548
  20816895.771 6    478895.020 6    373854.98848  20816893.70848
  24297575.653 2   2950670.230 2                
  23814645.35615  -2492836.43015                
  21244498.942 7   2730216.590 7   2121454.85548  21244500.11048
  22105194.552 6  -4072323.828 6  -3152881.61747  22105195.12247
  24702347.17714    547006.61714                
  22059853.021 6   1948138.539 6   1511232.93848  22059850.99348
  23795415.630 4   5898062.453 4   4558104.30946  23795417.66546
 18  5 30  0 49 20.0010000  0 10G03G14G16G22G23G26G27G29G31G32      -0.000142883
  24235926.114 3   2099921.512 3   1625010.40246  24235927.68146
  21395676.661 6   3667244.277 6   2848816.51648  21395674.52448
  20817587.763 6    482531.836 6    376688.87948  20817585.86048
  24299702.099 2   2961850.926 2                
  23812374.731 5  -2504765.547 5  -1121330.02056  23812368.96656
  21246493.005 7   2740693.207 7   2129618.45348  21246493.70048
  22102855.341 6  -4084615.598 6  -3162459.62947  22102856.01347
  24705982.419 2    566119.750 2                
  22061278.700 6   1955626.859 6   1517067.98448  22061275.97048
  23799448.317 4   5919253.070 4   4574616.48846  23799450.61446
 18  5 30  0 49 25.0010000  0 10G03G14G16G22G23G26G27G29G31G32      -0.000140463
  24237627.013 4   2108863.512 4   1631978.20346  24237628.56746
  21398467.724 6   3681912.863 6   2860246.57048  21398465.81748
  20818282.513 6    486181.344 6    379532.64848  20818280.24748
  24301830.771 3   2973038.125 3                
  23810106.583 5  -2516686.117 5  -1130618.76646  23810101.57546
  21248487.388 7   2751177.371 7   2137787.93448  21248488.89248
  22100518.099 6  -4096896.754 6  -3172029.34447  22100518.48147
  24709621.685 3    585243.035 3                
  22062704.763 6   1963121.453 6   1522907.91448  22062702.31048
  23803482.099 4   5940451.176 4   4591134.46946  23803484.57146
 18  5 30  0 49 30.0010000  0 10G03G14G16G22G23G26G27G29G31G32      -0.000138041
  24239330.896 3   2117816.602 3   1638954.62946  24239332.43146
  21401261.958 6   3696596.156 6   2871688.09448  21401259.87248
  20818979.146 6    489843.207 6    382386.04348  20818976.42748
  24303959.544 4   2984231.504 4                
  23807838.794 5  -2528598.453 5  -1139901.09846  23807834.70846
  21250484.380 7   2761668.754 7   2145963.04348  21250485.59148
  22098182.966 6  -4109167.563 6  -3181591.02047  22098183.82147
  24713262.614 2    604376.055 2                
  22064132.075 6   1970622.133 6   1528752.58248  22064129.79448
  23807518.036 5   5961656.316 5   4607657.94146  23807519.95846
 18  5 30  0 49 35.0010000  0 10G03G14G16G22G23G26G27G29G31G32      -0.000135618
  24241036.614 4   2126780.992 4   1645939.88346  24241038.34946
  21404058.708 6   3711294.328 6   2883141.21148  21404056.89248
  20819678.247 6    493517.633 6    385249.23448  20819675.95048
  24306091.427 4   2995431.234 4                
  23805574.771 6  -2540502.289 6  -1149176.81646  23805569.57546
  21252482.255 7   2772167.602 7   2154143.96148  21252483.48548
  22095850.130 6  -4121427.754 6  -3191144.41847  22095850.53247
  24716905.021 2    623519.043 2                
  22065560.505 6   1978129.047 6   1534602.11748  22065558.04048
  23811554.497 5   5982868.805 5   4624187.12846  23811555.83746
 18  5 30  0 49 40.0010000  0 10G03G14G16G22G23G26G27G29G31G32      -0.000133192
  24242745.192 4   2135756.574 4   1652933.82446  24242746.48146
  21406858.466 6   3726007.258 6   2894605.82848  21406856.41948
  20820380.146 6    497204.473 6    388122.09048  20820377.32148
  24308223.802 4   3006637.238 4                
  23803310.692 5  -2552397.797 5  -1158446.03947  23803306.00147
  21254481.474 7   2782673.707 7   2162330.54748  21254482.55248
  22093519.497 5  -4133677.480 5  -3200689.66447  22093519.94647
  24720550.013 2    642671.855 2                
  22066990.099 7   1985642.125 7   1540456.46148  22066987.59948
  23815591.786 5   6004088.441 5   4640721.90646  23815593.76346
 18  5 30  0 49 45.0010000  0 10G03G14G16G22G23G26G27G29G31G32      -0.000130768
  24244456.255 4   2144743.039 4   1659936.23046  24244456.92346
  21409661.435 6   3740734.652 6   2906081.72348  21409659.40348
  20821083.880 6    500903.492 6    391004.44548  20821081.42748
  24310357.583 5   3017849.168 5                
  23801047.942 6  -2564285.152 6  -1167708.90646  23801044.16146
  21256481.505 7   2793186.883 7   2170522.63748  21256483.39648
  22091190.403 6  -4145916.938 6  -3210226.91047  22091190.76347
  24724196.302 2    661834.191 2                
  22068420.856 7   1993161.109 7   1546315.39848  22068418.48148
  23819630.778 5   6025314.922 5   4657262.01246  23819633.23146
 18  5 30  0 49 50.0010000  0 10G03G14G16G22G23G26G27G29G31G32      -0.000128340
  24246168.005 5   2153740.836 5   1666947.50046  24246169.27846
  21412466.552 6   3755476.938 6   2917569.20348  21412464.68548
  20821790.341 6    504615.117 6    393896.61748  20821787.51748
  24312492.161 5   3029067.445 5                
  23798787.888 6  -2576163.961 6  -1176965.10947  23798782.93147
  21258483.981 7   2803707.465 7   2178720.49648  21258485.29048
  22088863.716 6  -4158145.785 6  -3219755.88747  22088863.44247
  24727844.888 2    681006.461 2                
  22069852.966 7   2000686.410 7   1552179.25848  22069849.84948
  23823672.364 4   6046548.762 4   4673807.82846  23823674.08746
 18  5 30  0 49 55.0010000  0 10G03G14G16G22G23G26G27G29G31G32      -0.000125912
  24247882.622 5   2162749.930 5   1673967.59046  24247883.38446
  21415274.622 6   3770234.238 6   2929068.39548  21415272.97448
  20822498.661 6    508339.379 6    396798.64548  20822496.15348
  24314628.208 5   3040292.172 5                
  23796529.325 6  -2588034.145 6  -1186214.60247  23796524.18547
  21260487.005 7   2814235.582 7   2186924.21548  21260489.10348
  22086538.591 6  -4170363.867 6  -3229276.46947  22086538.57947
  24731495.841 2    700188.785 2                
  22071285.997 7   2008218.129 7   1558048.12948  22071283.29848
  23827714.231 4   6067789.953 4   4690359.35246  23827715.67346
 18  5 30  0 50  0.0010000  0 10G03G14G16G22G23G26G27G29G31G32      -0.000123482
  24249600.060 5   2171770.230 5   1680996.35946  24249599.92346
  21418085.989 6   3785006.215 6   2940579.03148  21418084.17348
  20823209.841 6    512076.090 6    399710.36748  20823207.51348
  24316766.981 5   3051523.082 5                
  23794272.247 6  -2599895.914 6  -1195457.54346  23794267.49346
  21262492.013 7   2824770.945 7   2195133.58648  21262493.45048
  22084216.028 5  -4182571.379 5  -3238788.81347  22084215.47847
  24735147.700 2    719380.820 2                
  22072720.622 7   2015756.016 7   1563921.78948  22072717.43548
  23831756.708 4   6089038.273 4   4706916.49646  23831759.04846
 18  5 30  0 50  5.0010000  0 10G03G14G16G22G23G26G27G29G31G32      -0.000121050
  24251317.028 5   2180801.293 5   1688033.56646  24251318.47846
  21420899.325 6   3799792.660 6   2952100.93448  21420897.34948
  20823923.083 6    515824.918 6    402631.52748  20823920.87648
  24318905.075 5   3062759.883 5                
  23792016.091 5  -2611749.547 5  -1204694.12547  23792011.69647
  21264498.669 7   2835313.289 7   2203348.39848  21264499.61048
  22081894.755 6  -4194768.641 6  -3248293.18047  22081894.19647
  24738802.216 2    738582.398 2                
  22074155.661 7   2023299.824 7   1569800.10248  22074153.13848
  23835802.083 3   6110293.426 3   4723478.93046  23835803.99746
 18  5 30  0 50 10.0010000  0 10G03G14G16G22G23G26G27G29G31G32      -0.000118618
  24253037.755 4   2189842.980 4   1695079.02346  24253039.26746
  21423716.317 6   3814593.348 6   2963633.92648  21423714.08748
  20824638.997 7    519585.621 7    405561.93848  20824636.97048
  24321043.981 5   3074002.367 5                
  23789762.091 6  -2623595.219 6  -1213924.51647  23789757.74347
  21266505.653 7   2845862.438 7   2211568.50848  21266507.00948
  22079575.755 6  -4206955.797 6  -3257789.66447  22079575.15347
  24742457.005 1    757793.223 1                
  22075592.911 7   2030849.359 7   1575682.85248  22075589.85348
  23839849.747 2   6131555.176 2   4740046.52045  23839850.11445
 18  5 30  0 50 15.0010000  0 10G03G14G16G22G23G26G27G29G31G32      -0.000116184
  24254760.450 4   2198895.633 4   1702133.02746  24254761.60346
  21426535.622 6   3829408.551 6   2975178.23848  21426533.30248
  20825356.724 6    523358.570 6    408501.89848  20825354.51348
  24323184.060 5   3085250.863 5                
  23787509.185 6  -2635432.648 6  -1223148.49247  23787505.17347
  21268514.880 7   2856418.688 7   2219794.16048  21268515.85348
  22077258.224 6  -4219132.559 6  -3267278.03947  22077257.89947
  24746114.169 1    777013.609 1                
  22077030.169 7   2038404.891 7   1581570.28148  22077027.57548
  23843895.716 1   6152823.836 1   4756619.49245  23843897.41945
 18  5 30  0 50 20.0010000  0 10G03G14G16G22G23G26G27G29G31G32      -0.000113750
  24256485.028 4   2207959.008 4   1709195.39546  24256485.84946
  21429357.341 6   3844238.129 6   2986733.75048  21429355.48548
  20826077.146 6    527143.563 6    411451.24248  20826074.82548
  24325325.755 4   3096505.082 4                
  23785258.356 6  -2647261.957 6  -1232366.13747  23785253.75147
  21270524.825 7   2866981.848 7   2228025.20348  21270526.23548
  22074942.677 5  -4231299.043 5  -3276758.41447  22074942.59547
  24749774.794 1    796243.434 1                
  22078469.294 7   2045966.285 7   1587462.28148  22078466.48548
  23847943.614 1   6174099.254 1   4773197.73045  23847945.45045
 18  5 30  0 50 25.0010000  0 10G03G14G16G22G23G26G27G29G31G32      -0.000111317
  24258212.356 4   2217032.422 4   1716265.58646  24258212.32546
  21432182.021 6   3859081.363 6   2998299.89547  21432179.86047
  20826799.560 6    530939.887 6    414409.41448  20826796.91148
  24327468.560 4   3107764.480 4                
  23783008.880 6  -2659083.824 6  -1241577.96147  23783004.35347
  21272536.192 7   2877551.148 7   2236261.00848  21272537.35648
  22072630.005 5  -4243455.957 5  -3286231.33647  22072629.33347
  24753434.856 1    815481.898 1                
  22079908.919 7   2053532.875 7   1593358.33248  22079906.23548
  23851992.513 1   6195380.754 1   4789780.65645  23851994.91145
 18  5 30  0 50 30.0010000  0 10G03G14G16G22G23G26G27G29G31G32      -0.000108881
  24259940.192 5   2226116.203 5   1723343.84046  24259940.81346
  21435009.302 6   3873938.605 6   3009876.96948  21435006.93848
  20827524.302 6    534747.898 6    417376.69948  20827521.52448
  24329611.200 4   3119029.301 4                
  23780760.739 6  -2670897.859 6  -1250783.71547  23780756.49747
  21274548.349 7   2888127.000 7   2244501.91848  21274549.57148
  22070318.521 6  -4255602.941 6  -3295696.52047  22070317.66147
  24757098.013 1    834729.426 1                
  22081350.216 7   2061104.938 7   1599258.64548  22081347.40348
  23856044.247 1   6216668.621 1   4806368.66045  23856046.15745
 18  5 30  0 50 35.0010000  0 10G03G14G16G22G23G26G27G29G31G32      -0.000106443
  24261670.450 5   2235210.109 5   1730429.99246  24261671.26746
  21437839.075 6   3888809.617 6   3021464.75448  21437836.87248
  20828251.341 7    538567.352 7    420352.88748  20828248.50948
  24331755.661 4   3130299.227 4                
  23778513.771 6  -2682704.359 6  -1259983.59447  23778509.74347
  21276562.036 7   2898709.152 7   2252747.74248  21276563.50148
  22068009.021 6  -4267740.199 6  -3305154.12947  22068008.42747
  24760763.036 1    853985.711 1                
  22082791.817 7   2068682.266 7   1605163.05548  22082789.57948
  23860097.028 1   6237962.500 1   4822961.28945  23860097.88045
 18  5 30  0 50 40.0010000  0 10G03G14G16G22G23G26G27G29G31G32      -0.000104006
  24263403.388 4   2244314.797 4   1737524.55546  24263403.69646
  21440671.638 6   3903695.012 6   3033063.76248  21440669.33348
  20828980.317 7    542398.922 7    423338.52748  20828977.26748
  24333901.747 4   3141575.020 4                
  23776268.411 6  -2694502.574 6  -1269177.00047  23776264.61847
  21278577.302 7   2909298.258 7   2260998.98848  21278578.25948
  22065700.817 6  -4279867.066 6  -3314603.62547  22065700.36047
  24764429.091 2    873251.398 2                
  22084235.200 7   2076265.547 7   1611072.10248  22084232.96648
  23864149.771 3   6259263.285 3   4839559.29345  23864151.28645
 18  5 30  0 50 45.0010000  0 10G03G14G16G22G23G26G27G29G31G32      -0.000101568
  24265137.888 4   2253430.438 4   1744627.65646  24265138.53246
  21443506.685 6   3918595.027 6   3044674.16448  21443504.95448
  20829711.521 7    546242.766 7    426333.73048  20829708.92348
  24336048.474 4   3152856.781 4                
  23774024.661 6  -2706292.328 6  -1278363.82047  23774021.09547
  21280593.458 7   2919894.500 7   2269255.78948  21280594.86848
  22063395.364 6  -4291983.336 6  -3324044.87147  22063394.89247
  24768097.380 1    892526.715 1                
  22085679.356 7   2083854.957 7   1616985.90648  22085676.98148
  23868204.021 4   6280570.988 4   4856162.62945  23868205.94245
 18  5 30  0 50 50.0010000  0 10G03G14G16G22G23G26G27G29G31G32      -0.000099127
  24266874.950 5   2262557.039 5   1751739.29346  24266875.32546
  21446345.560 6   3933509.617 6   3056295.91848  21446343.26748
  20830445.630 7    550098.898 7    429338.50848  20830441.95448
  24338196.724 3   3164144.531 3                
  23771782.950 6  -2718073.633 6  -1287544.04747  23771779.26747
  21282611.435 7   2930497.875 7   2277518.15248  21282612.84948
  22061091.942 6  -4304088.980 6  -3333477.83647  22061091.33747
  24771767.708 1    911811.563 1                
  22087124.724 7   2091450.547 7   1622904.54748  22087122.49748
  23872259.747 4   6301885.707 4   4872771.46945  23872261.65745
 18  5 30  0 50 55.0010000  0 10G03G14G16G22G23G26G27G29G31G32      -0.000096685
  24268613.247 5   2271694.477 5   1758859.34446  24268614.13846
  21449185.872 6   3948438.719 6   3067928.98448  21449183.98948
  20831182.036 7    553967.180 7    432352.74248  20831178.44248
  24340345.708 3   3175438.184 3                
  23769542.106 6  -2729846.543 6  -1296717.74247  23769538.53247
  21284630.724 7   2941108.273 7   2285785.99648  21284631.85648
  22058790.146 6  -4316184.105 6  -3342902.60247  22058790.02147
  24775439.028 1    931106.012 1                
  22088571.794 7   2099052.152 7   1628827.87548  22088569.22048
  23876317.286 4   6323207.230 4   4889385.62145  23876319.00145
 18  5 30  0 51  0.0010000  0 10G03G14G16G22G23G26G27G29G31G32      -0.000094244
  24270354.333 5   2280842.695 5   1765987.81646  24270354.67346
  21452029.489 6   3963382.238 6   3079573.27748  21452027.34548
  20831919.958 7    557847.605 7    435376.44948  20831917.01348
  24342496.114 3   3186737.723 3                
  23767304.130 6  -2741611.078 6  -1305884.91847  23767300.41147
  21286651.122 7   2951725.629 7   2294059.26648  21286652.23548
  22056490.841 6  -4328268.750 6  -3352319.21147  22056490.16547
  24779112.380 1    950409.758 1                
  22090019.419 7   2106659.781 7   1634755.88748  22090016.61848
  23880376.130 5   6344535.500 5   4906005.02045  23880377.45045
 18  5 30  0 51  5.0010000  0 10G03G14G16G22G23G26G27G29G31G32      -0.000091801
  24272096.880 5   2290001.781 5   1773124.76646  24272098.20846
  21454876.021 6   3978340.289 6   3091228.88748  21454874.02848
  20832660.763 7    561740.184 7    438409.62948  20832657.52148
  24344647.286 3   3198043.156 3                
  23765066.661 6  -2753367.207 6  -1315045.54347  23765063.00547
  21288672.755 7   2962350.051 7   2302338.03148  21288674.00948
  22054192.692 6  -4340342.766 6  -3361727.52747  22054192.51347
  24782789.216 1    969723.059 1                
  22091468.450 7   2114273.535 7   1640688.66048  22091465.68848
  23884436.692 5   6365870.668 5   4922629.79345  23884437.52845
 18  5 30  0 51 10.0010000  0 10G03G14G16G22G23G26G27G29G31G32      -0.000089355
  24273842.161 5   2299171.441 5   1780269.94546  24273843.13846
  21457724.700 7   3993312.551 7   3102895.58248  21457723.29048
  20833403.974 6    565644.645 6    441452.06648  20833400.97448
  24346798.927 3   3209354.145 3                
  23762831.302 6  -2765115.168 6  -1324199.81647  23762827.36847
  21290695.747 7   2972981.172 7   2310622.02048  21290697.01348
  22051896.997 6  -4352406.496 6  -3371127.82847  22051896.99747
  24786463.94211    989045.51611                
  22092918.356 7   2121893.098 7   1646625.98048  22092915.98148
  23888498.247 5   6387212.363 5   4939259.64145  23888498.79045
 18  5 30  0 51 15.0010000  0 10G03G14G16G22G23G26G27G29G31G32      -0.000086910
  24275589.138 5   2308351.582 5   1787423.29746  24275589.96246
  21460577.575 7   4008298.977 7   3114573.30948  21460575.13048
  20834149.294 7    569560.961 7    444503.74248  20834146.06348
  24348953.091 3   3220670.777 3                
  23760597.435 6  -2776854.977 6  -1333347.72347  23760593.93147
  21292720.278 7   2983618.996 7   2318911.22748  21292721.52848
  22049602.591 6  -4364459.949 6  -3380520.12147  22049603.34547
  24790143.036 1   1008377.160 1                
  22094369.333 7   2129518.441 7   1652567.80948  22094367.16548
  23892561.419 5   6408560.570 5   4955894.53946  23892561.14646
 18  5 30  0 51 20.0010000  0 10G03G14G16G22G23G26G27G29G31G32      -0.000084463
  24277338.169 5   2317542.328 5   1794584.90247  24277339.04847
  21463431.833 7   4023299.637 7   3126262.11748  21463430.05248
  20834897.106 7    573489.242 7    447564.73448  20834893.46648
  24351109.333 4   3231992.934 4                
  23758364.755 6  -2788586.438 6  -1342489.12547  23758361.39647
  21294745.724 7   2994263.621 7   2327205.74248  21294747.09548
  22047310.888 6  -4376502.930 6  -3389904.25447  22047311.81347
  24793823.044 1   1027718.000 1                
  22095821.661 7   2137149.738 7   1658514.27048  22095819.31348
  23896626.208 4   6429915.391 4   4972534.63745  23896625.22445
 18  5 30  0 51 25.0010000  0 10G03G14G16G22G23G26G27G29G31G32      -0.000082016
  24279089.950 5   2326743.414 5   1801754.58247  24279090.52847
  21466288.786 7   4038314.293 7   3137961.84848  21466286.91948
  20835646.489 7    577429.176 7    450634.82048  20835643.31348
  24353262.458 3   3243320.535 3                
  23756133.466 6  -2800309.891 6  -1351624.28947  23756130.23947
  21296772.364 7   3004914.766 7   2335505.33648  21296773.93848
  22045021.224 6  -4388535.766 6  -3399280.49647  22045022.34547
  24797503.466 1   1047067.719 1                
  22097274.552 7   2144786.609 7   1664465.07848  22097272.32948
  23900691.903 4   6451276.484 4   4989179.58245  23900690.54045
 18  5 30  0 51 30.0010000  0 10G03G14G16G22G23G26G27G29G31G32      -0.000079567
  24280843.075 5   2335954.953 5   1808932.39147  24280843.09147
  21469149.599 6   4053343.047 6   3149672.55948  21469146.96248
  20836398.231 7    581380.879 7    453714.05548  20836395.47448
  24355419.185 1   3254653.586 1                
  23753905.052 6  -2812025.207 6  -1360753.11747  23753900.76747
  21298800.724 7   3015572.523 7   2343810.07448  21298802.03648
  22042733.692 6  -4400558.316 6  -3408648.71947  22042734.61447
  24801189.161 1   1066426.660 1                
  22098729.060 7   2152429.223 7   1670420.35248  22098726.62248
  23904758.294 4   6472644.039 4   5005829.66045  23904756.27845
 18  5 30  0 51 35.0010000  0 10G03G14G16G22G23G26G27G29G31G32      -0.000077118
  24282597.521 5   2345177.199 5   1816118.56647  24282597.68147
  21472012.021 6   4068386.203 6   3161394.48448  21472009.71648
  20837152.481 7    585344.664 7    456802.72748  20837149.91548
  24357577.849 2   3265992.449 2                
  23751676.653 5  -2823732.023 5  -1369875.29747  23751672.58347
  21300829.794 7   3026237.234 7   2352120.24248  21300830.98148
  22040448.091 6  -4412570.230 6  -3418008.64547  22040448.62247
  24804874.82511                                
  22100184.513 7   2160077.906 7   1676380.37148  22100182.55248
  23908826.700 3   6494018.355 3   5022484.87145  23908824.19645
 18  5 30  0 51 40.0010000  0 10G03G14G16G22G23G26G27G29G31G32      -0.000074667
  24284354.435 5   2354410.297 5   1823313.18447  24284354.79047
  21474876.981 6   4083443.855 6   3173127.72347  21474874.82547
  20837909.497 7    589320.645 7    459900.89548  20837906.32548
  24359737.099 3   3277337.176 3                
  23749451.075 6  -2835430.309 6  -1378990.85947  23749446.71647
  21302860.536 7   3036908.996 7   2360435.92248  21302862.29448
  22038163.849 6  -4424571.426 6  -3427360.23447  22038164.93147
  24808563.810 1   1105172.570 1                
  22101640.966 7   2167732.813 7   1682345.23848  22101638.50548
  23912898.70812   6515399.39512                
 18  5 30  0 51 45.0010000  0 10G03G14G16G22G23G26G27G29G31G32      -0.000072206
  24286113.185 5   2363653.844 5   1830515.94547  24286113.58747
  21477745.622 6   4098515.570 6   3184871.90647  21477743.28647
  20838667.981 7    593308.379 7    463008.21148  20838665.00548
  24361896.950 3   3288687.391 3                
  23747226.185 6  -2847120.398 6  -1388100.01247  23747222.74347
  21304892.372 7   3047587.359 7   2368756.73048  21304893.97448
  22035882.200 6  -4436562.234 6  -3436703.71147  22035882.79847
  24812252.372 1   1124559.254 1                
  22103098.989 7   2175393.547 7   1688314.62548  22103096.41548
  23916962.513 2   6536786.895 2                
 18  5 30  0 51 50.0010000  0 10G03G14G16G22G23G26G27G29G31G32      -0.000069754
  24287874.021 5   2372907.906 5   1837726.91847  24287874.77147
  21480616.278 6   4113601.516 6   3196627.18448  21480613.82148
  20839429.239 6    597308.066 6    466124.85248  20839426.01348
  24364057.325 2   3300043.195 2                
  23745003.442 6  -2858802.098 6  -1397202.61347  23744999.38847
  21306926.130 7   3058272.520 7   2377082.83648  21306926.99748
  22033602.364 6  -4448542.512 6  -3446038.99647  22033603.06747
  24815943.114 1   1143955.176 1                
  22104558.067 7   2183060.254 7   1694288.67648  22104555.34148
  23921037.708 1   6558180.949 1                
 18  5 30  0 51 55.0010000  0  9G03G14G16G22G23G26G27G29G31         -0.000067310
  24289637.317 5   2382172.367 5   1844945.96146  24289637.57146
  21483489.755 6   4128701.512 6   3208393.41048  21483487.66548
  20840192.825 7    601319.488 7    469250.62948  20840189.25148
  24366219.161 2   3311404.430 2                
  23742781.825 6  -2870475.605 6  -1406298.85947  23742778.14947
  21308960.153 7   3068964.262 7   2385414.07448  21308961.86848
  22031324.747 6  -4460512.434 6  -3455366.21147  22031325.39247
  24819637.73911   1163357.16811                
  22106018.130 7   2190732.699 7   1700267.20348  22106014.93548
 18  5 30  0 52  0.0010000  0 10G03G14G16G22G23G26G27G29G31G32      -0.000064850
  24291402.372 5   2391447.309 5   1852173.18846  24291402.72846
  21486365.489 6   4143815.723 6   3220170.71948  21486363.60348
  20840958.286 7    605342.785 7    472385.66448  20840954.91148
  24368383.958 4   3322771.168 4                
  23740561.903 6  -2882140.832 6  -1415388.65247  23740558.28647
  21310996.411 7   3079662.684 7   2393750.50448  21310997.50948
  22029049.075 6  -4472471.863 6  -3464685.23847  22029049.60347
  24823331.333 1   1182771.188 1                
  22107478.981 7   2198411.070 7   1706250.33648  22107476.50148
  23929177.04411                                
 18  5 30  0 52  5.0010000  0 10G03G14G16G22G23G26G27G29G31G32      -0.000062399
  24293169.247 5   2400733.430 5   1859409.11746  24293169.84946
  21489244.771 6   4158944.770 6   3231959.58248  21489242.16948
  20841726.294 7    609378.609 7    475530.46548  20841722.75148
  24370548.216 3   3334144.035 3                
  23738343.950 6  -2893797.008 6  -1424471.40247  23738339.96247
  21313033.771 7   3090368.523 7   2402092.70748  21313035.06748
  22026775.950 6  -4484420.055 6  -3473995.53547  22026775.30247
  24827027.73911                                
  22108941.841 7   2206096.047 7   1712238.64148  22108938.91548
  23933252.92711                   5039824.17656  23933253.68856
 18  5 30  0 52 10.0010000  0  9G03G14G16G22G23G26G27G31G32         -0.000059938
  24294938.146 5   2410030.594 5   1866653.67247  24294939.02147
  21492126.567 6   4174088.590 6   3243759.94948  21492124.17348
  20842496.427 7    613426.906 7    478684.96948  20842493.36448
  24372714.638 3   3345523.129 3                
  23736127.028 6  -2905444.211 6  -1433547.13747  23736124.10647
  21315072.341 7   3101081.566 7   2410440.53148  21315073.78248
  22024503.646 6  -4496357.184 6  -3483297.18847  22024503.98947
  22110405.528 7   2213787.504 7   1718231.97348  22110402.99348
  23937330.427 2   6643828.313 2   5056515.94546  23937330.71646
 18  5 30  0 52 15.0010000  0 10G03G14G16G22G23G26G27G29G31G32      -0.000057474
  24296709.060 5   2419338.594 5   1873906.65247  24296710.12247
  21495010.747 6   4189246.879 6   3255571.60548  21495008.15348
  20843269.466 6    617487.391 6    481848.99248  20843266.04048
  24374882.286 3   3356907.996 3                
  23733912.872 6  -2917082.691 6  -1442616.08647  23733909.38447
  21317112.224 7   3111801.684 7   2418793.86748  21317113.66148
  22022234.966 6  -4508283.391 6  -3492590.32847  22022234.53247
  24834424.78611   1241071.39111                
  22111869.794 7   2221485.207 7   1724230.17248  22111867.61848
  23941407.497 3   6665256.234 3   5073213.00446  23941408.75546
 18  5 30  0 52 20.0010000  0 10G03G14G16G22G23G26G27G29G31G32      -0.000055014
  24298482.747 5   2428657.371 5   1881168.03946  24298483.03646
  21497898.052 6   4204419.645 6   3267394.53148  21497895.92748
  20844044.278 7    621560.055 7    485022.49248  20844040.72448
  24377051.067 3   3368298.719 3                
  23731699.630 6  -2928712.410 6  -1451678.18847  23731696.07947
  21319153.622 7   3122528.813 7   2427152.66848  21319155.09148
  22019967.653 6  -4520198.648 6  -3501874.95347  22019967.01747
  24838126.263 1   1260523.832 1                
  22113335.919 7   2229189.207 7   1730233.27748  22113333.70048
  23945486.161 4   6686690.922 4   5089915.32046  23945487.39646
 18  5 30  0 52 25.0010000  0 10G03G14G16G22G23G26G27G29G31G32      -0.000052551
  24300257.919 5   2437987.313 5   1888438.12146  24300258.82146
  21500788.317 6   4219607.301 6   3279229.05948  21500786.17348
  20844822.544 7    625645.266 7    488205.77748  20844817.99748
  24379218.466 3   3379695.555 3                
  23729488.271 6  -2940333.004 6  -1460733.19547  23729484.39247
  21321196.521 7   3133263.313 7   2435517.20748  21321197.48948
  22017702.122 6  -4532102.668 6  -3511150.80947  22017701.94647
  24841828.833 1   1279985.867 1                
  22114803.192 7   2236899.859 7   1736241.57848  22114800.93848
  23949566.200 4   6708132.746 4   5106623.21546  23949568.06046
 18  5 30  0 52 30.0010000  0 10G03G14G16G22G23G26G27G29G31G32      -0.000050091
  24302035.794 5   2447328.375 5   1895716.86346  24302036.42346
  21503680.731 6   4234809.781 6   3291075.15248  21503678.84948
  20845601.599 6    629742.996 6    491398.80548  20845598.30648
  24381387.677 2   3391098.496 2                
  23727278.372 6  -2951944.539 6  -1469781.13347  23727274.85647
  21323240.583 7   3144005.133 7   2443887.45748  21323241.88848
  22015438.896 6  -4543995.422 6  -3520417.89147  22015438.72047
  24845533.888 1   1299457.617 1                
  22116271.317 7   2244617.117 7   1742255.01248  22116269.88848
  23953648.653 4   6729581.695 4   5123336.66046  23953649.42746
 18  5 30  0 52 35.0010000  0 10G03G14G16G22G23G26G27G29G31G32      -0.000047625
  24303816.247 5   2456679.871 5   1903003.72746  24303816.33346
  21506576.724 6   4250026.402 6   3302932.24648  21506574.80648
  20846383.474 6    633852.582 6    494601.07448  20846380.45848
  24383559.122 1   3402506.969 1                
  23725069.739 6  -2963547.586 6  -1478822.46547  23725067.06747
  21325285.880 7   3154753.641 7   2452262.91448  21325287.18148
  22013177.646 6  -4555877.508 6  -3529676.65647  22013177.29047
  24849241.747 1   1318938.523 1                
  22117741.052 7   2252340.348 7   1748273.11348  22117739.29048
  23957732.224 4   6751037.078 4   5140055.09845  23957732.36045
 18  5 30  0 52 40.0010000  0  9G03G14G16G22G23G26G27G31G32         -0.000045158
  24305597.614 5   2466041.906 5   1910298.81347  24305597.86847
  21509475.005 6   4265257.242 6   3314800.43848  21509473.47448
  20847167.810 6    637974.063 6    497812.60948  20847164.47448
  24385728.356 1   3413920.953 1                
  23722863.653 6  -2975142.117 6  -1487857.17647  23722860.63847
  21327332.544 7   3165508.910 7   2460643.64148  21327333.99348
  22010918.380 6  -4567748.902 6  -3538927.09047  22010918.55647
  22119211.888 7   2260069.641 7   1754295.93448  22119210.41948
  23961816.099 5   6772498.965 5   5156778.60246  23961816.74346
 18  5 30  0 52 45.0010000  0 10G03G14G16G21G22G23G26G27G31G32      -0.000042688
  24307380.974 5   2475414.516 5   1917602.12547  24307380.91947
  21512376.161 6   4280502.445 6   3326679.80548  21512374.44248
  20847954.786 6    642107.563 6    501033.51248  20847951.10348
  25073396.95013      -207.82813                
  24387898.778 1   3425340.602 1                
  23720659.177 6  -2986727.988 6  -1496885.12147  23720655.66147
  21329380.716 7   3176271.023 7   2469029.70748  21329381.72048
  22008661.997 6  -4579609.449 6  -3548169.06647  22008661.75947
  22120684.583 7   2267805.145 7   1760323.59048  22120682.36048
  23965901.224 4   6793967.497 4   5173507.31546  23965901.72046
 18  5 30  0 52 50.0010000  0 10G03G14G16G21G22G23G26G27G31G32      -0.000040220
  24309166.661 5   2484797.852 5   1924913.80947  24309166.45447
  21515279.927 6   4295762.055 6   3338570.40648  21515278.40748
  20848743.544 6    646253.207 6    504263.88348  20848740.32148
  25073397.778 4      -205.555 4                
  24390073.833 1   3436766.000 1                
  23718456.872 6  -2998304.992 6  -1505906.17247  23718452.75947
  21331429.942 7   3187040.129 7   2477421.22748  21331431.22048
  22006406.966 6  -4591459.012 6  -3557402.49247  22006407.16147
  22122157.474 7   2275546.926 7   1766356.14548  22122155.88048
  23969988.661 5   6815442.656 5   5190241.16446  23969988.28246
 18  5 30  0 52 55.0010000  0 10G03G14G16G21G22G23G26G27G31G32      -0.000037750
  24310953.872 5   2494191.914 5   1932233.87547  24310954.50947
  21518186.700 6   4311036.102 6   3350472.25848  21518184.98148
  20849534.536 7    650410.988 7    507503.71148  20849531.37648
  25073398.552 3      -195.723 3                
  24392249.310 1   3448197.176 1                
  23716255.146 6  -3009873.188 6  -1514920.33247  23716251.40347
  21333480.497 7   3197816.176 7   2485818.15648  21333481.98148
  22004153.981 6  -4603297.570 6  -3566627.33647  22004154.34147
  22123632.005 7   2283295.016 7   1772393.61348  22123629.83748
  23974077.255 4   6836924.547 4   5206980.27345  23974076.54045
 18  5 30  0 53  0.0010000  0 10G03G14G16G21G22G23G26G27G31G32      -0.000035280
  24312743.466 5   2503596.969 5   1939562.46946  24312744.00146
  21521096.075 6   4326324.879 6   3362385.58248  21521094.32948
  20850327.888 7    654581.137 7    510753.17648  20850324.97448
  25073400.755 2      -178.074 2                
  24394425.614 1   3459634.395 1                
  23714055.263 6  -3021432.309 6  -1523927.44147  23714051.74347
  21335532.575 7   3208599.406 7   2494220.66848  21335533.63848
  22001903.208 6  -4615124.867 6  -3575843.40647  22001903.40747
  22125107.763 6   2291049.703 6   1778436.22748  22125105.62248
  23978166.505 4   6858413.414 4   5223724.81346  23978165.25946
 18  5 30  0 53  5.0010000  0 10G03G14G16G21G22G23G26G27G31G32      -0.000032808
  24314535.216 5   2513012.797 5   1946899.47346  24314535.65346
  21524007.919 6   4341628.145 6   3374310.19548  21524006.30648
  20851123.888 6    658763.496 6    514012.16848  20851121.01748
  25073404.622 2      -152.672 2                
  24396602.317 1   3471077.340 1                
  23711857.216 6  -3032982.504 6  -1532927.60547  23711853.46247
  21337585.622 7   3219389.660 7   2502628.65248  21337586.96248
  21999654.880 6  -4626941.039 6  -3585050.80147  21999654.84547
  22126584.489 7   2298810.777 7   1784483.81348  22126582.34148
  23982255.692 4   6879908.984 4   5240474.60945  23982255.69245
 18  5 30  0 53 10.0010000  0 10G03G14G16G21G22G23G26G27G31G32      -0.000030334
  24316328.708 5   2522438.918 5   1954244.50046  24316329.55246
  21526922.708 6   4356945.457 6   3386245.75048  21526921.32948
  20851921.841 6    662957.609 6    517280.31348  20851919.16148
  25073410.724 1      -120.164 1                
  24398781.185 1   3482525.602 1                
  23709661.099 6  -3044524.223 6  -1541921.14547  23709657.68547
  21339640.411 7   3230186.488 7   2511041.75848  21339641.24748
  21997408.130 6  -4638746.527 6  -3594249.88347  21997409.11047
  22128062.958 7   2306577.801 7   1790536.04348  22128060.52848
  23986348.192 3   6901410.914 3   5257229.33245  23986347.53645
 18  5 30  0 53 15.0010000  0 10G03G14G16G21G22G23G26G27G31G32      -0.000027859
  24318124.989 5   2531876.063 5   1961598.13346  24318124.93146
  21529840.411 6   4372277.500 6   3398192.78948  21529838.89648
  20852722.646 6    667164.145 6    520558.12148  20852719.56748
  25073418.403 1       -79.727 1                
  24400961.935 1   3493979.934 1                
  23707466.247 6  -3056056.746 6  -1550907.52747  23707462.56747
  21341696.606 7   3240990.578 7   2519460.53148  21341697.21248
  21995163.747 6  -4650540.637 6  -3603440.09447  21995164.61847
  22129541.903 7   2314351.445 7   1796593.43448  22129539.64648
  23990438.856 2   6922919.801 2   5273989.47745  23990440.15345
 18  5 30  0 53 20.0010000  0 10G03G14G16G21G22G23G26G27G31G32      -0.000025385
  24319923.317 5   2541324.934 5   1968960.89147  24319923.66147
  21532761.161 6   4387625.020 6   3410151.89148  21532759.20448
  20853525.646 6    671383.840 6    523846.19948  20853522.87248
  25073427.021 1       -30.465 1                
  24403143.255 1   3505441.063 1                
  23705273.208 5  -3067579.258 5  -1559886.10547  23705270.18147
  21343753.716 7   3251802.680 7   2527885.53548  21343754.90348
  21992921.481 6  -4662322.578 6  -3612620.81647  21992922.46247
  22131022.708 7   2322132.516 7   1802656.60948  22131020.42348
  23994532.84111   6944436.44111   5290755.67655  23994535.09955
 18  5 30  0 53 25.0010000  0 10G03G14G16G21G22G23G26G27G31G32      -0.000022903
  24321723.067 5   2550785.340 5   1976332.62146  24321723.66546
  21535684.325 6   4402987.750 6   3422122.84047  21535682.37247
  20854330.786 6    675616.523 6    527144.38348  20854328.20048
  25073438.966 1        27.148 1                
  24405324.067 1   3516908.707 1                
  23703082.427 6  -3079092.020 6  -1568857.09447  23703079.39647
  21345812.802 7   3262622.578 7   2536316.63348  21345814.10648
  21990682.552 6  -4674092.582 6  -3621792.24648  21990682.77148
  22132504.731 7   2329920.816 7   1808725.41448  22132502.07548
  23998628.685 2   6965960.566 2   5307527.69945  23998630.68145
 18  5 30  0 53 30.0010000  0 10G03G14G16G21G22G23G26G27G31G32      -0.000020424
  24323526.044 5   2560256.957 5   1983713.09846  24323525.87646
  21538610.544 6   4418365.430 6   3434105.43848  21538609.02848
  20855138.450 6    679861.805 6    530452.39848  20855136.39648
  25073450.669 1        92.953 1                
  24407507.528 1   3528382.520 1                
  23700893.638 6  -3090595.348 6  -1577820.72347  23700890.29047
  21347872.669 7   3273449.871 7   2544753.47748  21347874.18148
  21988444.935 6  -4685850.941 6  -3630954.61347  21988445.46247
  22133987.942 7   2337715.977 7   1814799.57048  22133985.53248
  24002726.411 2   6987491.805 2   5324305.32446  24002728.13846
 18  5 30  0 53 35.0010000  0 10G03G14G16G21G22G23G26G27G31G32      -0.000017942
  24325329.411 5   2569739.309 5   1991101.96546  24325329.75946
  21541540.013 6   4433757.629 6   3446099.35248  21541537.74748
  20855948.560 6    684119.340 6    533769.95748  20855946.21648
  25073466.927 1       166.492 1                
  24409691.130 1   3539862.133 1                
  23698706.247 6  -3102089.582 6  -1586777.27747  23698702.92347
  21349934.622 7   3284284.211 7   2553195.80948  21349936.29448
  21986209.552 6  -4697598.027 6  -3640108.18448  21986209.63048
  22135472.075 7   2345517.609 7   1820878.77048  22135469.99748
  24006825.177 2   7009029.914 2   5341088.21546  24006826.62646
 18  5 30  0 53 40.0010000  0 10G03G14G16G21G22G23G26G27G31G32      -0.000015459
  24327135.872 5   2579232.125 5   1998498.93846  24327136.45846
  21544471.341 6   4449164.008 6   3458104.31648  21544469.42748
  20856761.356 6    688388.762 6    537096.77048  20856758.54848
  25073483.396 1       247.520 1                
  24411878.271 1   3551347.188 1                
  23696520.583 5  -3113575.078 5  -1595727.00047  23696517.41947
  21351997.513 7   3295125.289 7   2561643.41048  21351999.34148
  21983976.849 6  -4709334.176 6  -3649253.23448  21983976.39248
  22136957.927 7   2353325.430 7   1826962.78548  22136955.93148
  24010925.864 4   7030574.375 4   5357876.11346  24010926.32146
 18  5 30  0 53 45.0010000  0 10G03G14G16G21G22G23G26G27G31G32      -0.000012976
  24328944.849 5   2588735.211 5   2005903.93846  24328945.14246
  21547405.786 6   4464584.426 6   3470120.22347  21547403.99347
  20857575.911 6    692669.926 6    540432.74248  20857573.34548
  25073500.466 2       335.844 2                
  24414065.106 1   3562837.660 1                
  23694336.505 5  -3125051.960 5  -1604670.01447  23694333.63847
  21354061.919 7   3305972.914 7   2570096.10948  21354063.33348
  21981745.146 6  -4721059.488 6  -3658389.85547  21981744.67747
  22138444.466 6   2361139.289 6   1833051.50048  22138442.75948
  24015026.278 4   7052125.156 4   5374668.87946  24015027.70446
 18  5 30  0 53 50.0010000  0 10G03G14G16G21G22G23G26G27G31G32      -0.000010490
  24330754.528 5   2598248.961 5   2013317.25846  24330755.31046
  21550343.091 6   4480019.250 6   3482147.34847  21550340.86847
  20858393.271 6    696963.133 6    543778.10248  20858390.21648
  25073519.474 2       431.898 2                
  24416253.271 1   3574333.672 1                
  23692154.552 6  -3136519.828 6  -1613606.02747  23692151.57547
  21356127.521 7   3316827.438 7   2578554.17648  21356128.91548
  21979515.778 6  -4732773.637 6  -3667517.75448  21979515.77848
  22139932.786 6   2368959.520 6   1839145.18848  22139930.90348
  24019128.239 4   7073682.547 4   5391466.83246  24019129.66146
 18  5 30  0 53 55.0010000  0 10G03G14G16G21G22G23G26G27G31G32      -0.000008003
  24332567.271 5   2607772.715 5   2020738.32846  24332567.76746
  21553282.364 6   4495467.797 6   3494185.17647  21553280.31747
  20859212.349 6    701267.832 6    547132.40648  20859209.54048
  25073538.950 2       534.977 2                
  24418441.755 1   3585834.645 1                
  23689973.802 5  -3147979.305 5  -1622535.49647  23689970.27447
  21358194.356 7   3327688.199 7   2587017.09848  21358195.62648
  21977288.880 6  -4744477.227 6  -3676637.43447  21977288.87647
  22141422.153 6   2376785.555 6   1845243.39148  22141419.95048
  24023233.177 5   7095245.922 5   5408269.41446  24023233.35646
 18  5 30  0 54  0.0010000  0 10G03G14G16G21G22G23G26G27G31G32      -0.000005516
  24334381.286 5   2617306.656 5   2028167.39546  24334381.99346
  21556225.091 6   4510930.398 6   3506233.94947  21556222.98947
  20860033.739 6    705584.262 6    550495.85948  20860031.02448
  25073558.458 2       645.430 2                
  24420631.653 1   3597340.953 1                
  23687795.060 5  -3159430.145 5  -1631458.22747  23687792.18147
  21360262.122 7   3338555.500 7   2595485.10548  21360263.39248
  21975064.099 6  -4756169.930 6  -3685748.62148  21975063.86448
  22142911.966 6   2384617.617 6   1851346.28948  22142910.45848
  24027339.114 4   7116815.527 4   5425076.85946  24027337.92746
 18  5 30  0 54  5.0010000  0 10G03G14G16G21G22G23G26G27G31G32      -0.000003029
  24336197.864 5   2626851.082 5   2035604.59446  24336198.24746
  21559169.942 6   4526407.191 6   3518293.77747  21559168.10647
  20860857.247 6    709912.594 6    553868.58648  20860854.41548
  25073580.755 2       763.508 2                
  24422820.942 1   3608852.637 1                
  23685617.028 6  -3170872.043 6  -1640373.99246  23685614.23546
  21362331.380 7   3349429.531 7   2603958.37148  21362333.12648
  21972840.481 6  -4767851.555 6  -3694851.18847  21972840.63847
  22144404.114 7   2392455.910 7   1857454.05548  22144402.03248
  24031445.005 4   7138391.559 4   5441889.32046  24031443.39946
 18  5 30  0 54 10.0010000  0 10G03G14G16G21G22G23G26G27G31G32      -0.000000538
  24338015.919 5   2636405.996 5   2043049.96946  24338016.53246
  21562117.896 6   4541898.215 6   3530364.69547  21562116.44247
  20861682.669 7    714252.848 7    557250.60948  20861680.59548
  25073603.700 2       889.199 2                
  24425012.716 1   3620369.883 1                
  23683441.646 5  -3182305.023 5  -1649282.79747  23683438.81047
  21364401.771 7   3360310.332 7   2612436.91848  21364403.54048
  21970619.161 6  -4779522.086 6  -3703945.09847  21970619.74347
  22145896.903 7   2400300.523 7   1863566.73048  22145895.00548
  24035552.216 4   7159974.039 4   5458706.77346  24035550.56746
 18  5 30  0 54 15.0010000  0 10G03G14G16G21G22G23G26G27G31G32       0.000001953
  24339836.075 5   2645971.367 5   2050503.50846  24339836.60646
  21565068.810 6   4557403.543 6   3542446.77047  21565066.72047
  20862511.185 7    718605.078 7    560641.95748  20862509.04048
  25073628.974 1      1022.617 1                
  24427204.82511   3631892.50811                
  23681267.669 5  -3193729.055 5  -1658184.64547  23681265.03247
  21366473.778 7   3371197.922 7   2620920.74248  21366474.95848
  21968400.599 6  -4791181.418 6  -3713030.28147  21968400.93547
  22147391.060 7   2408151.441 7   1869684.32448  22147388.86848
  24039659.716 5   7181562.996 5   5475529.33646  24039659.16546
 18  5 30  0 54 20.0010000  0 10G03G14G16G21G22G23G26G27G31G32       0.000004446
  24341658.169 5   2655547.523 5   2057965.44546  24341659.04046
  21568021.942 6   4572923.379 6   3554540.12947  21568020.14247
  20863341.739 6    722969.516 6    564042.82048  20863339.20448
  25073656.294 1      1163.949 1                
  24429401.692 1   3643421.004 1                
  23679095.755 5  -3205143.777 5  -1667079.21947  23679092.75547
  21368546.544 7   3382092.539 7   2629410.05148  21368548.21248
  21966184.130 6  -4802829.270 6  -3722106.53147  21966184.51747
  22148886.567 7   2416009.016 7   1875807.10248  22148884.44248
  24043769.216 4   7203158.672 4   5492357.09846  24043769.10646
 18  5 30  0 54 25.0010000  0 10G03G14G16G21G22G23G26G27G31G32       0.000006939
  24343482.567 5   2665134.031 5   2065435.44947  24343483.36047
  21570978.146 6   4588457.340 6   3566644.51647  21570976.26747
  20864174.192 6    727345.777 6    567452.89148  20864171.98148
  25073685.638 2      1312.762 2                
  24431596.231 1   3654954.906 1                
  23676924.536 5  -3216549.680 5  -1675966.93046  23676922.15346
  21370621.442 7   3392993.844 7   2637904.57848  21370622.62648
  21963969.427 6  -4814466.059 6  -3731174.16447  21963970.16547
  22150382.864 7   2423872.805 7   1881934.73048  22150380.36448
  24047880.013 4   7224760.730 4   5509189.85946  24047879.86846
 18  5 30  0 54 30.0010000  0 10G03G14G16G21G22G23G26G27G31G32       0.000009434
  24345308.872 5   2674731.168 5   2072913.73047  24345309.81047
  21573936.466 6   4604005.719 6   3578760.13348  21573935.07148
  20865009.153 6    731734.191 6    570872.44148  20865006.77848
  25073715.130 2      1469.563 2                
  24433792.942 1   3666494.559 1                
  23674756.435 5  -3227946.332 5  -1684847.43447  23674753.07147
  21372697.091 7   3403902.078 7   2646404.51248  21372698.43148
  21961757.411 6  -4826091.402 6  -3740232.87547  21961757.74747
  22151880.825 7   2431743.168 7   1888067.47748  22151878.31048
  24051991.349 4   7246369.383 4   5526027.73846  24051991.78246
 18  5 30  0 54 35.0010000  0 10G03G14G16G21G22G23G26G27G31G32       0.000011930
  24347136.981 5   2684338.832 5   2080400.20346  24347138.07546
  21576898.185 6   4619568.359 6   3590886.85948  21576896.81048
  20865846.919 6    736134.551 6    574301.28148  20865844.60648
  25073746.474 2      1634.109 2                
  24435991.302 1   3678039.582 1                
  23672589.317 5  -3239333.957 5  -1693720.89547  23672586.47847
  21374774.114 7   3414817.109 7   2654909.73448  21374775.54448
  21959547.466 6  -4837705.520 6  -3749282.83247  21959547.90747
  22153379.403 7   2439619.887 7   1894205.18048  22153376.85648
  24056103.802 4   7267984.484 4   5542870.65646  24056104.83346
 18  5 30  0 54 40.0010000  0 10G03G14G16G21G22G23G26G27G31G32       0.000014427
  24348967.341 5   2693957.082 5   2087894.94947  24348968.81047
  21579862.778 6   4635145.414 6   3603024.81647  21579860.90747
  20866686.552 6    740547.074 6    577739.60548  20866684.09548
  25073778.888 2      1806.531 2                
  24438189.716 1   3689590.328 1                
  23670423.911 5  -3250712.313 5  -1702587.15646  23670420.90746
  21376852.544 7   3425739.105 7   2663420.39848  21376853.93548
  21957339.981 6  -4849308.152 6  -3758323.85548  21957339.96648
  22154879.481 7   2447503.195 7   1900348.01648  22154877.38048
  24060218.802 4   7289606.250 4   5559718.78546  24060219.60346
 18  5 30  0 54 45.0010000  0 10G03G14G16G21G22G23G26G27G31G32       0.000016928
  24350799.724 5   2703585.906 5   2095397.91447  24350801.15347
  21582829.755 6   4650736.793 6   3615173.93447  21582827.56047
  20867528.505 6    744971.586 6    581187.27348  20867525.56048
  25073812.966 1      1986.793 1                
  24440388.036 1   3701146.531 1                
  23668260.489 5  -3262081.496 5  -1711446.23846  23668257.07946
  21378932.177 7   3436667.867 7   2671936.32048  21378933.61448
  21955134.403 6  -4860899.484 6  -3767356.05948  21955134.41148
  22156380.481 7   2455392.945 7   1906495.87548  22156378.56048
  24064334.325 4   7311234.461 4   5576571.89146  24064334.88846
 18  5 30  0 54 50.0010000  0 10G03G14G16G21G22G23G26G27G31G32       0.000019428
  24352634.247 6   2713225.648 6   2102909.39147  24352635.55647
  21585799.396 6   4666342.879 6   3627334.52047  21585797.35647
  20868373.036 6    749408.586 6    584644.68448  20868370.23148
  25073848.692 1      2175.383 1                
  24442586.919 1   3712708.695 1                
  23666098.560 5  -3273441.184 5  -1720297.94146  23666095.87646
  21381013.153 7   3447603.895 7   2680457.89148  21381014.63048
  21952931.263 6  -4872479.008 6  -3776379.07047  21952930.66947
  22157883.216 7   2463289.555 7   1912649.07448  22157880.68848
  24068450.646 4   7332869.609 4   5593430.42646  24068452.34946
 18  5 30  0 54 55.0010000  0 10G03G14G16G21G22G23G26G27G31G32       0.000021929
  24354470.466 5   2722876.168 5   2110429.27347  24354471.82947
  21588771.841 6   4681963.574 6   3639506.48447  21588769.81347
  20869219.388 6    753857.961 6    588111.72348  20869216.97048
  25073885.685 1      2372.117 1                
  24444783.04411   3724276.59411                
  23663938.755 5  -3284791.313 5  -1729142.20746  23663935.57546
  21383096.091 7   3458547.059 7   2688985.02048  21383096.81748
  21950730.106 6  -4884046.813 6  -3785392.93847  21950729.95847
  22159387.989 7   2471192.984 7   1918807.58648  22159384.81348
  24072569.380 4   7354511.574 4   5610294.27046  24072570.35646
 18  5 30  0 55  0.0010000  0 10G03G14G16G21G22G23G26G27G31G32       0.000024431
  24356309.630 6   2732537.570 6   2117957.64147  24356310.69647
  21591747.349 6   4697598.930 6   3651689.86747  21591744.86447
  20870068.396 7    758319.641 7    591588.35948  20870065.51348
  25073925.489 1      2576.953 1                
  24446984.26311                                
  23661780.872 5  -3296132.004 5  -1737979.10246  23661777.80246
  21385180.028 7   3469497.375 7   2697517.72748  21385180.61448
  21948530.786 6  -4895602.914 6  -3794397.68448  21948530.63448
  22160893.075 7   2479103.223 7   1924971.38748  22160889.84948
  24076688.771 4   7376160.348 4   5627163.43446  24076690.11046
 18  5 30  0 55  5.0010000  0 10G03G14G16G21G22G23G26G27G31G32       0.000026937
  24358149.560 6   2742209.781 6   2125494.42647  24358151.06047
  21594725.325 6   4713248.859 6   3663884.61747  21594722.72847
  20870919.903 7    762793.641 7    595074.58248  20870917.08348
  25073966.341 1      2790.000 1                
  24449190.20011                                
  23659625.130 5  -3307463.152 5  -1746808.57846  23659621.87646
  21387264.974 7   3480454.789 7   2706055.98048  21387265.60348
  21946333.880 6  -4907147.270 6  -3803393.28948  21946333.70048
  22162399.599 7   2487020.238 7   1931140.49248  22162396.36448
  24080809.661 4   7397815.906 4   5644037.87546  24080811.60646
 18  5 30  0 55 10.0010000  0 10G03G14G16G21G22G23G26G27G31G32       0.000029444
  24359991.794 6   2751892.254 6   2133039.20747  24359993.78247
  21597706.044 6   4728912.855 6   3676090.32447  21597703.00547
  20871773.661 6    767279.410 6    598569.99648  20871770.48548
  25074008.974 2      3010.703 2                
  24451395.97411                                
  23657470.528 5  -3318785.277 5  -1755630.99246  23657467.11446
  21389351.208 7   3491418.793 7   2714599.36748  21389352.36848
  21944139.021 6  -4918680.398 6  -3812380.12947  21944139.73947
  22163907.286 7   2494943.559 7   1937314.49648  22163904.59548
  24084932.544 5   7419477.699 5   5660917.17246  24084933.63046
 18  5 30  0 55 15.0010000  0 10G03G14G16G21G22G23G26G27G31G32       0.000031952
  24361836.411 5   2761584.922 5   2140591.91447  24361838.12647
  21600689.317 6   4744590.898 6   3688306.97348  21600686.37248
  20872629.450 6    771776.887 6    602074.51248  20872626.38448
  25074051.731 2      3239.086 2                
  24453602.38011   3770604.94911                
  23655317.200 5  -3330098.414 5  -1764446.40646  23655313.68146
  21391439.028 7   3502389.316 7   2723147.80148  21391440.01348
  21941946.427 6  -4930202.320 6  -3821358.24648  21941946.82548
  22165415.958 7   2502873.070 7   1943493.33248  22165413.04048
  24089055.349 4   7441145.691 4   5677801.31346  24089056.70046
 18  5 30  0 55 20.0010000  0 10G03G14G16G21G22G23G26G27G31G32       0.000034460
  24363682.544 5   2771287.664 5   2148152.51246  24363684.00946
  21603675.896 6   4760282.797 6   3700534.42647  21603672.56747
  20873487.747 6    776285.949 6    605588.06348  20873484.59948
  25074095.771 1      3475.004 1                
  24455808.911 2   3782200.148 2                
  23653166.263 5  -3341402.676 5  -1773254.91047  23653162.98547
  21393528.161 7   3513366.254 7   2731701.26248  21393528.86848
  21939755.458 6  -4941713.180 6  -3830327.73848  21939755.85348
  22166926.177 6   2510808.754 6   1949676.97748  22166923.23948
  24093179.317 5   7462819.785 5   5694690.16846  24093180.82546
 18  5 30  0 55 25.0010000  0 10G03G14G16G21G22G23G26G27G31G32       0.000036970
  24365531.247 5   2781000.137 5   2155720.65646  24365532.52846
  21606664.216 6   4775988.238 6   3712772.42647  21606661.76747
  20874347.849 6    780806.281 6    609110.39548  20874344.86848
  25074141.778 1      3718.141 1                
  24458015.724 2   3793800.117 2                
  23651017.083 5  -3352698.367 5  -1782056.74647  23651013.68547
  21395617.802 7   3524349.262 7   2740259.43048  21395618.64948
  21937567.239 6  -4953213.289 6  -3839288.85948  21937567.39948
  22168437.411 7   2518750.223 7   1955865.13348  22168434.08348
  24097304.474 5   7484499.590 5   5711583.52746  24097305.99346
 18  5 30  0 55 30.0010000  0 10G03G14G16G21G22G23G26G27G31G32       0.000039480
  24367381.286 5   2790722.285 5   2163296.36746  24367382.40746
  21609655.356 6   4791707.148 6   3725020.92247  21609652.92747
  20875210.036 6    785337.770 6    612641.41848  20875206.81748
  25074188.208 1      3968.344 1                
  24460225.200 2   3805404.676 2                
  23648869.005 5  -3363985.660 5  -1790852.05946  23648865.91146
  21397709.255 7   3535338.230 7   2748822.26248  21397709.50948
  21935380.286 6  -4964702.668 6  -3848241.61748  21935381.06048
  22169949.763 7   2526697.402 7   1962057.73048  22169946.32948
  24101431.591 4   7506184.953 4   5728481.17246  24101433.41946
 18  5 30  0 55 35.0010000  0 10G03G14G16G21G22G23G26G27G31G32       0.000041990
  24369233.310 5   2800454.180 5   2170879.66046  24369233.70046
  21612648.747 6   4807439.625 6   3737279.97747  21612646.79447
  20876074.669 6    789880.543 6    616181.24248  20876071.44248
  25074241.419 1      4225.879 1                
  24462434.724 1   3817013.961 1                
  23646723.122 5  -3375264.355 5  -1799640.66446  23646719.46646
  21399801.411 7   3546333.332 7   2757389.87548  21399802.07148
  21933196.083 6  -4976181.219 6  -3857185.94148  21933196.82948
  22171463.302 7   2534650.449 7   1968254.91048  22171460.02848
  24105559.989 4   7527876.109 4   5745383.35546  24105561.07946
 18  5 30  0 55 40.0010000  0 10G03G14G16G21G22G23G26G27G31G32       0.000044502
  24371086.771 5   2810196.273 5   2178470.87946  24371087.71646
  21615645.528 6   4823186.105 6   3749549.96947  21615643.06347
  20876941.388 6    794435.031 6    619730.19148  20876937.99348
  25074290.497 1      4491.141 1                
  24464647.32511   3828628.44111                
  23644577.708 4  -3386533.895 4  -1808422.11346  23644574.76346
  21401895.372 7   3557334.961 7   2765962.56648  21401895.60648
  21931014.317 6  -4987648.484 6  -3866121.47348  21931014.61448
  22172978.239 7   2542609.848 7   1974457.02348  22172974.49348
  24109687.536 3   7549573.402 3   5762290.27746  24109688.86846
 18  5 30  0 55 45.0010000  0 10G03G14G16G21G22G23G26G27G31G32       0.000047016
  24372942.271 5   2819947.930 5   2186069.57047  24372943.00947
  21618644.505 6   4838945.969 6   3761830.36747  21618642.27447
  20877809.888 6    799000.664 6    623287.82848  20877807.00548
  25074342.028 1      4763.508 1                
  24466855.16111   3840247.52711                
  23642435.396 5  -3397795.012 5  -1817197.01246  23642431.98946
  21403989.817 7   3568342.520 7   2774539.88748  21403990.53648
  21928834.169 6  -4999104.980 6  -3875048.62148  21928834.49348
  22174493.794 7   2550574.930 7   1980663.57848  22174490.84148
  24113817.481 3   7571276.285 3   5779201.62546  24113819.13046
 18  5 30  0 55 50.0010000  0 10G03G14G16G21G22G23G26G27G31G32       0.000049532
  24374799.271 6   2829709.754 6   2193676.17646  24374800.16146
  21621646.208 6   4854719.840 6   3774121.68447  21621643.89647
  20878681.153 6    803578.000 6    626854.58648  20878678.18848
  25074395.591 1      5043.570 1                
  24469066.396 1   3851871.730 1                
  23640294.349 5  -3409047.012 5  -1825964.78146  23640290.93146
  21406085.286 7   3579356.594 7   2783122.27748  21406086.63448
  21926656.528 6  -5010550.230 6  -3883966.99648  21926656.35348
  22176010.544 7   2558546.434 7   1986875.13348  22176007.46248
  24117948.036 4   7592985.309 4   5796117.75446  24117950.16546
 18  5 30  0 55 55.0010000  0 10G03G14G16G21G22G23G26G27G31G32       0.000052046
  24376659.005 5   2839481.613 5   2201290.59046  24376659.92746
  21624650.513 6   4870507.664 6   3786423.89147  21624648.42347
  20879553.911 6    808166.992 6    630430.41848  20879550.98148
  25074449.716 1      5331.352 1                
  24471280.356 1   3863501.141 1                
  23638154.802 5  -3420289.965 5  -1834725.56346  23638151.43146
  21408182.786 7   3590377.129 7   2791709.71148  21408183.27848
  21924480.489 6  -5021984.129 6  -3892876.53148  21924480.50948
  22177528.966 7   2566524.188 7   1993091.56648  22177525.75148
  24122080.583 4   7614700.398 4   5813038.57046  24122082.37246
 18  5 30  0 56  0.0010000  0 10G03G14G16G21G22G23G26G27G31G32       0.000054564
  24378520.185 5   2849263.488 5   2208912.84446  24378521.41146
  21627657.161 6   4886309.309 6   3798736.85248  21627655.29848
  20880429.583 6    812767.508 6    634015.23848  20880426.51748
  25074505.380 1      5626.676 1                
  24473495.599 1   3875135.414 1                
  23636016.521 5  -3431523.906 5  -1843479.27347  23636013.77147
  21410280.911 7   3601403.949 7   2800302.05548  21410281.82548
  21922307.216 6  -5033406.930 6  -3901777.41047  21922306.84947
  22179048.021 7   2574508.016 7   1999312.71948  22179045.59548
  24126213.450 4   7636421.434 4   5829964.03546  24126215.75946
 18  5 30  0 56  5.0010000  0 10G03G14G16G21G22G23G26G27G31G32       0.000057077
  24380383.935 6   2859055.246 6   2216542.77347  24380385.04047
  21630666.974 6   4902124.621 6   3811060.46147  21630665.27847
  20881307.130 6    817379.387 6    637608.91448  20881304.05248
  25074562.98911                                
  24475711.114 1   3886774.547 1                
  23633881.302 5  -3442749.121 5  -1852226.16846  23633878.12246
  21412380.130 7   3612436.930 7   2808899.17648  21412381.11448
  21920135.505 6  -5044818.688 6  -3910669.68447  21920134.69247
  22180568.294 7   2582497.813 7   2005538.53548  22180565.89248
  24130349.294 4   7658148.246 4   5846894.00246  24130350.83346
 18  5 30  0 56 10.0010000  0 10G03G14G16G21G22G23G26G27G31G32       0.000059599
  24382249.099 6   2868856.688 6   2224180.25446  24382249.87646
  21633679.161 6   4917953.477 6   3823394.62147  21633677.35647
  20882187.052 6    822002.555 6    641211.36748  20882183.83348
  25074621.62211      6239.67211                
  24477927.552 1   3898418.379 1                
  23631747.208 6  -3453965.480 6  -1860966.16047  23631743.46647
  21414480.927 7   3623476.004 7   2817501.06348  21414481.85348
  21917966.888 6  -5056219.402 6  -3919553.35248  21917966.09948
  22182090.005 7   2590493.582 7   2011768.98048  22182086.93148
  24134483.950 4   7679880.781 4   5863828.43446  24134485.86046
 18  5 30  0 56 15.0010000  0 10G03G14G16G21G22G23G26G27G31G32       0.000062119
  24384116.685 6   2878667.676 6   2231825.17647  24384117.37647
  21636694.013 6   4933795.719 6   3835739.22347  21636692.31047
  20883068.692 6    826636.844 6    644822.51648  20883065.92348
  25074683.497 1      6557.121 1                
  24480144.427 1   3910066.785 1                
  23629614.106 6  -3465173.238 6  -1869699.51646  23629610.50946
  21416583.146 7   3634521.012 7   2826107.56348  21416583.82948
  21915798.794 6  -5067609.344 6  -3928428.62947  21915798.29047
  22183612.763 6   2598495.059 6   2018003.88348  22183610.00148
  24138621.802 5   7701618.871 5   5880767.13746  24138622.60646
 18  5 30  0 56 20.0010000  0 10G03G14G16G21G22G23G26G27G31G32       0.000064636
  24385985.622 6   2888488.555 6   2239477.78947  24385986.44247
  21639711.653 6   4949651.711 6   3848094.54347  21639709.07547
  20883952.903 6    831282.602 6    648442.56648  20883949.51748
  25074744.692 1      6882.141 1                
  24482359.64611   3921720.12511                
  23627483.521 5  -3476371.996 5  -1878425.80946  23627479.17346
  21418686.052 7   3645572.289 7   2834718.95748  21418687.01748
  21913633.067 6  -5078988.059 6  -3937295.14148  21913633.75948
  22185136.231 6   2606502.691 6   2024243.61748  22185133.65748
  24142758.403 4   7723362.836 4   5897710.51646  24142760.32946
 18  5 30  0 56 25.0010000  0  9G03G14G16G21G23G26G27G31G32          0.000067158
  24387856.747 6   2898319.715 6   2247138.42647  24387857.50147
  21642731.005 6   4965521.797 6   3860460.84047  21642729.22447
  20884838.950 6    835940.184 6    652071.85548  20884835.97848
  25074809.653 1      7215.188 1       177.74256  25074805.96256
  23625354.044 5  -3487561.375 5  -1887144.80547  23625350.48547
  21420790.075 7   3656630.207 7   2843335.52048  21420791.29448
  21911469.802 6  -5090355.180 6  -3946152.63348  21911469.95048
  22186661.544 7   2614516.863 7   2030488.41848  22186658.58748
  24146896.630 4   7745113.109 4   5914658.71546  24146898.85346
 18  5 30  0 56 30.0010000  0  9G03G14G16G21G23G26G27G31G32          0.000069681
  24389729.216 6   2908161.344 6   2254807.21147  24389730.16547
  21645754.052 6   4981406.227 6   3872838.31347  21645752.14947
  20885727.958 6    840609.816 6    655710.52048  20885724.69648
  25074872.271 1      7556.410 1       443.64846  25074871.65346
  23623226.122 5  -3498741.195 5  -1895856.34447  23623222.67747
  21422895.786 7   3667694.934 7   2851957.37548  21422897.00548
  21909309.013 6  -5101710.492 6  -3955000.92648  21909309.25548
  22188187.849 7   2622537.766 7   2036738.46948  22188185.13048
  24151037.380 3   7766869.734 3   5931611.93846  24151039.95846
 18  5 30  0 56 35.0010000  0  9G03G14G16G21G23G26G27G31G32          0.000072203
  24391604.958 6   2918013.125 6   2262483.90647  24391605.14647
  21648778.974 6   4997304.676 6   3885226.71147  21648777.32147
  20886618.771 6    845291.180 6    659358.33248  20886615.53248
  25074939.23111                       715.87555  25074938.48955
  23621101.630 6  -3509911.789 6  -1904560.69147  23621096.64947
  21425002.364 7   3678766.203 7   2860584.34448  21425003.47848
  21907150.224 6  -5113054.246 6  -3963840.21148  21907150.69648
  22189715.356 7   2630565.133 7   2042993.57048  22189712.73948
  24155178.849 4   7788632.551 4   5948569.92246  24155181.18846
 18  5 30  0 56 40.0010000  0  9G03G14G16G21G23G26G27G31G32          0.000074728
  24393480.599 6   2927874.513 6   2270168.12147  24393481.13847
  21651807.513 6   5013216.578 6   3897625.59047  21651805.19647
  20887511.560 6    849983.801 6    663014.91448  20887508.44248
  25075010.28614                                
  23618976.583 6  -3521073.508 6  -1913258.14547  23618973.35347
  21427110.442 7   3689843.492 7   2869215.99248  21427111.68548
  21904993.591 6  -5124386.930 6  -3972670.87548  21904994.52448
  22191243.778 7   2638598.484 7   2049253.30548  22191241.36448
  24159321.403 3   7810400.992 3   5965532.34046  24159323.34546
 18  5 30  0 56 45.0010000  0 10G03G14G16G21G22G23G26G27G31G32       0.000077261
  24395359.349 6   2937745.891 6   2277860.06647  24395360.52147
  21654837.755 6   5029142.207 6   3910035.16047  21654836.04047
  20888407.122 6    854687.949 6    666680.47348  20888403.33348
  25075076.427 2      8624.520 2                
  24493464.41911      7014.19911                
  23616854.794 6  -3532226.137 6  -1921948.51647  23616851.19247
  21429218.997 7   3700927.066 7   2877852.53548  21429220.45448
  21902838.903 6  -5135708.336 6  -3981492.75448  21902839.96248
  22192774.036 7   2646637.992 7   2055517.86348  22192770.98548
  24163465.29413   7832175.28913   5982499.26656  24163467.19656
 18  5 30  0 56 50.0010000  0 10G03G14G16G21G22G23G26G27G31G32       0.000079790
  24397240.396 6   2947626.914 6   2285559.59447  24397241.39247
  21657870.763 6   5045081.375 6   3922455.28947  21657868.49747
  20889304.817 6    859403.359 6    670354.81648  20889300.69648
  25075147.481 1      8996.426 1                
  24495688.310 1     18697.582 1                
  23614734.396 5  -3543369.914 5  -1930631.97346  23614730.08746
  21431329.661 7   3712016.746 7   2886493.83648  21431330.84548
  21900686.942 6  -5147018.563 6  -3990305.90248  21900687.47848
  22194304.849 7   2654683.551 7   2061787.12548  22194302.35348
  24167609.403 3   7853955.297 3   5999470.71946  24167611.63046
 18  5 30  0 56 55.0010000  0 10G03G14G16G21G22G23G26G27G31G32       0.000082317
  24399121.521 6   2957517.695 6   2293266.68047  24399123.70847
  21660906.278 6   5061034.148 6   3934886.01247  21660904.70847
  20890203.942 6    864130.066 6    674037.96148  20890200.43848
  25075219.239 1      9375.773 1                
  24497909.544 1     30385.645 1                
  23612615.044 5  -3554504.680 5  -1939308.40246  23612610.98946
  21433441.146 7   3723112.527 7   2895139.89148  21433442.04048
  21898536.950 6  -5158317.563 6  -3999110.32847  21898537.43147
  22195836.786 7   2662735.156 7   2068061.09448  22195833.85348
  24171754.880 4   7875740.965 4   6016446.55946  24171757.94646
 18  5 30  0 57  0.0010000  0 10G03G14G16G21G22G23G26G27G31G32       0.000084846
  24401005.442 6   2967417.969 6   2300981.18847  24401006.97047
  21663944.856 6   5077000.340 6   3947327.20347  21663942.56047
  20891105.458 6    868867.891 6    677729.76648  20891101.61848
  25075292.935 2      9762.535 2                
  24500134.591 1     42078.230 1                
  23610498.513 5  -3565630.664 5  -1947977.98847  23610494.05247
  21435553.927 7   3734214.234 7   2903790.56348  21435554.75548
  21896389.028 6  -5169605.582 6  -4007906.19947  21896389.55647
  22197370.419 7   2670792.625 7   2074339.64848  22197367.66148
  24175902.036 4   7897532.102 4   6033426.64146  24175904.67746
 18  5 30  0 57  5.0010000  0 10G03G14G16G21G22G23G26G27G31G32       0.000087378
  24402891.700 6   2977328.203 6   2308703.45747  24402892.66547
  21666985.638 6   5092980.418 6   3959779.19547  21666983.45047
  20892009.177 6    873617.262 6    681430.58248  20892005.77848
  25075366.856 2     10157.211 2                
  24502360.231 1     53775.699 1                
  23608382.286 6  -3576747.410 6  -1956640.37147  23608378.72847
  21437667.833 7   3745322.316 7   2912446.21548  21437668.93548
  21894243.286 6  -5180882.059 6  -4016693.05947  21894243.33747
  22198904.521 7   2678856.441 7   2080623.14548  22198901.61048
  24180049.372 4   7919329.262 4   6050411.40646  24180052.12646
 18  5 30  0 57 10.0010000  0 10G03G14G16G21G22G23G26G27G31G32       0.000089909
  24404779.239 6   2987248.387 6   2316433.46947  24404780.75147
  21670029.302 6   5108974.289 6   3972241.93447  21670026.95447
  20892915.372 6    878378.168 6    685140.37548  20892911.29448
  25075445.271 1     10559.688 1      1100.50055  25075445.47455
  24504586.372 1     65478.117 1                
  23606268.825 6  -3587854.934 6  -1965295.59446  23606264.98946
  21439782.755 7   3756436.730 7   2921106.81348  21439783.32548
  21892099.700 6  -5192147.086 6  -4025471.01247  21892100.33347
  22200440.091 7   2686926.605 7   2086911.58648  22200437.25948
  24184198.935 5   7941132.297 5   6067400.77346  24184200.89246
 18  5 30  0 57 15.0010000  0 10G03G14G16G21G22G23G26G27G31G32       0.000092440
  24406669.271 6   2997178.008 6   2324170.82847  24406670.23547
  21673075.544 6   5124981.469 6   3984715.05147  21673073.29847
  20893823.544 7    883150.152 7    688858.80548  20893819.27148
  25075522.466 2     10969.512 2      1419.82845  25075524.03645
  24506814.106 1     77184.973 1                
  23604157.192 6  -3598953.691 6  -1973943.97746  23604153.50546
  21441898.942 7   3767556.980 7   2929771.94148  21441899.81048
  21889958.583 6  -5203401.059 6  -4034240.34447  21889958.15747
  22201977.310 7   2695002.613 7   2093204.56648  22201974.49348
  24188349.013 5   7962940.750 5   6084394.37546  24188350.98946
 18  5 30  0 57 20.0010000  0 10G03G14G16G21G22G23G26G27G31G32       0.000094973
  24408560.442 6   3007116.516 6   2331915.10947  24408561.44247
  21676123.763 6   5141001.461 6   3997198.14847  21676121.60347
  20894733.294 6    887932.605 6    692585.39548  20894729.63448
  25075603.091 2     11386.211 2      1744.52346  25075603.89246
  24509043.692 1     88895.742 1                
  23602046.599 6  -3610044.219 6  -1982585.94146  23602042.37646
  21444015.841 7   3778682.504 7   2938441.18448  21444016.59948
  21887818.888 6  -5214644.551 6  -4043001.50848  21887819.04048
  22203515.606 7   2703083.918 7   2099501.69548  22203512.53248
  24192499.646 5   7984754.090 5   6101391.71946  24192502.03246
 18  5 30  0 57 25.0010000  0 10G03G14G16G21G22G23G26G27G31G32       0.000097507
  24410453.138 6   3017064.379 6   2339666.69947  24410454.18147
  21679174.896 6   5157034.641 6   4009691.52747  21679172.98547
  20895645.349 6    892726.008 6    696320.50448  20895641.74348
  25075683.950 2     11810.152 2      2074.85946  25075684.62646
  24511274.435 1    100610.805 1                
  23599937.372 6  -3621126.008 6  -1991221.10547  23599934.13047
  21446134.036 7   3789813.797 7   2947114.91848  21446135.20848
  21885681.341 6  -5225877.098 6  -4051754.13348  21885681.14248
  22205054.177 7   2711171.039 7   2105803.34848  22205051.32148
  24196651.716 5   8006572.711 5   6118393.24646  24196654.07946
 18  5 30  0 57 30.0010000  0 10G03G14G16G21G22G23G26G27G31G32       0.000100040
  24412347.075 6   3027021.281 6   2347425.32847  24412348.84947
  21682228.192 6   5173080.789 6   4022195.01647  21682226.21647
  20896559.935 6    897530.105 6    700063.95348  20896555.91948
  25075765.552 3     12241.227 3      2410.76646  25075766.36446
  24513503.989 1    112329.988 1                
  23597830.138 6  -3632199.359 6  -1999849.69546  23597826.82546
  21448253.247 7   3800950.547 7   2955792.90248  21448254.21248
  21883545.700 6  -5237098.926 6  -4060498.41448  21883546.14948
  22206593.810 7   2719263.684 7   2112109.30148  22206591.60648
  24200804.372 5   8028396.406 5   6135398.70746  24200807.27446
 18  5 30  0 57 35.0010000  0 10G03G14G16G21G22G23G26G27G31G32       0.000102577
  24414243.716 6   3036987.445 6   2355191.17247  24414245.71247
  21685284.638 6   5189140.027 6   4034708.70347  21685282.38447
  20897475.911 7    902345.043 7    703815.84048  20897472.59148
  25075849.669 3     12679.527 3      2752.28546  25075849.75546
  24515734.958 1    124053.367 1                
  23595724.731 6  -3643263.996 6  -2008471.47346  23595721.20846
  21450373.583 7   3812092.969 7   2964475.31348  21450374.91548
  21881412.239 6  -5248309.816 6  -4069234.16848  21881412.84148
  22208135.161 6   2727362.039 6   2118419.70748  22208132.53248
  24204958.302 5   8050225.316 5   6152408.20746  24204960.94246
 18  5 30  0 57 40.0010000  0 10G03G14G16G21G22G23G26G27G31G32       0.000105112
  24416142.224 6   3046962.934 6   2362964.29347  24416143.60647
  21688342.521 6   5205212.508 6   4047232.70748  21688341.13848
  20898394.208 7    907170.969 7    707576.30548  20898390.38048
  25075933.825 3     13125.230 3      3099.61346  25075934.32946
  24517965.07511    135781.06611                
  23593620.997 6  -3654319.867 6  -2017086.43447  23593616.89647
  21452495.396 7   3823241.156 7   2973162.20348  21452496.07548
  21879281.349 6  -5259509.680 6  -4077961.32848  21879281.10648
  22209677.091 6   2735466.246 6   2124734.67648  22209674.18848
  24209113.294 5   8072059.578 5   6169421.91845  24209115.88845
 18  5 30  0 57 45.0010000  0 10G03G14G16G21G22G23G26G27G31G32       0.000107647
  24418042.966 6   3056948.082 6   2370744.89847  24418043.56347
  21691404.036 6   5221298.527 6   4059767.26247  21691402.66547
  20899314.849 7    912008.215 7    711345.58648  20899311.65348
  25076020.880 3     13578.613 3      3452.93846  25076020.82946
  24520196.81011                                
  23591518.849 6  -3665366.551 6  -2025694.25047  23591514.98547
  21454617.622 7   3834395.434 7   2981853.84048  21454618.57548
  21877151.692 6  -5270698.141 6  -4086679.60248  21877152.13848
  22211220.552 6   2743576.648 6   2131054.47748  22211218.12248
  24213270.130 5   8093899.441 5   6186439.98446  24213272.20046
 18  5 30  0 57 50.0010000  0  9G03G14G16G21G22G26G27G31G32          0.000110186
  24419944.669 6   3066942.938 6   2378533.10547  24419945.25547
  21694467.833 6   5237398.180 6   4072312.43047  21694466.15747
  20900236.825 6    916856.738 6    715123.63347  20900234.09147
  25076107.599 5     14039.730 5      3812.23846  25076108.45046
  24522430.94211                                
  21456744.185 3   3845556.434 3   2990550.72746  21456742.61846
  21875024.192 6  -5281875.117 6  -4095388.94948  21875025.25548
  22212766.427 5   2751693.379 5   2137379.16047  22212762.46247
  24217428.060 5   8115745.055 5   6203462.53146  24217430.07146
 18  5 30  0 57 55.0010000  0  9G03G14G16G21G23G26G27G31G32          0.000112726
  24421848.161 6   3076947.424 6   2386328.81547  24421849.27447
  21697533.638 6   5253511.156 6   4084867.98848  21697532.31048
  20901162.302 7    921716.520 7    718910.50448  20901159.13048
  25076197.177 4     14508.410 4      4177.49246  25076197.39646
  23587320.32516     -7056.52016  -2033948.46357  23587313.50557
  21458866.05217   3856722.17217   2999251.30958  21458866.95858
  21872900.372 6  -5293040.875 6  -4104089.51648  21872900.70848
  22214310.349 7   2759815.906 7   2143708.42248  22214308.04048
  24221585.919 5   8137596.039 5   6220489.22346  24221587.84946
 18  5 30  0 58  0.0010000  0 10G03G14G16G21G22G23G26G27G31G32       0.000115269
  24423753.833 6   3086961.484 6   2394131.97346  24423754.68546
  21700602.669 6   5269637.871 6   4097434.25448  21700601.17748
  20902088.950 7    926587.723 7    722706.26248  20902085.90748
  25076286.716 4     14985.191 4      4548.96146  25076288.14646
  24526900.72411    182743.17211                
  23585222.622 6    -18075.605 6  -2042534.78947  23585219.21647
  21460992.021 7   3867894.746 7   3007957.20348  21460993.31348
  21870777.239 6  -5304195.031 6  -4112781.06648  21870777.94648
  22215857.435 7   2767944.969 7   2150042.74648  22215855.21648
  24225744.856 5   8159452.906 5   6237520.53146  24225746.84146
 18  5 30  0 58  5.0010000  0 10G03G14G16G21G22G23G26G27G31G32       0.000117807
  24425661.372 6   3096985.098 6   2401942.57447  24425662.11847
  21703674.435 6   5285777.996 6   4110010.96147  21703672.88047
  20903018.075 6    931469.992 6    726510.60948  20903015.01348
  25076379.091 5     15469.516 5      4926.38346  25076379.81746
  24529135.700 1    194493.953 1                
  23583128.013 6    -29085.652 6  -2051114.05547  23583124.16547
  21463119.349 7   3879073.238 7   3016667.72348  21463120.16548
  21868656.614 6  -5315337.820 6  -4121463.76248  21868657.53248
  22217405.310 7   2776080.074 7   2156381.79348  22217403.04848
  24229904.028 5   8181315.227 5   6254556.07446  24229907.00146
 18  5 30  0 58 10.0010000  0 10G03G14G16G21G22G23G26G27G31G32       0.000120350
  24427570.380 6   3107018.438 6   2409760.73847  24427571.03647
  21706748.271 7   5301931.719 7   4122598.27347  21706746.38047
  20903949.606 6    936363.629 6    730323.83248  20903946.39248
  25076472.380 4     15961.699 4      5309.89146  25076473.44246
  24531370.271 1    206249.406 1                
  23581034.958 6    -40086.430 6  -2059686.07447  23581030.78647
  21465247.903 7   3890257.879 7   3025383.02048  21465248.71248
  21866538.364 6  -5326469.105 6  -4130137.48448  21866539.39648
  22218954.622 7   2784221.492 7   2162725.75048  22218952.45448
  24234065.466 5   8203183.160 5   6271596.00846  24234068.13046
 18  5 30  0 58 15.0010000  0  9G03G14G16G21G23G26G27G31G32          0.000122890
  24429481.575 6   3117060.813 6   2417585.97346  24429481.84546
  21709824.810 7   5318098.398 7   4135195.66448  21709822.97048
  20904882.942 7    941267.949 7    734145.36348  20904879.61848
  25076567.302 4     16461.117 4      5699.05546  25076568.03246
  23578943.052 6    -51078.512 6  -2068251.35247  23578939.27447
  21467377.192 7   3901447.969 7   3034102.57048  21467378.13048
  21864423.052 6  -5337589.434 6  -4138802.68848  21864423.57548
  22220505.185 7   2792368.563 7   2169074.11748  22220502.66548
  24238228.419 5   8225056.156 5   6288639.87946  24238230.48946
 18  5 30  0 58 20.0010000  0  9G03G14G16G21G23G26G27G31G32          0.000125433
  24431394.638 6   3127112.195 6   2425418.23046  24431394.28646
  21712903.653 7   5334277.957 7   4147803.11347  21712901.84947
  20905818.325 7    946182.902 7    737975.19948  20905815.18148
  25076664.122 3     16967.750 3      6093.85946  25076664.18146
  23576852.778 6    -62061.941 6  -2076809.86747  23576849.09547
  21469507.927 7   3912643.508 7   3042826.37148  21469508.91548
  21862308.708 6  -5348698.914 6  -4147459.42648  21862309.15348
  22222056.856 7   2800521.242 7   2175426.85948  22222054.57148
  24242391.669 4   8246934.086 4   6305687.58246  24242393.84546
 18  5 30  0 58 25.0010000  0  9G03G14G16G21G23G26G27G31G32          0.000127977
  24433308.646 6   3137172.230 6   2433257.20347  24433308.91547
  21715984.661 6   5350470.074 6   4160420.34047  21715982.73147
  20906755.708 7    951108.219 7    741813.12148  20906752.85348
  25076761.317 3     17481.285 3      6494.03946  25076761.70446
  23574763.872 6    -73037.070 6  -2085361.92247  23574760.47447
  21471639.083 7   3923844.141 7   3051554.12948  21471639.90348
  21860196.794 6  -5359797.754 6  -4156107.88348  21860197.39248
  22223608.911 7   2808679.207 7   2181783.72348  22223606.70848
  24246557.146 5   8268816.691 5   6322738.94946  24246557.54446
 18  5 30  0 58 30.0010000  0  9G03G14G16G21G23G26G27G31G32          0.000130522
  24435224.989 6   3147240.875 6   2441102.87546  24435224.91546
  21719068.317 7   5366674.738 7   4173047.34847  21719066.97047
  20907693.802 7    956043.781 7    745659.01648  20907691.57148
  25076861.544 4     18001.668 4      6899.50046  25076860.82146
  23572677.442 6    -84003.859 6  -2093907.48047  23572673.20847
  21473771.927 7   3935049.863 7   3060285.86348  21473772.11048
  21858086.989 6  -5370886.082 6  -4164748.13348  21858086.88848
  22225162.919 7   2816842.512 7   2188144.73448  22225160.11448
  24250721.411 4   8290703.836 4   6339793.85945  24250722.82945
 18  5 30  0 58 35.0010000  0  9G03G14G16G21G23G26G27G31G32          0.000133066
  24437142.474 6   3157318.262 6   2448955.39146  24437142.56346
  21722154.560 6   5382892.023 6   4185684.18047  21722153.00947
  20908635.435 7    960989.820 7    749513.05948  20908632.43848
  25076961.528 3     18529.117 3      7310.51246  25076960.77446
  23570591.771 6    -94962.211 6  -2102446.44947  23570588.11047
  21475904.958 7   3946260.801 7   3069021.65248  21475905.62648
  21855979.153 6  -5381963.664 6  -4173380.02348  21855979.04848
  22226717.302 7   2825011.203 7   2194509.94948  22226715.00148
  24254886.981 5   8312595.762 5   6356852.49246  24254888.42346
 18  5 30  0 58 40.0010000  0  9G03G14G16G21G23G26G27G31G32          0.000135612
  24439062.239 6   3167404.484 6   2456814.77346  24439061.78646
  21725242.333 6   5399122.074 6   4198330.97347  21725240.87647
  20909579.153 7    965946.348 7    753375.27748  20909575.64648
  25077063.856 2     19063.648 2      7727.02746  25077062.44646
  23568508.731 6   -105911.977 6  -2110978.73847  23568504.61447
  21478039.356 7   3957477.016 7   3077761.56348  21478039.74748
  21853872.974 6  -5393030.446 6  -4182003.47847  21853873.04447
  22228272.716 7   2833185.395 7   2200879.43848  22228270.23148
  24259052.841 5   8334492.453 5   6373914.82046  24259055.38846
 18  5 30  0 58 45.0010000  0 10G03G14G16G21G22G23G26G27G31G32       0.000138159
  24440983.044 6   3177499.426 6   2464680.96946  24440983.18146
  21728333.630 6   5415364.766 6   4210987.60547  21728331.78247
  20910524.231 7    970913.238 7    757245.58648  20910520.99748
  25077166.958 3     19605.156 3      8149.00446  25077165.56046
  24547055.91112     23097.53112                
  23566426.497 6   -116853.270 6  -2119504.42247  23566422.64647
  21480174.872 7   3968698.395 7   3086505.49648  21480175.17748
  21851768.646 6  -5404086.445 6  -4190618.53148  21851769.13048
  22229829.278 7   2841364.992 7   2207253.14848  22229827.15748
  24263221.489 4   8356393.895 4   6390980.87545  24263222.97045
 18  5 30  0 58 50.0010000  0 10G03G14G16G21G22G23G26G27G31G32       0.000140707
  24442905.567 6   3187603.262 6   2472554.07846  24442905.89946
  21731426.786 6   5431620.320 6   4223654.27347  21731425.09947
  20911471.356 7    975890.688 7    761124.10548  20911467.86048
  25077271.591 3     20153.891 3      8576.61345  25077269.88845
  24549298.122 3     34883.313 3                
  23564345.856 6   -127785.832 6  -2128023.30947  23564342.35347
  21482311.044 7   3979925.168 7   3095253.62548  21482311.70048
  21849667.294 6  -5415131.539 6  -4199225.09048  21849667.34948
  22231386.794 7   2849550.172 7   2213631.21148  22231384.52148
  24267389.505 5   8378300.160 5   6408050.64545  24267391.25545
 18  5 30  0 58 55.0010000  0 10G03G14G16G21G22G23G26G27G31G32       0.000143255
  24444830.083 6   3197715.895 6   2480434.03946  24444830.82146
  21734522.450 6   5447888.648 6   4236330.87947  21734520.42747
  20912420.388 7    980878.656 7    765010.82848  20912417.25148
  25077376.060 2     20709.930 2      9009.92646  25077375.70446
  24551543.349 2     46672.980 2                
  23562267.310 6   -138709.809 6  -2136535.48047  23562263.80247
  21484448.271 7   3991157.258 7   3104005.90248  21484449.31348
  21847567.091 6  -5426165.660 6  -4207823.10548  21847567.74348
  22232945.466 7   2857740.961 7   2220013.64848  22232943.56748
  24271559.185 5   8400211.289 5   6425124.23045  24271560.38445
 18  5 30  0 59  0.0010000  0 10G03G14G16G21G22G23G26G27G31G32       0.000145803
  24446756.817 6   3207837.488 6   2488320.98046  24446756.55246
  21737620.927 6   5464169.836 6   4249017.51247  21737618.73547
  20913371.466 7    985877.258 7    768905.83648  20913368.39948
  25077483.466 2     21273.254 2      9448.88346  25077483.40346
  24553789.552 2     58466.527 2                
  23560190.403 6   -149625.023 6  -2145040.87547  23560186.49347
  21486586.950 7   4002394.762 7   3112762.39548  21486587.66548
  21845469.700 6  -5437188.793 6  -4216412.55547  21845469.59147
  22234505.036 7   2865937.422 7   2226400.49248  22234503.44648
  24275729.231 4   8422127.305 4   6442201.59046  24275731.56346
 18  5 30  0 59  5.0010000  0 10G03G14G16G21G22G23G26G27G31G32       0.000148350
  24448684.146 6   3217968.379 6   2496215.17246  24448684.34946
  21740721.880 6   5480464.211 6   4261714.41847  21740720.04047
  20914324.958 6    990886.816 6    772809.39548  20914321.62248
  25077591.38011                      9893.81656  25077591.84956
  24556033.747 1     70264.242 1                
  23558114.653 6   -160531.055 6  -2153539.07447  23558111.13847
  21488726.661 7   4013638.004 7   3121523.35948  21488727.24748
  21843373.122 6  -5448200.492 6  -4224993.08647  21843374.10347
  22236065.935 7   2874139.863 7   2232792.00848  22236063.93848
  24279901.028 4   8444048.570 4   6459283.06645  24279902.97045
 18  5 30  0 59 10.0010000  0 10G03G14G16G21G22G23G26G27G31G32       0.000150904
  24450614.263 6   3228108.797 6   2504116.80947  24450613.96647
  21743825.091 6   5496772.086 6   4274421.84047  21743822.74747
  20915280.583 6    995907.605 6    776721.71148  20915277.02848
  25077702.927 4     22423.188 4     10344.89846  25077702.79046
  24558282.458 1     82066.465 1                
  23556040.989 6   -171427.785 6  -2162030.02747  23556037.25547
  21490867.161 7   4024887.238 7   3130288.99648  21490867.93148
  21841280.599 6  -5459200.566 6  -4233564.56647  21841280.45847
  22237628.255 7   2882348.660 7   2239188.46948  22237625.73148
  24284074.216 5   8465975.332 5   6476368.87545  24284075.84545
 18  5 30  0 59 15.0010000  0 10G03G14G16G21G22G23G26G27G31G32       0.000153454
  24452545.005 6   3238258.590 6   2512025.72346  24452545.60646
  21746930.591 6   5513093.281 6   4287139.64547  21746929.08347
  20916237.731 7   1000939.488 7    780642.66048  20916234.63848
  25077814.685 4     23009.992 4     10802.18046  25077814.60346
  24560528.692 1     93873.074 1                
  23553969.606 6   -182315.164 6  -2170513.69547  23553965.34547
  21493008.966 7   4036142.391 7   3139059.24648  21493009.25948
  21839189.521 6  -5470188.996 6  -4242126.99248  21839189.72848
  22239191.388 7   2890563.680 7   2245589.77748  22239189.30248
  24288247.192 4   8487907.508 4   6493458.84045  24288249.88045
 18  5 30  0 59 20.0010000  0 10G03G14G16G21G22G23G26G27G31G32       0.000156000
  24454478.099 5   3248417.309 5   2519941.60946  24454478.83746
  21750038.903 6   5529427.324 6   4299867.46147  21750037.16947
  20917197.474 7   1005981.949 7    784571.85248  20917193.92748
  25077927.099 2     23604.031 2     11265.05946  25077927.36846
  24562774.03611                                
  23551899.130 6   -193193.762 6  -2178990.52347  23551895.29847
  21495151.911 7   4047402.902 7   3147833.66848  21495152.51748
  21837100.677 6  -5481166.383 6  -4250680.79747  21837100.82947
  22240755.825 7   2898784.367 7   2251995.51648  22240753.50548
  24292421.341 4   8509844.527 4   6510552.61345  24292424.45845
 18  5 30  0 59 25.0010000  0  9G03G14G16G21G23G26G27G31G32          0.000158552
  24456413.263 5   3258584.746 5   2527864.25046  24456413.88846
  21753150.028 6   5545774.098 6   4312605.19147  21753148.36047
  20918159.099 7   1011034.918 7    788509.23048  20918155.90348
  25078041.450 1     24205.422 1     11733.67245  25078042.43145
  23549831.286 6   -204063.586 6  -2187460.52347  23549826.84147
  21497295.192 7   4058668.715 7   3156612.23048  21497295.87648
  21835013.497 6  -5492132.734 6  -4259226.00447  21835013.70047
  22242321.099 7   2907010.652 7   2258405.61348  22242318.84548
  24296597.552 5   8531786.301 5   6527650.07845  24296600.21645
 18  5 30  0 59 30.0010000  0  9G03G14G16G21G23G26G27G31G32          0.000161106
  24458350.630 6   3268761.301 6   2535794.05947  24458349.77847
  21756262.771 6   5562133.934 6   4325353.11347  21756261.64647
  20919122.536 7   1016098.637 7    792454.98448  20919119.23148
  25078157.724 1     24814.414 1                
  23547764.052 6   -214924.344 6  -2195923.43847  23547760.22047
  21499440.442 7   4069940.137 7   3165395.12948  21499440.80648
  21832929.192 6  -5503087.715 6  -4267762.36747  21832928.79047
  22243887.278 7   2915242.930 7   2264820.37948  22243885.07548
  24300774.146 4   8553733.195 4   6544751.47745  24300776.34545
 18  5 30  0 59 35.0010000  0  9G03G14G16G21G23G26G27G31G32          0.000163656
  24460287.825 5   3278946.398 5   2543730.48946  24460287.97846
  21759378.794 6   5578506.344 6   4338110.82047  21759377.36447
  20920087.560 7   1021172.691 7    796408.78948  20920084.47448
  25078288.23111                                
  23545699.591 6   -225776.441 6  -2204379.64847  23545695.65347
  21501586.411 7   4081216.637 7   3174182.03148  21501586.92748
  21830846.263 6  -5514031.836 6  -4276290.25447  21830846.62247
  22245454.856 7   2923480.637 7   2271239.37948  22245453.04048
  24304951.435 5   8575684.664 5   6561856.52345  24304953.53645
 18  5 30  0 59 40.0010000  0  8G03G14G16G23G26G27G31G32             0.000166210
  24462227.591 6   3289140.320 6   2551673.78146  24462226.99746
  21762496.856 6   5594891.348 6   4350878.34847  21762495.18547
  20921055.169 7   1026257.152 7    800370.71148  20921052.09148
  23543635.630 6   -236619.836 6  -2212829.05547  23543631.72047
  21503733.013 7   4092498.328 7   3182972.94548  21503733.73148
  21828766.481 6  -5524965.031 6  -4284809.62147  21828766.04447
  22247023.771 7   2931723.949 7   2277662.69948  22247021.39648
  24309128.622 4   8597640.781 4   6578965.16045  24309131.47845
 18  5 30  0 59 45.0010000  0  8G03G14G16G23G26G27G31G32             0.000168764
  24464169.169 5   3299342.711 5   2559623.71146  24464168.76746
  21765617.161 6   5611288.859 6   4363655.63347  21765615.81347
  20922025.005 7   1031351.910 7    804340.64848  20922021.77848
  23541573.872 6   -247454.672 6  -2221271.78947  23541570.01347
  21505881.130 7   4103785.066 7   3191767.81348  21505881.64648
  21826688.239 6  -5535887.324 6  -4293320.50047  21826687.58347
  22248593.075 7   2939972.695 7   2284090.30548  22248591.26348
  24313307.810 4   8619601.430 4   6596077.31345  24313311.12245
 18  5 30  0 59 50.0010000  0  9G03G14G16G22G23G26G27G31G32          0.000171320
  24466111.286 5   3309553.941 5   2567580.51246  24466112.14946
  21768739.247 6   5627699.254 6   4376442.94147  21768738.20447
  20922996.583 6   1036457.285 6    808318.85948  20922993.72448
  24576276.05212     27368.90612                
  23539514.005 6   -258280.539 6  -2229707.53947  23539510.29847
  21508029.419 7   4115077.227 7   3200566.89548  21508030.57148
  21824612.271 6  -5546798.313 6  -4301822.54348  21824612.00148
  22250163.911 7   2948227.238 7   2290522.43848  22250162.31348
  24317486.755 2   8641566.934 2   6613193.27345  24317490.64245
 18  5 30  0 59 55.0010000  0  8G03G14G16G23G26G27G31G32             0.000173876
  24468056.981 5   3319774.555 5   2575544.63346  24468057.54046
  21771865.075 6   5644122.906 6   4389240.58247  21771863.46647
  20923969.981 7   1041573.695 7    812305.67248  20923966.73948
  23537455.755 6   -269097.027 6  -2238135.96947  23537451.43547
  21510179.536 7   4126375.180 7   3209370.48448  21510180.43848
  21822537.216 6  -5557697.723 6  -4310315.60548  21822537.75948
  22251736.013 7   2956488.031 7   2296959.41848  22251734.12648
  24321667.989 3   8663537.711 3   6630313.35545  24321671.57945
 18  5 30  1  0  0.0010000  0  8G03G14G16G23G26G27G31G32             0.000176434
  24470003.919 6   3330004.875 6   2583516.31646  24470004.14946
  21774992.786 6   5660560.277 6   4402048.92247  21774991.06347
  20924945.528 6   1046701.551 6    816301.40248  20924942.54448
  23535399.169 6   -279903.582 6  -2246556.63746  23535394.68846
  21512330.802 7   4137679.457 7   3218179.00448  21512331.56348
  21820465.544 6  -5568584.891 6  -4318799.09448  21820466.07548
  22253309.552 7   2964755.547 7   2303401.64148  22253307.27848
  24325851.153 3   8685514.273 3   6647437.91445  24325853.94245
 18  5 30  1  0  5.0010000  0  8G03G14G16G23G26G27G31G32             0.000178991
  24471951.927 5   3340244.730 5   2591495.43046  24471952.84146
  21778123.552 6   5677011.172 6   4414867.78947  21778121.36447
  20925924.403 7   1051840.699 7    820305.93448  20925920.68548
  23533344.575 6   -290700.488 6  -2254969.80547  23533340.15747
  21514482.896 7   4148989.766 7   3226992.24248  21514483.70448
  21818396.286 6  -5579460.137 6  -4327273.30948  21818396.84148
  22254883.786 7   2973029.543 7   2309848.91048  22254882.01348
  24330033.739 3   8707496.301 3   6664566.77345  24330036.97845
 18  5 30  1  0 10.0010000  0 10G03G14G16G21G22G23G26G27G31G32       0.000181555
  24473902.763 5   3350493.625 5   2599481.54747  24473903.28647
  21781256.349 6   5693475.047 6   4427696.78147  21781254.47047
  20926904.044 7   1056990.590 7    824318.82448  20926900.55248
  25079135.02111       880.63311                
  24585288.60611     74749.83211                
  23531291.192 6   -301488.137 6  -2263375.77047  23531287.44247
  21516635.974 7   4160305.645 7   3235809.79348  21516637.20848
  21816328.755 6  -5590323.898 6  -4335738.56648  21816329.18848
  22256459.763 7   2981309.656 7   2316300.94548  22256457.61848
  24334217.942 2   8729483.375 2   6681699.55945  24334221.17745
 18  5 30  1  0 15.0010000  0 10G03G14G16G21G22G23G26G27G31G32       0.000184118
  24475855.106 6   3360751.613 6   2607474.78947  24475855.21647
  21784391.911 6   5709951.969 6   4440535.92247  21784390.00547
  20927885.817 7   1062151.324 7    828340.18048  20927882.54448
  25079263.114 1      1558.504 1                
  24587545.849 1     86604.406 1                
  23529240.825 6   -312266.523 6  -2271774.51647  23529236.63047
  21518790.630 7   4171627.148 7   3244631.75048  21518791.87648
  21814263.380 6  -5601176.086 6  -4344194.81348  21814264.13048
  22258036.403 7   2989595.859 7   2322757.71948  22258034.67748
  24338401.302 3   8751475.520 3   6698836.25845  24338406.02845
 18  5 30  1  0 20.0010000  0 10G03G14G16G21G22G23G26G27G31G32       0.000186676
  24477808.497 5   3371018.188 5   2615474.71147  24477809.33347
  21787529.685 6   5726441.488 6   4453384.89847  21787527.46647
  20928870.216 7   1067322.441 7    832369.60948  20928866.66148
  25079393.880 1      2243.656 1                
  24589799.52811                                
  23527191.63016   -323036.14816  -2279495.47157  23527183.39957
  21520945.989 7   4182953.754 7   3253457.66848  21520947.52448
  21812200.403 6  -5612017.180 6  -4352642.40248  21812201.50948
  22259614.935 7   2997887.613 7   2329218.81348  22259612.43148
  24342588.372 3   8773472.258 3   6715976.49645  24342591.61445
 18  5 30  1  0 25.0010000  0  9G03G14G16G21G23G26G27G31G32          0.000189238
  24479763.935 6   3381293.031 6   2623481.07047  24479764.37247
  21790670.028 6   5742943.234 6   4466243.38747  21790667.73547
  20929856.044 6   1072503.625 6    836406.90648  20929852.83348
  25079525.888 1      2935.867 1                
  23525143.528 6   -333797.227 6  -2287880.68057  23525138.31357
  21523102.458 7   4194285.215 7   3262287.37948  21523103.61048
  21810139.583 6  -5622847.500 6  -4361081.62148  21810140.63448
  22261193.286 7   3006184.656 7   2335684.04348  22261191.06048
  24346776.146 3   8795473.215 3   6733120.07845  24346779.48945
 18  5 30  1  0 30.0010000  0  9G03G14G16G21G23G26G27G31G32          0.000191799
  24481719.935 6   3391576.180 6   2631493.89846  24481720.90346
  21793812.052 6   5759457.250 6   4479111.44947  21793809.98947
  20930844.146 7   1077694.809 7    840451.98448  20930840.50948
  25079659.653 1      3635.152 1                
  23523097.333 6   -344549.773 6  -2296259.30147  23523092.78647
  21525259.583 7   4205621.457 7   3271120.80948  21525261.04448
  21808080.856 6  -5633666.965 6  -4369512.36748  21808081.38448
  22262773.747 7   3014487.004 7   2342153.39848  22262771.10648
  24350962.458 3   8817478.473 3   6750267.02345  24350966.81045
 18  5 30  1  0 35.0010000  0  9G03G14G16G21G23G26G27G31G32          0.000194361
  24483678.919 6   3401867.441 6   2639513.04746  24483679.76746
  21796957.325 6   5775983.363 6   4491988.92647  21796955.34147
  20931833.849 7   1082895.934 7    844504.81348  20931830.06748
  25079794.153 1      4341.328 1                
  23521053.271 6   -355293.695 6  -2304631.19147  23521048.38847
  21527417.856 7   4216962.449 7   3279957.94148  21527418.96248
  21806023.903 6  -5644475.680 6  -4377934.73848  21806024.60348
  22264354.224 7   3022794.559 7   2348626.80948  22264351.34548
  24355150.942 4   8839487.855 4   6767417.20745  24355154.59545
 18  5 30  1  0 40.0010000  0  9G03G14G16G21G23G26G27G31G32          0.000196924
  24485639.005 6   3412166.781 6   2647538.48846  24485639.69646
  21800104.278 6   5792521.535 6   4504875.80147  21800101.96247
  20932825.364 7   1088106.852 7    848565.28148  20932821.68148
  25079928.849 1      5054.344 1                
  23519010.396 6   -366029.301 6  -2312996.59047  23519005.47847
  21529577.052 7   4228308.043 7   3288798.66448  21529578.41148
  21803969.341 6  -5655273.766 6  -4386348.83248  21803969.77448
  22265936.333 7   3031107.223 7   2355104.21148  22265933.55648
  24359340.153 4   8861501.270 4   6784570.54345  24359344.07545
