     2.10           OBSERVATION DATA    GPS(GPS)            RINEX VERSION / TYPE
cnvtToRINEX 2.50.0  convertToRINEX OPR  30-May-18 13:31 UTC PGM / RUN BY / DATE 
----------------------------------------------------------- COMMENT             
GI255                                                       MARKER NAME         
GI255                                                       MARKER NUMBER       
GNSS Observer       Trimble                                 OBSERVER / AGENCY   
0220247377          5700                2.32                REC # / TYPE / VERS 
                    TRM55971.00                             ANT # / TYPE
 -2966058.5559  5005602.4077  2604600.1936                  APPROX POSITION XYZ 
        1.4960        1.4458        1.5308                  ANTENNA: DELTA H/E/N
     1     1     0                                          WAVELENGTH FACT L1/2
     4    C1    L1    L2    P2                              # / TYPES OF OBSERV 
  2018     5    30     0    23   15.0000000     GPS         TIME OF FIRST OBS   
  2018     5    30     1    35   45.0000000     GPS         TIME OF LAST OBS    
     0                                                      RCV CLOCK OFFS APPL 
    17                                                      LEAP SECONDS        
    12                                                      # OF SATELLITES     
   G03   860   859   845   845                              PRN / # OF OBS      
   G08   438   435   436   436                              PRN / # OF OBS      
   G14   871   871   871   871                              PRN / # OF OBS      
   G16   871   871   871   871                              PRN / # OF OBS      
   G21   458   448   365   365                              PRN / # OF OBS      
   G22   682   675   658   658                              PRN / # OF OBS      
   G23   865   865   865   865                              PRN / # OF OBS      
   G26   871   871   871   871                              PRN / # OF OBS      
   G27   871   871   871   871                              PRN / # OF OBS      
   G29   354   354   354   354                              PRN / # OF OBS      
   G31   871   871   871   871                              PRN / # OF OBS      
   G32   673   672   672   672                              PRN / # OF OBS      
CARRIER PHASE MEASUREMENTS: PHASE SHIFTS REMOVED            COMMENT             
                                                            END OF HEADER       
 18  5 30  0 23 15.0000000  0  8G03G14G16G22G26G27G29G31            -0.000359697
  23660526.28115   -138808.98015    -79781.14856  23660523.11756
  20509738.87517   -100577.56617    -68569.84058  20509734.09458
  20566008.75816   -188911.21516   -123789.51258  20566002.68858
  23546257.13315   -113219.77715    -72454.72356  23546250.51256
  20542230.42217   -115857.28917    -77800.56359  20542228.43459
  22761584.13316   -303265.52716   -171879.04358  22761582.85958
  23514346.99216    -49994.15616    -29897.00457  23514344.39857
  21511506.93016   -137015.00016    -88130.78158  21511502.96158
 18  5 30  0 23 20.0000000  0  8G03G14G16G22G26G27G29G31            -0.000371637
  23657287.039 6   -155831.609 6    -93045.52346  23657283.62546
  20507412.156 6   -112804.754 6    -78097.52348  20507407.09848
  20561719.375 6   -211450.480 6   -141352.57848  20561713.85248
  23543720.383 5   -126550.469 5    -82842.28546  23543713.81646
  20539523.664 7   -130079.246 7    -88882.60949  20539521.89549
  22754573.148 6   -340109.250 6   -200588.44147  22754572.14147
  23513105.266 6    -56517.875 6    -34980.44947  23513102.74647
  21508424.758 6   -153212.910 6   -100752.53148  21508420.02048
 18  5 30  0 23 25.0000000  0  8G03G14G16G22G26G27G29G31            -0.000383591
  23654045.336 6   -172866.137 6   -106319.18446  23654041.95746
  20505083.695 6   -125041.543 6    -87632.68848  20505078.66048
  20557428.422 6   -234001.434 6   -158924.75448  20557422.02348
  23541181.266 5   -139897.219 5    -93242.35246  23541174.24246
  20536814.594 7   -144317.039 7    -99977.00049  20536812.72349
  22747557.734 6   -376972.910 6   -229313.36348  22747556.81648
  23511860.789 6    -63054.141 6    -40073.65647  23511858.67647
  21505337.883 6   -169431.891 6   -113390.69548  21505334.18448
 18  5 30  0 23 30.0000000  0  8G03G14G16G22G26G27G29G31            -0.000395559
  23650801.656 6   -189910.730 6   -119600.68046  23650798.24646
  20502753.625 7   -137286.047 7    -97173.86748  20502748.33248
  20553134.961 6   -256562.254 6   -176504.62148  20553128.91048
  23538638.531 5   -153258.215 5   -103653.52746  23538631.45346
  20534102.375 7   -158568.855 7   -111082.30949  20534100.90649
  22740539.906 6   -413854.629 6   -258052.36348  22740539.02348
  23510615.016 6    -69601.086 6    -45175.17246  23510612.75846
  21502247.789 6   -185670.148 6   -126043.88348  21502243.52048
 18  5 30  0 23 35.0000000  0  8G03G14G16G22G26G27G29G31            -0.000407541
  23647556.563 5   -206964.305 5   -132889.16846  23647552.75446
  20500421.836 7   -149537.227 7   -106720.24248  20500416.96148
  20548839.852 6   -279131.824 6   -194091.30148  20548833.68048
  23536093.656 5   -166632.383 5   -114074.97746  23536086.78946
  20531387.883 7   -172833.613 7   -122197.70349  20531386.25449
  22733518.242 6   -450753.387 6   -286804.62947  22733517.41447
  23509367.609 6    -76157.633 6    -50284.18847  23509365.13347
  21499154.203 6   -201926.598 6   -138711.26248  21499150.14548
 18  5 30  0 23 40.0000000  0  8G03G14G16G22G26G27G29G31            -0.000419537
  23644309.930 6   -224025.492 6   -146183.59846  23644306.60546
  20498089.633 7   -161793.762 7   -116270.80148  20498084.62548
  20544543.867 6   -301708.813 6   -211683.76248  20544537.50048
  23533546.008 5   -180018.445 5   -124505.69146  23533539.73446
  20528671.406 7   -187109.992 7   -133322.16049  20528669.44949
  22726493.688 6   -487667.652 6   -315568.98447  22726492.48847
  23508117.828 5    -82722.391 5    -55399.55546  23508115.62146
  21496057.320 6   -218199.902 6   -151391.75848  21496053.40248
 18  5 30  0 23 45.0000000  0 10G03G14G16G22G23G26G27G29G31G32      -0.000431543
  23641061.625 5   -241093.516 5   -159483.35946  23641058.89546
  20495756.430 7   -174054.727 7   -125824.80948  20495751.39848
  20540246.719 6   -324292.398 6   -229281.36348  20540240.30148
  23530996.781 5   -193415.496 5   -134944.95346  23530990.12146
  24390246.86714   -247713.18414   -145786.60956  24390241.34456
  20525952.484 7   -201397.117 7   -144454.97349  20525951.09849
  22719466.813 5   -524596.695 5   -344344.85247  22719465.50847
  23506868.055 6    -89294.543 6    -60520.72747  23506864.67647
  21492957.742 6   -234489.125 6   -164084.65648  21492953.78548
  22454493.68016    -24476.05516    -17777.10557  22454491.40257
 18  5 30  0 23 50.0000000  0 10G03G14G16G22G23G26G27G29G31G32      -0.000443560
  23637812.359 5   -258167.707 5   -172787.93846  23637809.61746
  20493422.484 7   -186319.594 7   -135381.85248  20493417.56348
  20535947.906 6   -346881.973 6   -246883.62148  20535941.62948
  23528445.109 5   -206822.914 5   -145392.31346  23528438.53146
  24383390.953 4   -283744.309 4   -173862.78145  24383384.73445
  20523231.914 7   -215694.395 7   -155595.71549  20523230.14549
  22712436.578 5   -561539.859 5   -373131.71147  22712435.51647
  23505615.656 6    -95873.508 6    -65647.21547  23505612.90247
  21489855.547 6   -250793.699 6   -176789.53948  21489850.95748
  22453799.008 6    -28126.941 6    -20621.95347  22453796.91847
 18  5 30  0 23 55.0000000  0 10G03G14G16G22G23G26G27G29G31G32      -0.000455589
  23634561.789 5   -275247.832 5   -186097.11346  23634560.13346
  20491087.953 7   -198588.035 7   -144941.68048  20491082.66448
  20531648.383 6   -369477.230 6   -264490.34848  20531641.62548
  23525891.992 5   -220240.492 5   -155847.57046  23525885.43446
  24376530.961 4   -319790.680 4   -201950.90246  24376525.39146
  20520509.406 7   -230001.563 7   -166744.17649  20520507.28949
  22705403.328 6   -598496.867 6   -401929.39547  22705402.87947
  23504362.148 5   -102459.000 5    -70778.80146  23504359.07846
  21486749.633 6   -267113.363 6   -189506.14548  21486745.22748
  22453102.211 6    -31787.242 6    -23474.16847  22453100.36747
 18  5 30  0 24  0.0000000  0 10G03G14G16G22G23G26G27G29G31G32      -0.000467628
  23631310.789 5   -292333.195 5   -199410.40646  23631308.72746
  20488752.852 6   -210859.344 6   -154503.74648  20488747.52748
  20527347.281 6   -392077.488 6   -282100.93448  20527340.88348
  23523337.180 5   -233667.512 5   -166310.13346  23523331.03546
  24369669.023 4   -355851.613 4   -230050.29746  24369663.04746
  20517785.195 7   -244317.938 7   -177899.79749  20517783.21149
  22698368.836 6   -635466.910 6   -430737.22748  22698367.25448
  23503108.273 6   -109050.309 6    -75914.87147  23503104.96947
  21483641.695 7   -283447.406 7   -202234.01648  21483636.66048
  22452404.406 6    -35456.348 6    -26333.23847  22452402.57047
 18  5 30  0 24  5.0000000  0 10G03G14G16G22G23G26G27G29G31G32      -0.000479679
  23628058.773 5   -309423.336 5   -212727.36346  23628056.79746
  20486417.063 7   -223133.090 7   -164067.70748  20486412.38748
  20523045.891 6   -414682.313 6   -299715.09848  20523039.68448
  23520780.125 5   -247103.496 5   -176779.80546  23520773.88346
  24362804.539 4   -391926.570 4   -258160.64146  24362798.12946
  20515059.445 7   -258643.043 7   -189062.21549  20515057.36749
  22691331.141 6   -672449.656 6   -459554.94148  22691329.43448
  23501853.227 6   -115647.063 6    -81055.19147  23501849.79747
  21480530.984 7   -299795.324 7   -214972.64148  21480525.94548
  22451704.422 6    -39133.691 6    -29198.70747  22451702.68847
 18  5 30  0 24 10.0000000  0 10G03G14G16G22G23G26G27G29G31G32      -0.000491741
  23624806.219 5   -326517.699 5   -226047.66846  23624804.07046
  20484081.453 6   -235408.801 6   -173633.21148  20484076.72348
  20518743.445 6   -437291.176 6   -317332.38348  20518737.26248
  23518222.266 5   -260547.938 5   -187256.02346  23518215.52746
  24355937.555 4   -428015.020 4   -286281.54346  24355930.27046
  20512331.578 7   -272976.398 7   -200231.06649  20512329.88349
  22684291.008 6   -709444.457 6   -488382.06348  22684289.62948
  23500596.883 6   -122248.695 6    -86199.32447  23500593.34047
  21477417.625 7   -316156.613 7   -227721.70348  21477412.81348
  22451003.625 6    -42818.777 6    -32070.20347  22451001.46947
 18  5 30  0 24 14.9990000  0 10G03G14G16G22G23G26G27G29G31G32       0.000496191
  23621553.003 5   -343612.477 5   -239368.26646  23621551.30446
  20481745.355 6   -247683.520 6   -183197.93048  20481740.79248
  20514441.495 6   -459899.105 6   -334948.96148  20514435.45648
  23515662.308 5   -273997.801 5   -197736.42246  23515655.91746
  24349068.784 4   -464109.285 4   -314406.90646  24349062.27646
  20509603.026 7   -287314.680 7   -211403.75049  20509601.30049
  22677250.261 6   -746443.488 6   -517212.47348  22677248.51948
  23499339.980 6   -128853.492 6    -91345.92247  23499336.79647
  21474302.112 7   -332527.555 7   -240478.29748  21474297.56948
  22450300.683 6    -46510.453 6    -34946.85947  22450298.85147
 18  5 30  0 24 19.9990000  0 10G03G14G16G22G23G26G27G29G31G32       0.000484110
  23618298.253 5   -360714.484 5   -252694.57846  23618296.75346
  20479408.964 6   -259962.188 6   -192765.73448  20479404.35148
  20510137.605 6   -482515.137 6   -352571.83648  20510131.79648
  23513100.815 6   -287458.434 6   -208225.24246  23513094.47246
  24342196.339 4   -500223.789 4   -342548.14546  24342189.79246
  20506872.589 7   -301663.633 7   -222584.76249  20506871.18749
  22670205.847 6   -783461.590 6   -546057.73047  22670204.23047
  23498082.175 6   -135463.992 6    -96496.97747  23498078.72247
  21471183.792 6   -348914.695 6   -253247.48048  21471179.57348
  22449596.933 6    -50210.195 6    -37829.78948  22449595.16748
 18  5 30  0 24 24.9990000  0 10G03G14G16G22G23G26G27G29G31G32       0.000472019
  23615043.792 5   -377819.805 5   -266023.37146  23615041.54646
  20477072.331 7   -272241.797 7   -202334.27048  20477067.39048
  20505833.081 6   -505134.246 6   -370197.12148  20505827.60148
  23510537.948 6   -300926.520 6   -218719.87146  23510531.39446
  24335321.690 4   -536350.828 4   -370699.08646  24335315.24546
  20504140.925 7   -316019.832 7   -233771.41449  20504138.73749
  22663159.651 6   -820490.727 6   -574911.60247  22663157.90947
  23496823.159 6   -142078.418 6   -101651.09046  23496819.98746
  21468062.940 6   -365314.262 6   -266026.36748  21468058.66348
  22448891.159 6    -53916.773 6    -40718.03948  22448889.81948
 18  5 30  0 24 29.9990000  0 10G03G14G16G22G23G26G27G29G31G32       0.000459919
  23611787.972 5   -394928.102 5   -279354.47746  23611786.09746
  20474735.386 7   -284521.988 7   -211903.24648  20474730.65148
  20501528.581 6   -527756.027 6   -387824.48848  20501522.86248
  23507973.847 6   -314401.793 6   -229220.08246  23507967.66346
  24328444.519 4   -572489.992 4   -398859.48446  24328438.03446
  20501407.409 7   -330382.980 7   -244963.48049  20501405.85549
  22656111.081 6   -857530.563 6   -603773.79747  22656109.55047
  23495564.058 6   -148696.496 6   -106808.03547  23495560.60147
  21464940.073 7   -381725.848 7   -278814.61748  21464935.29648
  22448184.605 6    -57629.828 6    -43611.34048  22448182.84748
 18  5 30  0 24 34.9990000  0 10G03G14G16G22G23G26G27G29G31G32       0.000447811
  23608531.917 5   -412038.121 5   -292686.97746  23608530.49946
  20472398.620 7   -296801.551 7   -221471.75048  20472394.36248
  20497223.511 6   -550379.293 6   -405453.00848  20497217.63648
  23505407.800 5   -327883.055 5   -239724.96547  23505402.16747
  24321564.956 4   -608640.086 4   -427028.35946  24321558.81546
  20498673.183 7   -344751.863 7   -256160.01249  20498671.86649
  22649060.636 6   -894579.879 6   -632643.38747  22649059.66347
  23494303.815 6   -155316.973 6   -111966.85247  23494300.50747
  21461815.112 7   -398148.289 7   -291611.33648  21461810.63648
  22447477.269 6    -61348.121 6    -46508.71548  22447475.54648
 18  5 30  0 24 39.9990000  0 10G03G14G16G22G23G26G27G29G31G32       0.000435694
  23605276.636 6   -429149.125 6   -306020.23446  23605274.00746
  20470062.026 6   -309079.750 6   -231039.18848  20470057.19848
  20492918.003 6   -573003.324 6   -423082.14148  20492912.46448
  23502841.230 6   -341369.477 6   -250233.86347  23502835.27247
  24314685.190 5   -644800.309 5   -455205.17246  24314677.64446
  20495937.886 7   -359125.695 7   -267360.40249  20495936.37849
  22642008.425 6   -931637.879 6   -661519.75047  22642007.58547
  23493044.519 6   -161939.094 6   -117126.96547  23493040.55847
  21458688.136 7   -414580.719 7   -304415.83248  21458683.55448
  22446768.862 6    -65070.965 6    -49409.64847  22446766.79247
 18  5 30  0 24 44.9990000  0 10G03G14G16G22G23G26G27G29G31G32       0.000423569
  23602019.167 6   -446263.117 6   -319355.79746  23602017.23746
  20467725.511 7   -321358.555 7   -240607.09048  20467721.01148
  20488612.683 6   -595630.074 6   -440713.37948  20488607.01148
  23500273.808 5   -354863.137 5   -260748.41046  23500267.54646
  24307801.112 4   -680972.648 4   -483391.39846  24307794.23046
  20493201.690 7   -373506.547 7   -278566.26249  20493200.42149
  22634954.612 6   -968706.551 6   -690404.41047  22634953.44047
  23491783.237 6   -168564.867 6   -122289.91047  23491779.69447
  21455558.847 7   -431025.215 7   -317229.73448  21455554.30448
  22446058.987 6    -68800.266 6    -52315.60548  22446057.58948
 18  5 30  0 24 49.9990000  0 10G03G14G16G22G23G26G27G29G31G32       0.000411432
  23598762.269 5   -463379.672 5   -332693.40246  23598760.15946
  20465388.933 7   -333637.516 7   -250175.12548  20465384.47248
  20484306.315 6   -618259.121 6   -458346.40248  20484300.96048
  23497704.776 5   -368363.586 5   -271268.26246  23497698.69446
  24300915.839 4   -717156.605 4   -511586.67646  24300908.49146
  20490463.792 7   -387893.875 7   -289777.17249  20490462.23749
  22627898.823 6  -1005785.434 6   -719297.05147  22627897.85147
  23490522.050 6   -175193.871 6   -127455.37947  23490518.30447
  21452427.573 7   -447481.270 7   -330052.64148  21452422.68748
  22445348.284 6    -72535.680 6    -55226.33648  22445347.06548
 18  5 30  0 24 54.9990000  0 10G03G14G16G22G23G26G27G29G31G32       0.000399288
  23595505.308 5   -480498.488 5   -346032.74246  23595502.30446
  20463052.401 6   -345916.379 6   -259743.07448  20463048.00748
  20480000.206 6   -640890.180 6   -475980.99648  20479994.46048
  23495135.175 5   -381870.539 5   -281793.16047  23495128.64447
  24294028.315 4   -753351.953 4   -539790.82446  24294020.61246
  20487724.667 7   -402287.480 7   -300992.97749  20487723.08149
  22620841.612 6  -1042874.242 6   -748197.41447  22620839.65547
  23489260.284 6   -181825.777 6   -132623.09847  23489256.92147
  21449293.870 7   -463948.602 7   -342884.34448  21449289.60148
  22444636.394 6    -76276.887 6    -58141.57448  22444634.87848
 18  5 30  0 24 59.9990000  0 10G03G14G16G22G23G26G27G29G31G32       0.000387135
  23592247.144 5   -497619.250 5   -359373.56345  23592244.05045
  20460716.120 7   -358194.813 7   -269310.68448  20460711.67548
  20475693.042 6   -663522.941 6   -493616.92248  20475687.96048
  23492563.339 5   -395383.680 5   -292322.90646  23492557.51946
  24287137.886 4   -789558.320 4   -568003.56346  24287131.17146
  20484984.472 7   -416687.016 7   -312213.39549  20484983.05449
  22613781.855 5  -1079972.625 5   -777105.23847  22613780.55447
  23487997.675 6   -188460.297 6   -137792.85547  23487993.76147
  21446158.456 7   -480426.855 7   -355724.54348  21446153.73748
  22443923.448 6    -80023.539 6    -61061.05548  22443921.68748
 18  5 30  0 25  4.9990000  0 10G03G14G16G22G23G26G27G29G31G32       0.000374973
  23588988.597 6   -514741.711 6   -372715.75045  23588985.04645
  20458379.355 7   -370472.512 7   -278877.73448  20458374.91348
  20471385.800 6   -686157.121 6   -511253.94148  20471380.78448
  23489990.706 5   -408902.766 5   -302857.27746  23489984.69446
  24280246.019 4   -825775.375 4   -596224.65646  24280238.94446
  20482243.058 7   -431092.254 7   -323438.26249  20482241.92949
  22606720.198 6  -1117080.281 6   -806020.29347  22606719.33947
  23486734.565 6   -195097.223 6   -142964.50447  23486731.19847
  21443020.698 7   -496915.816 7   -368573.09448  21443015.87848
  22443209.620 6    -83775.473 6    -63984.64848  22443207.73748
 18  5 30  0 25  9.9990000  0 10G03G14G16G22G23G26G27G29G31G32       0.000362804
  23585730.355 5   -531864.836 5   -386058.42245  23585726.71045
  20456043.542 7   -382748.516 7   -288443.46148  20456039.13648
  20467078.730 6   -708791.684 6   -528891.27048  20467073.98748
  23487417.167 5   -422426.766 5   -313395.47747  23487410.82347
  24273352.456 4   -862002.145 4   -624453.29746  24273345.05046
  20479501.230 7   -445502.094 7   -334666.71949  20479499.53449
  22599657.792 6  -1154196.164 6   -834941.75847  22599656.45247
  23485471.409 6   -201735.457 6   -148137.15647  23485468.08147
  21439880.823 7   -513414.418 7   -381429.14848  21439876.26548
  22442494.589 6    -87531.586 6    -66911.51647  22442493.35847
 18  5 30  0 25 14.9990000  0 10G03G14G16G22G23G26G27G29G31G32       0.000350626
  23582471.042 6   -548989.906 6   -399402.66846  23582467.47646
  20453707.167 7   -395024.059 7   -298008.82448  20453703.21848
  20462771.315 6   -731427.949 6   -546529.92248  20462765.97648
  23484842.730 5   -435957.020 5   -323938.53146  23484836.10846
  24266456.698 5   -898239.852 5   -652690.47746  24266450.04246
  20476757.722 7   -459917.926 7   -345899.83249  20476756.79249
  22592592.878 6  -1191321.586 6   -863870.66447  22592591.51147
  23484208.128 6   -208376.328 6   -153311.85247  23484204.42947
  21436739.034 7   -529923.984 7   -394293.74248  21436734.85148
  22441778.612 6    -91293.195 6    -69842.63347  22441777.58547
 18  5 30  0 25 19.9990000  0 10G03G14G16G22G23G26G27G29G31G32       0.000338436
  23579211.784 6   -566118.852 6   -412749.89545  23579208.34345
  20451371.355 7   -407301.082 7   -307575.34048  20451366.97648
  20458462.870 6   -754067.805 6   -564171.37148  20458457.66748
  23482266.433 5   -449495.402 5   -334487.91846  23482260.36246
  24259558.206 4   -934490.457 4   -680937.70346  24259551.27646
  20474013.097 7   -474341.641 7   -357139.09049  20474011.52249
  22585526.253 6  -1228458.430 6   -892808.46948  22585524.87848
  23482943.253 6   -215021.703 6   -158490.08247  23482939.72247
  21433594.925 7   -546446.410 7   -407168.36348  21433590.62448
  22441061.253 6    -95062.242 6    -72779.57047  22441060.51547
 18  5 30  0 25 24.9990000  0 10G03G14G16G22G23G26G27G29G31G32       0.000326241
  23575951.784 5   -583249.137 5   -426098.15246  23575949.05846
  20449035.620 7   -419576.965 7   -317140.96948  20449031.07748
  20454154.362 6   -776708.684 6   -581813.62148  20454149.60148
  23479689.448 5   -463039.414 5   -345041.70746  23479682.60546
  24252657.792 5   -970751.301 5   -709192.88746  24252651.00346
  20471267.464 7   -488770.613 7   -368382.44949  20471266.06549
  22578457.183 6  -1265604.090 6   -921753.15248  22578455.38648
  23481678.362 6   -221669.121 6   -163669.88347  23481674.53047
  21430448.862 7   -562979.063 7   -420050.95348  21430444.57348
  22440342.995 6    -98836.148 6    -75720.28147  22440341.89447
 18  5 30  0 25 29.9990000  0 10G03G14G16G22G23G26G27G29G31G32       0.000314035
  23572692.003 5   -600379.574 5   -439446.53546  23572688.64446
  20446699.925 7   -431850.629 7   -326704.86748  20446695.11648
  20449846.292 7   -799349.465 7   -599455.78548  20449840.98348
  23477111.245 5   -476587.820 5   -355598.92646  23477104.56546
  24245755.800 4  -1007021.360 4   -737455.27146  24245748.98346
  20468521.105 7   -503203.797 7   -379629.09449  20468519.19849
  22571387.081 6  -1302757.406 6   -950703.78547  22571385.56947
  23480412.894 6   -228317.375 6   -168850.36346  23480409.59346
  21427300.933 7   -579520.785 7   -432940.60948  21427296.62848
  22439624.214 6   -102613.758 6    -78663.89847  22439623.44447
 18  5 30  0 25 34.9990000  0 10G03G14G16G22G23G26G27G29G31G32       0.000301825
  23569432.597 5   -617509.559 5   -452794.58246  23569429.35146
  20444364.480 6   -444121.398 6   -336266.51248  20444360.39748
  20445537.901 7   -821989.531 7   -617097.40248  20445532.65148
  23474532.261 6   -490140.086 6   -366159.14547  23474525.44847
  24238852.581 4  -1043299.820 4   -765724.19146  24238846.10846
  20465773.589 7   -517640.508 7   -390878.47749  20465771.75349
  22564316.120 6  -1339917.738 6   -979659.89847  22564314.46447
  23479147.792 6   -234965.879 6   -174031.02047  23479144.51147
  21424151.792 7   -596070.992 7   -445836.87548  21424147.42948
  22438904.495 6   -106394.457 6    -81609.90247  22438903.59747
 18  5 30  0 25 39.9990000  0 10G03G14G16G22G23G26G27G29G31G32       0.000289606
  23566172.886 5   -634638.953 5   -466142.15246  23566169.62846
  20442030.050 6   -456389.176 6   -345825.82848  20442025.61248
  20441229.745 6   -844628.754 6   -634738.35248  20441224.44048
  23471952.378 5   -503696.066 5   -376722.24646  23471945.83946
  24231948.065 5  -1079586.617 5   -793999.57846  24231940.59746
  20463025.440 7   -532080.656 7   -402130.54749  20463023.67949
  22557243.245 6  -1377084.910 6  -1008621.33247  22557241.68747
  23477882.761 6   -241614.461 6   -179211.73047  23477879.70647
  21421000.276 7   -612629.547 7   -458739.65248  21420996.23048
  22438185.034 6   -110178.145 6    -84558.24247  22438183.84747
 18  5 30  0 25 44.9990000  0 10G03G14G16G22G23G26G27G29G31G32       0.000277380
  23562913.089 5   -651767.699 5   -479489.23446  23562910.25346
  20439696.355 6   -468653.871 6   -355382.74248  20439692.01948
  20436921.683 6   -867266.996 6   -652378.54748  20436916.49948
  23469371.839 5   -517255.711 5   -387288.21546  23469365.73746
  24225040.620 5  -1115881.727 5   -822281.49646  24225033.68746
  20460277.425 7   -546524.129 7   -413385.20749  20460275.53449
  22550169.183 6  -1414258.918 6  -1037588.09047  22550167.77247
  23476617.245 6   -248263.066 6   -184392.47746  23476614.04246
  21417848.230 7   -629196.387 7   -471648.87548  21417843.86248
  22437463.894 6   -113964.723 6    -87508.84847  22437463.55047
 18  5 30  0 25 49.9990000  0 10G03G14G16G22G23G26G27G29G31G32       0.000265146
  23559654.206 5   -668895.805 5   -492835.82846  23559651.11646
  20437362.698 6   -480915.492 6   -364937.25448  20437358.47648
  20432614.058 6   -889904.305 6   -670018.01648  20432608.71448
  23466791.097 5   -530818.938 5   -397856.98446  23466784.61246
  24218132.480 5  -1152185.055 5   -850569.78546  24218125.49946
  20457527.933 7   -560970.988 7   -424642.49649  20457526.14449
  22543094.042 6  -1451439.629 6  -1066560.06347  22543092.74947
  23475352.253 6   -254911.758 6   -189573.28146  23475349.25346
  21414694.167 7   -645771.465 7   -484564.52748  21414689.81248
  22436742.769 6   -117754.246 6    -90461.73847  22436741.61247
 18  5 30  0 25 54.9990000  0 10G03G14G16G22G23G26G27G29G31G32       0.000252907
  23556394.581 5   -686023.273 5   -506181.92646  23556392.03446
  20435030.058 6   -493174.031 6   -374489.36748  20435026.14048
  20428306.776 7   -912540.637 7   -687656.71948  20428301.55848
  23464209.730 5   -544385.828 5   -408428.58646  23464203.11246
  24211222.706 5  -1188496.590 5   -878864.50846  24211215.48746
  20454778.112 7   -575421.172 7   -435902.38749  20454775.92949
  22536017.183 6  -1488627.082 6  -1095537.28547  22536015.57347
  23474087.300 6   -261560.457 6   -194754.11746  23474083.81946
  21411538.136 7   -662354.809 7   -497486.60948  21411533.86248
  22436021.448 6   -121546.645 6    -93416.86747  22436019.45647
 18  5 30  0 25 59.9990000  0 10G03G14G16G22G23G26G27G29G31G32       0.000240660
  23553136.190 5   -703149.777 5   -519527.27046  23553132.90546
  20432698.065 6   -505429.172 6   -384038.83648  20432693.98348
  20423999.198 7   -935175.762 7   -705294.48848  20423994.25348
  23461627.636 6   -557956.023 6   -419002.77046  23461620.40546
  24204311.183 5  -1224816.023 5   -907165.35946  24204303.98346
  20452028.034 7   -589874.438 7   -447164.68049  20452025.76549
  22528939.003 6  -1525820.957 6  -1124519.52047  22528937.71847
  23472821.722 6   -268208.961 6   -199934.76646  23472818.63646
  21408380.847 6   -678946.066 6   -510414.86748  21408376.33548
  22435299.214 6   -125341.703 6    -96374.06647  22435297.81547
 18  5 30  0 26  4.9990000  0 10G03G14G16G22G23G26G27G29G31G32       0.000228407
  23549876.440 5   -720275.691 5   -532872.16046  23549873.94446
  20430366.683 6   -517681.254 6   -393585.92248  20430362.93348
  20419692.151 6   -957810.004 6   -722931.54748  20419686.83948
  23459044.206 6   -571529.891 6   -429579.80146  23459037.27246
  24197397.808 5  -1261143.699 5   -935472.65246  24197391.70246
  20449276.940 7   -604331.121 7   -458429.62949  20449275.02249
  22521860.401 6  -1563021.555 6  -1153506.99647  22521858.74147
  23471556.612 6   -274857.551 6   -205115.50046  23471553.19046
  21405222.050 7   -695545.594 7   -523349.57048  21405218.03448
  22434576.698 6   -129139.707 6    -99333.56647  22434575.06947
 18  5 30  0 26  9.9990000  0 10G03G14G16G22G23G26G27G29G31G32       0.000216145
  23546618.159 5   -737400.656 5   -546216.30546  23546614.88646
  20428035.948 6   -529929.941 6   -403130.35548  20428031.89448
  20415384.909 7   -980442.992 7   -740567.64548  20415379.84748
  23456459.995 5   -585107.172 5   -440159.53146  23456453.86646
  24190483.737 5  -1297479.215 5   -963786.02046  24190477.34746
  20446525.183 7   -618790.871 7   -469696.96149  20446523.26549
  22514780.269 6  -1600228.426 6  -1182499.35247  22514778.08547
  23470291.034 6   -281505.918 6   -210296.05146  23470287.85146
  21402061.987 6   -712153.047 6   -536290.44948  21402057.42548
  22433853.362 6   -132940.355 6   -102295.11747  22433851.38647
 18  5 30  0 26 14.9990000  0 10G03G14G16G22G23G26G27G29G31G32       0.000203878
  23543359.745 5   -754524.551 5   -559559.60546  23543356.58146
  20425705.542 6   -542175.078 6   -412672.02348  20425701.65948
  20411078.573 7  -1003074.531 7   -758202.61748  20411073.59748
  23453876.409 5   -598687.609 5   -450741.71146  23453869.64046
  24183567.855 5  -1333822.402 5   -992105.38346  24183561.65146
  20443773.323 7   -633253.531 7   -480966.57049  20443771.16749
  22507698.550 5  -1637441.633 5  -1211496.66047  22507696.76947
  23469025.761 5   -288153.875 5   -215476.25846  23469022.49546
  21398900.347 7   -728768.266 7   -549237.36348  21398896.01948
  22433129.495 6   -136743.512 6   -105258.64147  22433127.97247
 18  5 30  0 26 19.9990000  0 10G03G14G16G22G23G26G27G29G31G32       0.000191605
  23540100.737 5   -771647.063 5   -572901.83246  23540098.23746
  20423376.198 6   -554416.352 6   -422210.69548  20423371.87448
  20406772.167 7  -1025704.375 7   -775836.26248  20406766.87048
  23451290.355 5   -612271.004 5   -461326.15246  23451284.78046
  24176650.839 5  -1370173.008 5  -1020430.57046  24176643.94846
  20441020.097 7   -647718.836 7   -492238.23849  20441018.48049
  22500615.667 6  -1674660.688 6  -1240498.53147  22500613.88647
  23467761.159 5   -294801.234 5   -220656.04346  23467757.51946
  21395737.042 7   -745390.902 7   -562190.08248  21395733.05048
  22432405.534 6   -140548.848 6   -108223.82847  22432404.00747
 18  5 30  0 26 24.9990000  0 10G03G14G16G22G23G26G27G29G31G32       0.000179323
  23536842.526 5   -788768.500 5   -586243.20346  23536840.14746
  20421047.519 7   -566654.082 7   -431746.59048  20421043.89748
  20402466.245 7  -1048332.863 7   -793468.85948  20402460.70648
  23448705.183 5   -625857.629 5   -471913.16046  23448699.55446
  24169731.706 5  -1406531.316 5  -1048761.69546  24169725.43746
  20438266.722 7   -662187.082 7   -503512.19949  20438265.04649
  22493532.300 6  -1711885.980 6  -1269505.24247  22493530.12847
  23466496.261 5   -301448.207 5   -225835.51646  23466492.65946
  21392572.550 7   -762021.320 7   -575148.84448  21392568.29248
  22431680.714 6   -144356.703 6   -111191.00447  22431679.13647
 18  5 30  0 26 29.9990000  0 10G03G14G16G22G23G26G27G29G31G32       0.000167036
  23533584.261 4   -805888.449 4   -599583.44946  23533582.55846
  20418719.550 6   -578887.832 6   -441279.38348  20418715.24148
  20398160.667 7  -1070959.527 7   -811100.02348  20398155.75348
  23446119.620 5   -639447.086 5   -482502.34446  23446113.86246
  24162811.612 5  -1442896.816 5  -1077098.42246  24162805.65146
  20435513.628 7   -676657.801 7   -514788.08648  20435511.82748
  22486447.589 6  -1749116.965 6  -1298516.39547  22486445.49947
  23465232.636 5   -308094.410 5   -231014.39146  23465227.71046
  21389406.151 7   -778659.016 7   -588113.28148  21389402.16348
  22430955.714 6   -148166.625 6   -114159.78547  22430953.85547
 18  5 30  0 26 34.9990000  0 10G03G14G16G22G23G26G27G29G31G32       0.000154741
  23530327.589 5   -823006.535 5   -612922.21146  23530324.81546
  20416392.237 6   -591117.277 6   -450808.82448  20416387.87448
  20393855.261 6  -1093584.051 6   -828729.51648  20393849.90548
  23443533.370 5   -653039.012 5   -493093.45346  23443527.06546
  24155890.331 5  -1479269.172 5  -1105440.52746  24155884.17946
  20432759.050 7   -691130.727 7   -526065.69149  20432757.37449
  22479361.823 6  -1786353.328 6  -1327531.74247  22479359.95247
  23463967.800 5   -314739.500 5   -236192.37946  23463963.67546
  21386239.026 7   -795303.645 7   -601083.13748  21386234.75748
  22430230.315 6   -151978.297 6   -117129.92647  22430229.03047
 18  5 30  0 26 39.9990000  0 10G03G14G16G22G23G26G27G29G31G32       0.000142443
  23527070.706 5   -840122.754 5   -626259.50446  23527067.93746
  20414065.761 6   -603342.371 6   -460334.88348  20414061.40948
  20389550.230 6  -1116206.363 6   -846357.29748  20389545.46048
  23440946.862 5   -666633.402 5   -503686.49646  23440939.97646
  24148967.292 5  -1515648.352 5  -1133787.94946  24148960.96046
  20430004.714 7   -705605.805 7   -537344.97749  20430002.75749
  22472274.581 6  -1823594.988 6  -1356551.21947  22472273.17947
  23462702.855 6   -321383.477 6   -241369.50446  23462699.08546
  21383070.370 7   -811955.145 7   -614058.33248  21383065.72648
  22429504.972 6   -155791.680 6   -120101.42247  22429502.93347
 18  5 30  0 26 44.9990000  0 10G03G14G16G22G23G26G27G29G31G32       0.000130136
  23523814.136 5   -857237.227 5   -639595.48446  23523812.00346
  20411740.339 6   -615563.262 6   -469857.66448  20411735.87848
  20385245.823 6  -1138826.586 6   -863983.44148  20385240.70248
  23438359.409 6   -680230.285 6   -514281.46546  23438352.34346
  24142043.706 5  -1552034.434 5  -1162140.76246  24142037.51946
  20427249.792 7   -720083.098 7   -548625.99249  20427248.48749
  22465186.605 6  -1860842.027 6  -1385574.89147  22465184.98047
  23461439.292 5   -328026.352 5   -246545.79746  23461435.22246
  21379900.105 7   -828613.660 7   -627038.98848  21379895.71448
  22428778.558 6   -159606.840 6   -123074.27347  22428777.58147
 18  5 30  0 26 49.9990000  0 10G03G14G16G22G23G26G27G29G31G32       0.000117823
  23520556.425 4   -874349.918 4   -652930.06646  23520555.17946
  20409415.917 6   -627779.906 6   -479377.13748  20409411.08948
  20380941.534 7  -1161444.727 7   -881607.96948  20380936.83948
  23435770.878 5   -693829.773 5   -524878.47746  23435764.19446
  24135118.315 5  -1588427.418 5  -1190498.93046  24135112.32746
  20424494.136 7   -734562.676 7   -559908.77749  20424492.88249
  22458097.862 5  -1898094.496 5  -1414602.78147  22458096.05047
  23460175.558 5   -334668.211 5   -251721.27046  23460171.49546
  21376728.940 7   -845279.199 7   -640025.12948  21376724.65548
  22428052.339 6   -163423.875 6   -126048.60247  22428050.43347
 18  5 30  0 26 54.9990000  0 10G03G14G16G22G23G26G27G29G31G32       0.000105505
  23517300.550 3   -891460.660 3   -666263.10546  23517299.10146
  20407091.417 6   -639992.117 6   -488893.13748  20407087.46448
  20376637.870 6  -1184060.613 6   -899230.74648  20376632.94448
  23433182.831 5   -707431.688 5   -535477.37946  23433176.10846
  24128191.237 5  -1624827.063 5  -1218862.30546  24128185.96046
  20421738.761 7   -749044.348 7   -571193.20349  20421737.10149
  22451007.722 6  -1935352.105 6  -1443634.68447  22451006.10147
  23458911.831 6   -341308.891 6   -256895.83646  23458907.76146
  21373556.495 7   -861951.527 7   -653016.55948  21373552.05448
  22427325.972 6   -167242.566 6   -129024.21547  22427323.84347
 18  5 30  0 26 59.9990000  0 10G03G14G16G22G23G26G27G29G31G32       0.000093180
  23514045.230 4   -908569.191 4   -679594.43046  23514043.83146
  20404768.886 6   -652199.582 6   -498405.45348  20404764.42948
  20372335.151 7  -1206673.887 7   -916851.48048  20372330.21048
  23430594.464 6   -721035.664 6   -546077.87547  23430587.50747
  24121263.597 5  -1661233.137 5  -1247230.67646  24121257.96446
  20418982.331 7   -763527.766 7   -582478.97749  20418980.80849
  22443917.519 6  -1972614.570 6  -1472670.37547  22443915.09747
  23457647.987 5   -347948.031 5   -262069.19946  23457644.14746
  21370382.659 7   -878630.344 7   -666013.04348  21370378.42148
  22426598.980 6   -171062.594 6   -132000.87547  22426597.18347
 18  5 30  0 27  4.9990000  0 10G03G14G16G22G23G26G27G29G31G32       0.000080849
  23510790.800 4   -925675.465 4   -692924.00246  23510788.30446
  20402446.409 6   -664402.277 6   -507914.05548  20402442.14748
  20368032.253 7  -1229284.605 7   -934470.22748  20368027.52648
  23428004.855 5   -734641.781 5   -556680.03546  23427998.27246
  24114334.847 5  -1697645.539 5  -1275603.98446  24114328.58146
  20416225.894 7   -778012.984 7   -593766.16849  20416224.80849
  22436825.347 5  -2009881.887 5  -1501709.83647  22436822.87447
  23456384.417 5   -354585.652 5   -267241.38346  23456380.83946
  21367207.433 7   -895315.617 7   -679014.56348  21367202.87848
  22425872.050 6   -174883.961 6   -134978.57447  22425870.04247
 18  5 30  0 27  9.9990000  0 10G03G14G16G22G23G26G27G29G31G32       0.000068512
  23507535.933 4   -942779.152 4   -706251.54346  23507533.46846
  20400125.183 6   -676599.871 6   -517418.67648  20400121.28448
  20363730.120 7  -1251892.387 7   -952086.68448  20363725.54248
  23425415.378 5   -748249.617 5   -567283.53946  23425408.99146
  24107404.276 5  -1734063.953 5  -1303981.99246  24107399.15946
  20413468.980 7   -792499.633 7   -605054.46149  20413467.96049
  22429733.237 6  -2047153.684 6  -1530752.78547  22429730.68747
  23455121.808 5   -361221.469 5   -272412.16446  23455118.10146
  21364031.362 7   -912007.039 7   -692020.85948  21364026.92948
  22425144.448 6   -178706.371 6   -137957.07847  22425142.62847
 18  5 30  0 27 14.9990000  0 10G03G14G16G22G23G26G27G29G31G32       0.000056170
  23504281.409 4   -959880.336 4   -719577.16846  23504279.51546
  20397805.183 6   -688792.457 6   -526919.40648  20397800.80448
  20359428.386 6  -1274497.289 6   -969700.89148  20359423.87848
  23422825.300 5   -761859.309 5   -577888.50047  23422819.68747
  24100473.042 5  -1770488.410 5  -1332364.69546  24100467.50346
  20410712.073 7   -806987.813 7   -616343.95349  20410710.71449
  22422639.550 6  -2084429.965 6  -1559799.25447  22422637.30447
  23453859.894 5   -367855.480 5   -277581.51246  23453855.32346
  21360853.839 7   -928704.637 7   -705031.98448  21360849.60548
  22424416.855 6   -182529.871 6   -140936.44947  22424415.16747
 18  5 30  0 27 19.9990000  0 10G03G14G16G22G23G26G27G29G31G32       0.000043823
  23501029.073 5   -976978.613 5   -732900.48446  23501026.01146
  20395485.917 6   -700979.617 6   -536415.89148  20395481.79248
  20355127.800 6  -1297098.930 6   -987312.55948  20355122.73048
  23420235.394 5   -775470.418 5   -588494.56347  23420229.67547
  24093540.651 5  -1806918.453 5  -1360751.73046  24093535.46446
  20407955.222 7   -821477.066 7   -627634.28949  20407953.76149
  22415545.487 6  -2121710.379 6  -1588848.91847  22415543.21847
  23452598.230 5   -374487.359 5   -282749.24246  23452593.43746
  21357675.222 7   -945408.070 7   -718047.66448  21357670.62848
  22423689.448 6   -186354.063 6   -143916.35247  22423687.23747
 18  5 30  0 27 24.9990000  0 10G03G14G16G22G23G26G27G29G31G32       0.000031469
  23497774.870 5   -994073.750 5   -746221.38746  23497772.83546
  20393168.237 6   -713161.117 6   -545907.97748  20393163.51548
  20350827.667 7  -1319697.094 7  -1004921.52348  20350822.72248
  23417645.292 5   -789082.742 5   -599101.56346  23417638.65946
  24086606.659 5  -1843353.906 5  -1389143.00846  24086601.64746
  20405197.831 7   -835967.250 7   -638925.33649  20405195.92949
  22408450.362 6  -2158994.648 6  -1617901.59447  22408448.48747
  23451336.808 5   -381116.871 5   -287915.08646  23451331.89746
  21354495.698 7   -962117.012 7   -731067.61748  21354491.15148
  22422961.480 6   -190178.711 6   -146896.61747  22422959.76547
 18  5 30  0 27 29.9990000  0 10G03G14G16G22G23G26G27G29G31G32       0.000019112
  23494522.651 4  -1011166.133 4   -759540.12546  23494520.37046
  20390850.894 6   -725337.320 6   -555395.93448  20390846.26948
  20346527.917 7  -1342292.121 7  -1022528.03548  20346522.83548
  23415053.980 5   -802696.637 5   -609709.79747  23415048.11647
  24079672.081 5  -1879795.059 5  -1417538.68446  24079667.32746
  20402440.026 7   -850458.691 7   -650217.37149  20402438.24949
  22401354.565 6  -2196283.117 6  -1646957.53547  22401353.13647
  23450075.565 5   -387744.375 5   -293079.36347  23450071.16347
  21351314.808 7   -978831.840 7   -744092.15248  21351310.12448
  22422233.308 6   -194004.227 6   -149877.55148  22422231.56248
 18  5 30  0 27 34.9990000  0 10G03G14G16G22G23G26G27G29G31G32       0.000006746
  23491270.362 4  -1028255.641 4   -772856.65246  23491268.27246
  20388534.980 6   -737508.156 6   -564879.71148  20388530.40948
  20342228.589 7  -1364883.961 7  -1040132.07048  20342223.83548
  23412463.480 5   -816312.078 5   -620319.25047  23412457.46047
  24072737.198 5  -1916241.855 5  -1445938.80546  24072731.89746
  20399682.542 7   -864951.309 7   -661510.32849  20399680.20249
  22394258.276 6  -2233575.629 6  -1676016.64147  22394255.98347
  23448813.980 5   -394369.813 5   -298242.07846  23448810.08546
  21348133.105 7   -995552.465 7   -757121.21948  21348128.28048
  22421505.589 6   -197830.512 6   -152859.07848  22421503.76948
 18  5 30  0 27 39.9990000  0 10G03G14G16G22G23G26G27G29G31G32      -0.000005623
  23488018.487 4  -1045342.152 4   -786170.80146  23488016.44446
  20386219.964 6   -749673.414 6   -574359.13748  20386215.31248
  20337930.206 7  -1387472.395 7  -1057733.44948  20337925.49548
  23409872.440 5   -829928.848 5   -630929.73446  23409866.23346
  24065800.175 5  -1952694.109 5  -1474343.15646  24065795.26946
  20396924.183 7   -879444.922 7   -672804.05949  20396922.62849
  22387161.315 6  -2270872.074 6  -1705078.78547  22387159.10147
  23447553.800 6   -400993.000 6   -303403.00046  23447549.73046
  21344950.089 7  -1012278.711 7   -770154.66448  21344945.33148
  22420777.769 6   -201657.344 6   -155841.05948  22420776.24548
 18  5 30  0 27 44.9990000  0 10G03G14G16G22G23G26G27G29G31G32      -0.000017998
  23484767.644 3  -1062425.535 3   -799482.52746  23484765.77246
  20383906.222 6   -761832.988 6   -583834.13748  20383901.19048
  20333632.378 7  -1410057.309 7  -1075332.09448  20333627.61648
  23407280.784 5   -843546.867 5   -641541.18047  23407275.15947
  24058862.722 5  -1989151.637 5  -1502751.62546  24058857.65946
  20394166.284 7   -893939.434 7   -684098.48449  20394163.93749
  22380062.870 6  -2308172.285 6  -1734143.89147  22380061.13647
  23446293.573 5   -407613.793 5   -308562.03146  23446289.43346
  21341766.175 7  -1029010.492 7   -783192.43448  21341761.39748
  22420049.386 7   -205484.680 7   -158823.40648  22420047.92548
 18  5 30  0 27 49.9990000  0 10G03G14G16G22G23G26G27G29G31G32      -0.000030378
  23481517.542 3  -1079505.516 3   -812791.59846  23481515.44446
  20381592.933 6   -773986.621 6   -593304.50448  20381588.24548
  20329335.386 7  -1432638.508 7  -1092927.82448  20329330.55848
  23404688.730 5   -857165.809 5   -652153.30947  23404683.49547
  24051924.425 5  -2025614.184 5  -1531163.98046  24051918.89046
  20391407.714 7   -908434.590 7   -695393.40649  20391405.82749
  22372964.480 6  -2345475.938 6  -1763211.67247  22372962.02247
  23445034.073 6   -414231.926 6   -313719.05946  23445030.40946
  21338581.159 7  -1045747.500 7   -796234.26248  21338576.31548
  22419320.886 6   -209312.262 6   -161805.95748  22419319.19048
 18  5 30  0 27 54.9990000  0 10G03G14G16G22G23G26G27G29G31G32      -0.000042765
  23478268.245 3  -1096581.879 3   -826097.85946  23478266.44446
  20379281.394 6   -786134.051 6   -602770.03148  20379276.67948
  20325038.753 7  -1455215.684 7  -1110520.43448  20325033.83948
  23402097.565 5   -870785.535 5   -662766.12147  23402091.14747
  24044984.683 5  -2062081.527 5  -1559580.10546  24044979.70246
  20388649.550 7   -922930.176 7   -706688.68049  20388647.55049
  22365865.206 6  -2382782.898 6  -1792282.02347  22365863.16747
  23443775.737 6   -420847.242 6   -318873.82846  23443771.14446
  21335395.409 7  -1062489.465 7   -809279.93848  21335390.77648
  22418592.534 6   -213139.820 6   -164788.47748  22418590.68748
 18  5 30  0 27 59.9990000  0 10G03G14G16G22G23G26G27G29G31G32      -0.000055155
  23475018.698 4  -1113654.984 4   -839401.57846  23475017.17946
  20376970.933 6   -798275.668 6   -612231.03948  20376966.22648
  20320743.284 7  -1477789.215 7  -1128110.20348  20320738.69048
  23399505.089 5   -884406.285 5   -673379.68447  23399499.74947
  24038044.151 5  -2098553.922 5  -1588000.16046  24038038.94846
  20385890.933 7   -937426.488 7   -717984.51249  20385889.37049
  22358765.292 6  -2420093.359 6  -1821355.10947  22358762.81947
  23442517.355 6   -427460.020 6   -324026.66046  23442513.16746
  21332208.675 7  -1079236.730 7   -822329.74648  21332203.64048
  22417864.073 7   -216967.742 7   -167771.28548  22417862.48348
 18  5 30  0 28  4.9990000  0 10G03G14G16G22G23G26G27G29G31G32      -0.000067551
  23471770.901 4  -1130724.746 4   -852702.69146  23471769.11646
  20374661.597 6   -810411.418 6   -621687.47348  20374656.97648
  20316448.972 7  -1500359.059 7  -1145697.09848  20316443.76148
  23396913.425 5   -898028.148 5   -683994.14547  23396907.70247
  24031103.120 5  -2135031.371 5  -1616424.12546  24031097.51546
  20383132.315 7   -951923.508 7   -729280.89849  20383130.78849
  22351664.503 6  -2457407.320 6  -1850430.92247  22351662.45647
  23441259.815 6   -434070.242 6   -329177.50046  23441255.73046
  21329020.370 7  -1095989.301 7   -835383.69548  21329015.87448
  22417135.698 6   -220795.941 6   -170754.31648  22417134.43348
 18  5 30  0 28  9.9990000  0 10G03G14G16G22G23G26G27G29G31G32      -0.000079952
  23468523.706 4  -1147791.141 4   -866001.18446  23468521.14446
  20372353.722 6   -822541.211 6   -631139.25848  20372348.83548
  20312154.433 6  -1522925.156 6  -1163281.07048  20312149.81948
  23394320.933 5   -911650.984 5   -694609.35946  23394315.27646
  24024160.800 5  -2171513.742 5  -1644851.95346  24024154.43746
  20380373.409 7   -966421.199 7   -740577.79749  20380372.11649
  22344563.425 6  -2494724.684 6  -1879509.38747  22344560.69047
  23440002.050 6   -440677.879 6   -334326.31346  23439998.28846
  21325831.511 7  -1112747.039 7   -848441.68048  21325826.57748
  22416407.175 6   -224624.387 6   -173737.53148  22416405.87848
 18  5 30  0 28 14.9990000  0 10G03G14G16G22G23G26G27G29G31G32      -0.000092360
  23465276.065 4  -1164853.695 4   -879296.69146  23465274.53446
  20370046.722 6   -834664.695 6   -640586.13348  20370042.15948
  20307860.706 6  -1545487.102 6  -1180861.81348  20307856.42548
  23391728.417 5   -925274.422 5   -705225.01647  23391723.08147
  24017217.589 5  -2208000.684 5  -1673283.32046  24017211.11246
  20377614.659 7   -980919.137 7   -751874.89549  20377613.04649
  22337461.526 6  -2532045.027 6  -1908590.18447  22337458.37447
  23438746.034 6   -447282.465 6   -339472.75846  23438741.55046
  21322641.737 7  -1129509.539 7   -861503.37148  21322636.71048
  22415678.776 6   -228452.703 6   -176720.65248  22415677.66348
 18  5 30  0 28 19.9990000  0 10G03G14G16G22G23G26G27G29G31G32      -0.000104771
  23462029.800 4  -1181912.695 4   -892589.41846  23462027.70246
  20367740.769 6   -846781.949 6   -650028.14848  20367736.19448
  20303568.425 7  -1568044.988 7  -1198439.37948  20303563.73748
  23389135.487 5   -938898.535 5   -715841.21947  23389130.17547
  24010273.409 5  -2244492.242 5  -1701718.30546  24010267.40946
  20374855.714 7   -995417.453 7   -763172.28549  20374854.33549
  22330359.308 6  -2569368.414 6  -1937673.33647  22330356.06247
  23437489.425 6   -453884.156 6   -344616.93846  23437485.39746
  21319450.706 7  -1146276.941 7   -874568.89148  21319445.89448
  22414950.042 6   -232280.941 6   -179703.70748  22414949.43748
 18  5 30  0 28 24.9990000  0 10G03G14G16G22G23G26G27G29G31G32      -0.000117186
  23458784.151 4  -1198967.555 4   -905878.91046  23458782.66346
  20365436.355 6   -858892.586 6   -659465.00848  20365431.77648
  20299276.542 6  -1590598.441 6  -1216013.50048  20299272.27248
  23386543.480 5   -952523.066 5   -726457.74647  23386537.80047
  24003329.026 5  -2280988.074 5  -1730156.62946  24003322.35546
  20372096.573 7  -1009915.758 7   -774469.66849  20372095.30849
  22323256.558 6  -2606694.523 6  -1966758.61747  22323253.33547
  23436233.753 6   -460482.652 6   -349758.60246  23436229.60146
  21316259.495 7  -1163048.816 7   -887637.88748  21316254.36648
  22414221.690 6   -236108.820 6   -182686.49248  22414220.34348
 18  5 30  0 28 29.9990000  0 10G03G14G16G22G23G26G27G29G31G32      -0.000129606
  23455539.034 4  -1216018.828 4   -919165.62146  23455538.22246
  20363132.480 6   -870997.031 6   -668897.05148  20363128.29648
  20294985.347 6  -1613147.863 6  -1233584.48048  20294980.78848
  23383950.753 5   -966148.313 5   -737074.83247  23383945.01547
  23996381.964 5  -2317488.547 5  -1758598.55146  23996376.23346
  20369337.683 7  -1024414.527 7   -785767.41449  20369336.68749
  22316152.542 6  -2644023.734 6  -1995846.32447  22316150.03447
  23434979.433 6   -467078.391 6   -354898.15246  23434974.55846
  21313067.128 7  -1179825.594 7   -900710.70348  21313061.88648
  22413493.737 6   -239936.723 6   -185669.27748  22413491.92148
 18  5 30  0 28 34.9990000  0 10G03G14G16G22G23G26G27G29G31G32      -0.000142033
  23452294.839 3  -1233066.398 3   -932449.47346  23452294.24946
  20360831.112 6   -883095.148 6   -678324.15648  20360826.30048
  20290694.878 6  -1635693.172 6  -1251152.25848  20290690.33948
  23381357.472 5   -979774.320 5   -747692.50447  23381352.04247
  23989435.597 5  -2353993.551 5  -1787044.02046  23989430.21446
  20366578.644 7  -1038913.590 7   -797065.39549  20366577.32349
  22309049.089 6  -2681355.883 6  -2024936.30547  22309046.15947
  23433724.612 6   -473671.137 6   -360035.34846  23433720.09346
  21309873.417 7  -1196607.160 7   -913787.25448  21309868.28048
  22412764.847 6   -243764.547 6   -188652.02048  22412763.78848
 18  5 30  0 28 39.9990000  0 10G03G14G16G22G23G26G27G29G31G32      -0.000154463
  23449051.175 3  -1250110.102 3   -945730.30546  23449050.96846
  20358529.792 6   -895186.816 6   -687746.23448  20358525.00348
  20286405.276 6  -1658234.227 6  -1268716.71948  20286401.28448
  23378765.339 5   -993400.883 5   -758310.60547  23378759.13247
  23982489.128 5  -2390502.980 5  -1815492.90246  23982482.36246
  20363819.089 7  -1053412.883 7   -808363.55149  20363818.11649
  22301944.144 6  -2718690.871 6  -2054028.50047  22301941.69447
  23432470.933 6   -480260.887 6   -365170.21146  23432466.51146
  21306679.362 7  -1213393.414 7   -926867.45348  21306674.50748
  22412036.550 6   -247592.195 6   -191634.61348  22412035.03848
 18  5 30  0 28 44.9990000  0 10G03G14G16G22G23G26G27G29G31G32      -0.000166899
  23445809.269 3  -1267149.824 3   -959008.01646  23445808.65146
  20356229.956 6   -907271.883 6   -697163.18848  20356225.34748
  20282116.628 6  -1680770.824 6  -1286277.70748  20282112.19048
  23376171.894 5  -1007027.750 5   -768928.96547  23376165.82747
  23975540.487 5  -2427016.559 5  -1843945.04346  23975533.39046
  20361059.940 7  -1067912.207 7   -819661.73049  20361058.73349
  22294839.269 6  -2756028.477 6  -2083122.72347  22294836.45647
  23431217.198 6   -486847.461 6   -370302.63346  23431212.83946
  21303484.144 7  -1230184.137 7   -939951.13748  21303479.01948
  22411308.394 6   -251419.488 6   -194616.93448  22411306.76948
 18  5 30  0 28 49.9990000  0 10G03G14G16G22G23G26G27G29G31G32      -0.000179338
  23442567.370 4  -1284185.602 4   -972282.65246  23442566.81946
  20353931.690 6   -919350.363 6   -706574.98448  20353926.85148
  20277829.409 6  -1703303.082 6  -1303835.29748  20277824.80448
  23373579.300 6  -1020655.105 6   -779547.68047  23373572.93347
  23968591.269 5  -2463534.367 5  -1872400.47746  23968584.34746
  20358301.331 7  -1082411.590 7   -830959.95349  20358299.41349
  22287733.448 6  -2793368.715 6  -2112219.01247  22287731.08947
  23429964.433 6   -493430.813 6   -375432.49247  23429960.83947
  21300288.237 7  -1246979.332 7   -953038.30548  21300283.00348
  22410580.269 6   -255246.453 6   -197598.98848  22410578.72648
 18  5 30  0 28 54.9990000  0 10G03G14G16G22G23G26G27G29G31G32      -0.000191784
  23439327.167 4  -1301217.063 4   -985553.93446  23439325.61646
  20351634.644 6   -931421.984 6   -715981.45748  20351629.33148
  20273543.026 6  -1725830.641 6  -1321389.24648  20273538.28848
  23370985.362 5  -1034282.555 5   -790166.47747  23370979.19047
  23961641.534 5  -2500056.070 5  -1900858.94946  23961634.58546
  20355541.714 7  -1096910.758 7   -842258.00849  20355540.43749
  22280627.620 6  -2830711.242 6  -2141317.08247  22280624.76147
  23428712.487 6   -500010.719 6   -380559.69946  23428709.06546
  21297090.737 7  -1263778.730 7   -966128.77348  21297086.16748
  22409851.714 6   -259072.738 6   -200580.52348  22409850.69448
 18  5 30  0 28 59.9990000  0 10G03G14G16G22G23G26G27G29G31G32      -0.000204233
  23436086.636 3  -1318243.992 3   -998821.67246  23436086.10146
  20349338.847 6   -943486.375 6   -725382.27748  20349334.08548
  20269256.480 6  -1748353.234 6  -1338939.31648  20269251.90148
  23368392.308 5  -1047909.887 5   -800785.18447  23368386.32347
  23954691.065 5  -2536581.383 5  -1929320.22746  23954684.13246
  20352782.839 7  -1111409.387 7   -853555.64549  20352781.74149
  22273521.331 6  -2868055.777 6  -2170416.72347  22273518.30047
  23427460.667 6   -506586.855 6   -385683.96947  23427457.87047
  21293893.745 7  -1280581.980 7   -979222.19548  21293888.62048
  22409124.284 6   -262898.156 6   -203561.38348  22409122.51148
 18  5 30  0 29  4.9990000  0 10G03G14G16G22G23G26G27G29G31G32      -0.000216686
  23432846.808 3  -1335266.629 3  -1012086.09046  23432846.80446
  20347044.144 6   -955544.000 6   -734777.83248  20347039.61648
  20264971.565 6  -1770871.133 6  -1356485.73448  20264966.85148
  23365799.370 5  -1061537.355 5   -811403.99647  23365793.21047
  23947739.651 5  -2573110.523 5  -1957784.49646  23947732.92146
  20350023.886 7  -1125907.824 7   -864853.13749  20350022.58949
  22266414.042 6  -2905402.602 6  -2199518.13747  22266411.26547
  23426210.003 6   -513159.578 6   -390805.59847  23426207.23747
  21290695.534 7  -1297389.469 7   -992318.94548  21290690.64048
  22408396.362 6   -266722.980 6   -206541.77748  22408394.69448
 18  5 30  0 29  9.9990000  0 10G03G14G16G22G23G26G27G29G31G32      -0.000229145
  23429608.612 3  -1352285.070 3  -1025347.20746  23429607.78846
  20344750.987 6   -967594.703 6   -744167.99248  20344746.55848
  20260687.433 6  -1793384.359 6  -1374028.51248  20260682.74148
  23363205.831 5  -1075164.965 5   -822022.91047  23363199.52247
  23940788.019 5  -2609643.527 5  -1986251.75846  23940780.68346
  20347264.933 7  -1140406.035 7   -876150.45349  20347263.86249
  22259306.628 6  -2942751.727 6  -2228621.35247  22259303.96447
  23424960.245 6   -519728.852 6   -395924.52347  23424957.59347
  21287496.331 7  -1314201.133 7  -1005418.95348  21287490.90948
  22407668.401 6   -270547.195 6   -209521.69548  22407667.17148
 18  5 30  0 29 14.9990000  0 10G03G14G16G22G23G26G27G29G31G32      -0.000241608
  23426371.151 3  -1369299.355 3  -1038605.10546  23426370.16746
  20342458.925 6   -979638.645 6   -753552.88748  20342454.51148
  20256404.167 6  -1815893.043 6  -1391567.74648  20256399.30048
  23360612.675 5  -1088792.844 5   -832642.05547  23360606.26947
  23933834.901 5  -2646180.430 5  -2014722.04346  23933827.87046
  20344506.120 7  -1154904.176 7   -887447.69948  20344505.14748
  22252199.097 6  -2980103.160 6  -2257726.35547  22252196.64047
  23423710.542 6   -526294.758 6   -401040.82047  23423708.30447
  21284295.839 7  -1331017.051 7  -1018522.27048  21284291.05448
  22406940.722 6   -274370.895 6   -212501.23048  22406939.94448
 18  5 30  0 29 19.9990000  0 10G03G14G16G22G23G26G27G29G31G32      -0.000254076
  23423135.019 3  -1386309.086 3  -1051859.45746  23423133.51546
  20340168.417 6   -991675.453 6   -762932.21948  20340164.15548
  20252121.847 6  -1838396.777 6  -1409103.11748  20252116.76548
  23358018.980 5  -1102420.609 5   -843261.09047  23358013.09347
  23926881.839 5  -2682720.957 5  -2043195.19946  23926874.47646
  20341747.214 7  -1169401.836 7   -898744.58249  20341746.14449
  22245090.894 6  -3017456.590 6  -2286832.91847  22245088.39747
  23422462.370 6   -532857.004 6   -406154.27347  23422460.08947
  21281095.269 7  -1347836.883 7  -1031628.62548  21281090.58548
  22406213.464 6   -278193.770 6   -215480.10548  22406211.93748
 18  5 30  0 29 24.9990000  0 10G03G14G16G22G23G26G27G29G31G32      -0.000266548
  23419898.440 4  -1403314.398 4  -1065110.34046  23419898.02246
  20337879.511 6  -1003705.148 6   -772306.01248  20337874.94848
  20247840.605 6  -1860895.602 6  -1426634.67648  20247835.36248
  23355426.019 5  -1116048.391 5   -853880.15647  23355419.93747
  23919927.347 5  -2719265.063 5  -2071671.10946  23919920.21446
  20338988.472 7  -1183899.094 7   -910041.15248  20338987.45248
  22237982.394 6  -3054812.000 6  -2315941.02347  22237980.42147
  23421214.034 6   -539415.602 6   -411264.87947  23421212.15547
  21277893.925 7  -1364660.605 7  -1044738.03548  21277888.83548
  22405485.651 6   -282015.844 6   -218458.35948  22405484.88248
 18  5 30  0 29 29.9990000  0 10G03G14G16G22G23G26G27G29G31G32      -0.000279024
  23416663.323 4  -1420315.250 4  -1078357.76646  23416662.39446
  20335591.605 6  -1015727.770 6   -781674.29748  20335586.96048
  20243560.190 6  -1883389.582 6  -1444162.44948  20243554.84348
  23352832.675 5  -1129676.184 5   -864499.23047  23352826.55047
  23912972.495 5  -2755812.754 5  -2100149.82846  23912965.46046
  20336229.917 7  -1198395.965 7   -921337.41848  20336228.98348
  22230873.487 6  -3092169.402 6  -2345050.69547  22230871.09347
  23419966.480 6   -545970.598 6   -416372.66446  23419964.51146
  21274691.956 7  -1381488.316 7  -1057850.53948  21274687.14048
  22404758.808 6   -285837.160 6   -221436.02748  22404758.05448
 18  5 30  0 29 34.9990000  0 10G03G14G16G22G23G26G27G29G31G32      -0.000291506
  23413429.323 4  -1437311.707 4  -1091601.77046  23413427.48046
  20333305.276 6  -1027743.375 6   -791037.11348  20333300.67948
  20239280.245 6  -1905878.730 6  -1461686.46148  20239275.42948
  23350239.394 5  -1143303.984 5   -875118.30947  23350233.36647
  23906017.347 5  -2792364.059 5  -2128631.35246  23906010.14446
  20333471.276 7  -1212892.488 7   -932633.42248  20333469.90548
  22223763.964 6  -3129528.836 6  -2374161.93047  22223761.98347
  23418719.323 6   -552521.961 6   -421477.61747  23418717.98347
  21271488.730 7  -1398319.973 7  -1070966.12148  21271484.23748
  22404031.831 6   -289657.730 6   -224413.10948  22404030.67948
 18  5 30  0 29 39.9990000  0 10G03G14G16G22G23G26G27G29G31G32      -0.000303991
  23410195.003 4  -1454303.512 4  -1104842.12946  23410194.21846
  20331019.972 6  -1039751.656 6   -800394.21548  20331015.55048
  20235002.011 6  -1928362.734 6  -1479206.46548  20234997.08948
  23347645.948 5  -1156931.594 5   -885737.22347  23347640.50347
  23899060.909 5  -2828918.637 5  -2157115.42646  23899053.90546
  20330712.800 7  -1227388.398 7   -943928.93448  20330711.71848
  22216654.690 6  -3166889.980 6  -2403274.50447  22216652.11247
  23417473.339 6   -559069.496 6   -426579.59446  23417472.37846
  21268285.339 7  -1415155.316 7  -1084084.57048  21268280.41348
  22403305.026 6   -293477.305 6   -227389.41048  22403303.42148
 18  5 30  0 29 44.9990000  0 10G03G14G16G22G23G26G27G29G31G32      -0.000316481
  23406963.292 4  -1471291.000 4  -1118079.13746  23406961.59346
  20328736.105 6  -1051753.000 6   -809745.91448  20328731.79248
  20230724.417 6  -1950842.023 6  -1496722.79348  20230719.18348
  23345052.120 5  -1170559.332 5   -896356.24247  23345047.03047
  23892104.480 5  -2865476.949 5  -2185602.41846  23892097.18746
  20327954.495 7  -1241884.063 7   -955224.26248  20327953.10848
  22209544.315 6  -3204253.180 6  -2432388.69147  22209542.23047
  23416227.534 6   -565613.520 6   -431678.86346  23416226.90946
  21265080.550 7  -1431994.688 7  -1097206.16848  21265076.39748
  22402578.487 6   -297296.266 6   -230365.23448  22402576.90948
 18  5 30  0 29 49.9990000  0 10G03G14G16G22G23G26G27G29G31G32      -0.000328974
  23403730.925 5  -1488273.582 5  -1131312.30546  23403729.66346
  20326454.222 6  -1063746.738 6   -819091.69148  20326449.10848
  20226447.323 6  -1973315.902 6  -1514234.90648  20226442.47248
  23342459.526 6  -1184186.516 6   -906974.83247  23342453.96847
  23885146.776 5  -2902038.180 5  -2214091.67646  23885139.49546
  20325196.230 7  -1256378.836 7   -966518.89548  20325194.78048
  22202433.831 6  -3241617.766 6  -2461503.93447  22202432.22247
  23414982.815 5   -572153.477 5   -436774.93447  23414982.52647
  21261875.628 7  -1448837.402 7  -1110330.36748  21261871.33948
  22401852.058 7   -301113.949 7   -233340.06348  22401850.71048
 18  5 30  0 29 54.9990000  0 10G03G14G16G22G23G26G27G29G31G32      -0.000341473
  23400500.636 5  -1505251.574 5  -1144541.93446  23400498.95246
  20324173.089 6  -1075733.270 6   -828431.85248  20324168.33148
  20222171.839 6  -1995784.816 6  -1531743.15248  20222166.67548
  23339866.323 5  -1197813.680 5   -917593.43047  23339860.58947
  23878189.003 5  -2938602.824 5  -2242583.61746  23878181.84746
  20322437.776 7  -1270873.121 7   -977813.14848  20322436.28448
  22195323.065 6  -3278984.156 6  -2490620.59847  22195321.26147
  23413739.394 5   -578689.730 5   -441868.12946  23413738.38646
  21258669.776 7  -1465683.883 7  -1123457.48848  21258665.73748
  22401125.433 6   -304930.859 6   -236314.28148  22401124.26548
 18  5 30  0 29 59.9990000  0 10G03G14G16G22G23G26G27G29G31G32      -0.000353975
  23397270.128 4  -1522224.777 4  -1157767.82446  23397269.19046
  20321893.659 6  -1087712.309 6   -837766.16848  20321888.84348
  20217897.237 6  -2018248.473 6  -1549247.29748  20217892.46048
  23337273.581 5  -1211440.371 5   -928211.64547  23337267.47647
  23871229.972 5  -2975170.504 5  -2271077.88346  23871222.73746
  20319679.972 7  -1285366.609 7   -989106.77348  20319678.24948
  22188212.800 6  -3316351.961 6  -2519738.35947  22188210.69047
  23412495.769 5   -585222.043 5   -446958.26246  23412495.36246
  21255463.605 7  -1482533.816 7  -1136587.31648  21255459.09348
  22400399.409 6   -308746.516 6   -239287.54348  22400398.32348
 18  5 30  0 30  4.9990000  0 10G03G14G16G22G23G26G27G29G31G32      -0.000366482
  23394041.605 5  -1539192.934 5  -1170989.74246  23394040.53046
  20319614.995 6  -1099683.699 6   -847094.52748  20319610.60848
  20213624.120 6  -2040706.617 6  -1566747.15648  20213618.31548
  23334680.042 5  -1225066.523 5   -938829.44147  23334674.62447
  23864271.386 5  -3011741.105 5  -2299574.46546  23864263.85146
  20316922.222 7  -1299859.191 7  -1000399.69548  20316920.73048
  22181101.519 6  -3353721.090 6  -2548857.15247  22181099.51947
  23411254.550 6   -591750.156 6   -452045.09047  23411252.69047
  21252256.417 7  -1499387.059 7  -1149719.70348  21252251.89048
  22399673.315 6   -312560.879 6   -242259.77748  22399671.97248
 18  5 30  0 30  9.9990000  0 10G03G14G16G22G23G26G27G29G31G32      -0.000378992
  23390813.276 4  -1556156.406 4  -1184208.03146  23390812.38246
  20317338.972 6  -1111647.688 6   -856417.10948  20317333.87848
  20209351.034 7  -2063159.570 7  -1584242.96548  20209345.42548
  23332086.792 6  -1238692.383 6   -949446.99647  23332081.62047
  23857311.636 5  -3048314.793 5  -2328073.43046  23857304.24946
  20314164.565 7  -1314351.063 7  -1011692.07048  20314162.82748
  22173990.034 6  -3391091.695 6  -2577977.10947  22173987.60147
  23410012.315 6   -598274.383 6   -457128.90646  23410011.76546
  21249048.831 7  -1516243.816 7  -1162854.84448  21249044.15548
  22398948.237 6   -316374.164 6   -245231.18048  22398946.31248
 18  5 30  0 30 14.9990000  0 10G03G14G16G22G23G26G27G29G31G32      -0.000391506
  23387586.230 4  -1573115.027 4  -1197422.56346  23387585.64746
  20315063.784 6  -1123604.148 6   -865733.84448  20315058.93748
  20205079.808 6  -2085607.246 6  -1601734.65648  20205074.12448
  23329494.417 6  -1252317.887 6   -960064.27347  23329489.40947
  23850350.995 5  -3084891.512 5  -2356574.77046  23850343.99146
  20311406.839 7  -1328842.160 7  -1022983.84448  20311405.06948
  22166878.315 6  -3428463.719 6  -2607098.16447  22166876.64047
  23408771.550 5   -604794.645 5   -462209.61746  23408770.60146
  21245840.722 7  -1533104.020 7  -1175992.66848  21245836.02248
  22398222.722 6   -320186.297 6   -248201.69148  22398221.10848
 18  5 30  0 30 19.9990000  0 10G03G14G16G22G23G26G27G29G31G32      -0.000404026
  23384360.050 4  -1590068.660 4  -1210633.18446  23384359.53446
  20312790.034 6  -1135552.988 6   -875044.62948  20312785.10548
  20200808.855 6  -2108049.496 6  -1619222.12948  20200803.89048
  23326902.511 6  -1265942.863 6   -970681.15647  23326896.32747
  23843390.511 5  -3121471.141 5  -2385078.37946  23843383.06946
  20308649.456 7  -1343332.379 7  -1034274.93048  20308647.62448
  22159766.706 6  -3465836.977 6  -2636220.17648  22159764.92548
  23407531.730 5   -611310.820 5   -467287.18046  23407529.90946
  21242631.534 7  -1549967.516 7  -1189133.05548  21242626.90548
  22397497.237 6   -323997.164 6   -251171.21148  22397496.17948
 18  5 30  0 30 24.9990000  0 10G03G14G16G22G23G26G27G29G31G32      -0.000416548
  23381135.565 5  -1607017.285 5  -1223839.93846  23381134.86246
  20310517.503 6  -1147494.141 6   -884349.42648  20310512.68348
  20196539.128 6  -2130486.215 6  -1636705.28948  20196534.30848
  23324309.862 6  -1279567.285 6   -981297.59447  23324303.63647
  23836428.675 5  -3158053.523 5  -2413584.12946  23836421.76946
  20305892.519 7  -1357821.605 7  -1045565.24248  20305890.50748
  22152654.628 6  -3503211.402 6  -2665343.09048  22152652.92548
  23406291.464 5   -617822.836 5   -472361.48046  23406290.04646
  21239421.730 7  -1566834.234 7  -1202275.95348  21239417.01148
  22396772.175 6   -327806.707 6   -254139.69948  22396771.14448
 18  5 30  0 30 29.9990000  0 10G03G14G16G22G23G26G27G29G31G32      -0.000429075
  23377911.214 4  -1623960.835 4  -1237042.68546  23377909.98046
  20308246.440 6  -1159427.512 6   -893648.16048  20308242.04248
  20192271.120 6  -2152917.395 6  -1654184.13348  20192265.62048
  23321717.378 6  -1293191.109 6   -991913.56647  23321710.88647
  23829466.925 5  -3194638.684 5  -2442092.03946  23829459.55846
  20303135.175 7  -1372309.844 7  -1056854.77748  20303133.46448
  22145542.058 6  -3540586.898 6  -2694466.85248  22145540.17148
  23405053.589 5   -624330.633 5   -477432.50446  23405051.67946
  21236211.472 7  -1583704.129 7  -1215421.32848  21236206.58148
  22396047.433 6   -331614.852 6   -257107.10548  22396046.72248
 18  5 30  0 30 34.9990000  0 10G03G14G16G22G23G26G27G29G31G32      -0.000441607
  23374687.190 4  -1640899.367 4  -1250241.56346  23374686.76546
  20305977.105 6  -1171353.137 6   -902940.85248  20305972.35548
  20188003.636 6  -2175343.070 6  -1671658.68048  20187997.92548
  23319124.933 6  -1306814.285 6  -1002529.03147  23319118.42947
  23822503.800 5  -3231226.586 5  -2470602.09846  23822497.31946
  20300378.214 7  -1386797.102 7  -1068143.55548  20300376.65148
  22138429.847 6  -3577963.523 6  -2723591.49648  22138427.92148
  23403816.667 5   -630834.277 5   -482500.28146  23403813.50346
  21233000.573 7  -1600577.227 7  -1228569.19548  21232995.77248
  22395323.214 6   -335421.664 6   -260073.46948  22395322.16348
 18  5 30  0 30 39.9990000  0 10G03G14G16G22G23G26G27G29G31G32      -0.000454142
  23371465.620 4  -1657832.813 4  -1263436.48446  23371464.42146
  20303709.792 6  -1183270.980 6   -912227.49248  20303704.82748
  20183736.987 6  -2197763.223 6  -1689128.93048  20183731.76148
  23316532.589 6  -1320436.895 6  -1013144.05947  23316526.17547
  23815541.503 5  -3267817.195 5  -2499114.25046  23815534.75346
  20297621.651 7  -1401283.344 7  -1079431.53548  20297619.57348
  22131316.987 6  -3615341.207 6  -2752716.94948  22131314.96448
  23402579.558 5   -637333.672 5   -487564.73846  23402576.34746
  21229789.230 7  -1617453.469 7  -1241719.52348  21229784.31948
  22394599.222 6   -339227.125 6   -263038.77048  22394597.58948
 18  5 30  0 30 44.9990000  0 10G03G14G16G22G23G26G27G29G31G32      -0.000466681
  23368243.730 4  -1674760.832 4  -1276627.14546  23368242.92546
  20301443.222 6  -1195180.641 6   -921507.75048  20301438.53448
  20179471.823 6  -2220177.410 6  -1706594.53548  20179466.30048
  23313940.323 6  -1334058.508 6  -1023758.30147  23313933.98347
  23808578.597 5  -3304410.047 5  -2527628.16446  23808571.42546
  20294865.808 7  -1415768.191 7  -1090718.43448  20294863.19848
  22124204.425 6  -3652719.473 6  -2781842.87547  22124202.24947
  23401343.628 5   -643828.461 5   -492625.62946  23401339.97246
  21226577.386 7  -1634332.457 7  -1254871.98048  21226572.21048
  22393875.870 6   -343030.809 6   -266002.68048  22393874.21448
 18  5 30  0 30 49.9990000  0 10G03G14G16G22G23G26G27G29G31G32      -0.000479221
  23365023.355 4  -1691683.410 4  -1289813.56646  23365023.02246
  20299177.901 6  -1207082.227 6   -930781.71948  20299173.60848
  20175207.355 6  -2242585.699 6  -1724055.53548  20175202.25348
  23311348.628 6  -1347679.199 6  -1034371.83247  23311341.78047
  23801614.386 5  -3341005.203 5  -2556143.86346  23801607.73346
  20292109.417 7  -1430251.672 7  -1102004.26648  20292107.10148
  22117091.105 6  -3690098.426 6  -2810969.33648  22117088.70648
  23400108.261 5   -650318.742 5   -497682.97746  23400104.32746
  21223364.862 7  -1651214.195 7  -1268026.58648  21223359.85548
  22393152.206 6   -346832.777 6   -268965.26648  22393150.88648
 18  5 30  0 30 54.9990000  0 10G03G14G16G22G23G26G27G29G31G32      -0.000491768
  23361804.933 5  -1708600.816 5  -1302995.94946  23361803.15546
  20296915.269 6  -1218975.887 6   -940049.51648  20296910.38248
  20170944.245 7  -2264988.340 7  -1741512.14148  20170939.11248
  23308757.253 6  -1361299.207 6  -1044984.83647  23308750.21847
  23794649.706 5  -3377602.852 5  -2584661.50846  23794643.35846
  20289353.706 7  -1444734.047 7  -1113289.23848  20289351.70648
  22109978.190 6  -3727478.258 6  -2840096.46947  22109975.35547
  23398874.612 5   -656804.676 5   -502736.93846  23398869.91346
  21220151.542 7  -1668098.898 7  -1281183.49248  21220146.40948
  22392428.808 6   -350633.273 6   -271926.69548  22392427.86248
 18  5 30  0 30 59.9980000  0 10G03G14G16G22G23G26G27G29G31G32       0.000495684
  23358587.334 5  -1725509.660 5  -1316171.67646  23358585.93646
  20294653.982 6  -1230859.254 6   -949309.27348  20294649.02548
  20166683.264 6  -2287380.754 6  -1758960.77748  20166678.03748
  23306165.639 6  -1374915.754 6  -1055595.14147  23306158.86947
  23787686.240 5  -3414195.672 5  -2613175.41446  23787680.15046
  20286598.459 7  -1459212.383 7  -1124571.05548  20286596.01848
  22102866.381 6  -3764851.395 6  -2869218.41047  22102864.19347
  23397641.787 5   -663285.047 5   -507786.59046  23397636.65046
  21216938.529 7  -1684983.160 7  -1294340.06648  21216933.30348
  22391706.154 6   -354431.496 6   -274886.36748  22391705.01448
 18  5 30  0 31  4.9980000  0 10G03G14G16G22G23G26G27G29G31G32       0.000483131
  23355369.920 4  -1742416.313 4  -1329345.68446  23355368.52546
  20292393.397 6  -1242736.801 6   -958564.51248  20292388.98248
  20162422.678 7  -2309771.672 7  -1776408.25848  20162417.09248
  23303574.272 6  -1388534.008 6  -1066206.77747  23303567.54147
  23780720.725 5  -3450797.930 5  -2641696.65246  23780714.40446
  20283842.990 7  -1473692.172 7  -1135854.00849  20283840.98249
  22095752.545 6  -3802232.516 6  -2898346.54747  22095751.00647
  23396408.834 5   -669762.086 5   -512833.63346  23396403.70546
  21213724.428 7  -1701873.449 7  -1307501.33248  21213719.22548
  22390983.100 6   -358228.695 6   -277845.23448  22390982.04148
 18  5 30  0 31  9.9980000  0 10G03G14G16G22G23G26G27G29G31G32       0.000470573
  23352153.670 5  -1759317.559 5  -1342515.49646  23352152.35746
  20290134.670 6  -1254606.145 6   -967813.35248  20290130.19748
  20158162.287 6  -2332156.613 6  -1793851.07448  20158157.35048
  23300982.600 6  -1402151.281 6  -1076817.64847  23300975.89347
  23773755.514 5  -3487402.395 5  -2670219.59846  23773749.19746
  20281088.053 7  -1488170.559 7  -1147135.87149  20281086.00649
  22088639.522 6  -3839614.176 6  -2927475.11347  22088637.10447
  23395176.920 5   -676234.527 5   -517877.09846  23395172.11146
  21210509.818 7  -1718766.434 7  -1320664.69948  21210504.48648
  22390261.006 6   -362024.141 6   -280802.73447  22390260.05347
 18  5 30  0 31 14.9980000  0 10G03G14G16G22G23G26G27G29G31G32       0.000458012
  23348939.131 5  -1776213.309 5  -1355681.02746  23348938.03346
  20287877.717 6  -1266467.230 6   -977055.76648  20287872.74848
  20153904.178 6  -2354535.574 6  -1811289.22348  20153898.65048
  23298391.678 6  -1415767.547 6  -1087427.71947  23298385.19747
  23766789.811 5  -3524008.926 5  -2698744.17246  23766783.41646
  20278333.045 7  -1502647.523 7  -1158416.62149  20278331.01049
  22081525.443 6  -3876996.293 6  -2956604.03547  22081523.15447
  23393946.506 5   -682702.336 5   -522916.95746  23393941.04946
  21207294.506 7  -1735662.008 7  -1333830.08648  21207289.52248
  22389538.389 6   -365817.781 6   -283758.83647  22389538.17447
 18  5 30  0 31 19.9980000  0 10G03G14G16G22G23G26G27G29G31G32       0.000445448
  23345723.584 5  -1793103.362 5  -1368842.10646  23345723.83046
  20285622.342 6  -1278319.930 6   -986291.64148  20285617.44748
  20149647.006 7  -2376908.320 7  -1828722.53148  20149641.17448
  23295801.357 6  -1429382.633 6  -1098036.88347  23295794.30347
  23759822.764 5  -3560617.328 5  -2727270.19546  23759817.29146
  20275578.272 7  -1517122.855 7  -1169696.10249  20275576.80749
  22074411.850 6  -3914378.637 6  -2985733.13347  22074410.38547
  23392716.795 5   -689165.355 5   -527953.07446  23392710.95146
  21204078.967 7  -1752559.969 7  -1346997.32848  21204073.87348
  22388816.912 6   -369609.469 6   -286713.41447  22388816.79547
 18  5 30  0 31 24.9980000  0 10G03G14G16G22G23G26G27G29G31G32       0.000432878
  23342510.959 5  -1809987.754 5  -1381998.79346  23342510.76046
  20283368.045 6  -1290164.270 6   -995520.99648  20283363.67848
  20145390.467 6  -2399274.945 6  -1846151.07048  20145385.22948
  23293210.061 6  -1442996.625 6  -1108645.19147  23293203.15447
  23752856.498 5  -3597227.711 5  -2755797.76646  23752850.68246
  20272824.193 7  -1531596.668 7  -1180974.39549  20272822.70149
  22067298.545 6  -3951761.328 6  -3014862.50447  22067296.16247
  23391488.092 5   -695623.664 5   -532985.52046  23391481.63146
  21200863.217 7  -1769460.477 7  -1360166.55948  21200858.11948
  22388095.522 6   -373399.270 6   -289666.52047  22388095.60747
 18  5 30  0 31 29.9980000  0 10G03G14G16G22G23G26G27G29G31G32       0.000420307
  23339298.701 4  -1826866.863 4  -1395151.35246  23339298.32646
  20281115.990 6  -1302000.520 6  -1004744.05148  20281111.07248
  20141135.490 6  -2421635.703 6  -1863575.04348  20141130.40048
  23290619.951 6  -1456609.762 6  -1119252.84047  23290612.76847
  23745888.990 5  -3633840.203 5  -2784326.98446  23745883.43946
  20270070.217 7  -1546069.145 7  -1192251.66049  20270068.79949
  22060184.459 6  -3989144.516 6  -3043992.25447  22060182.57647
  23390259.748 5   -702077.465 5   -538014.46546  23390253.37746
  21197646.693 7  -1786363.648 7  -1373337.86348  21197641.30748
  22387375.123 6   -377187.410 6   -292618.33247  22387374.56147
 18  5 30  0 31 34.9980000  0 10G03G14G16G22G23G26G27G29G31G32       0.000407730
  23336088.428 4  -1843740.590 4  -1408299.73046  23336087.65446
  20278865.350 6  -1313828.676 6  -1013960.80148  20278860.19348
  20136881.498 6  -2443990.598 6  -1880994.44148  20136876.43248
  23288029.232 6  -1470222.031 6  -1129859.80547  23288022.68947
  23738921.811 5  -3670454.977 5  -2812857.97346  23738916.22546
  20267316.100 7  -1560540.387 7  -1203527.95349  20267314.99449
  22053069.889 6  -4026528.238 6  -3073122.43047  22053068.43947
  23389031.998 5   -708526.863 5   -543039.95346  23389026.25646
  21194429.623 7  -1803269.602 7  -1386511.33648  21194423.78348
  22386654.397 6   -380973.926 6   -295568.88747  22386653.80747
 18  5 30  0 31 39.9980000  0 10G03G14G16G22G23G26G27G29G31G32       0.000395151
  23332878.506 4  -1860608.574 4  -1421443.62146  23332878.10446
  20276615.772 6  -1325648.332 6  -1023170.92648  20276611.04548
  20132628.576 6  -2466339.203 6  -1898408.94548  20132623.43248
  23285439.576 6  -1483833.020 6  -1140465.78147  23285432.76847
  23731953.561 5  -3707071.457 5  -2841390.29746  23731947.76846
  20264562.717 7  -1575009.914 7  -1214802.90649  20264561.47549
  22045956.740 6  -4063912.051 6  -3102252.66847  22045954.51047
  23387806.342 5   -714971.344 5   -548061.64146  23387799.70146
  21191212.201 7  -1820177.848 7  -1399686.59448  21191207.01448
  22385934.100 6   -384758.402 6   -298517.84047  22385933.85747
 18  5 30  0 31 44.9980000  0 10G03G14G16G22G23G26G27G29G31G32       0.000382570
  23329670.147 4  -1877470.758 4  -1434582.97346  23329669.32646
  20274368.397 6  -1337459.441 6  -1032374.38748  20274363.68948
  20128376.764 6  -2488681.492 6  -1915818.52348  20128371.49448
  23282849.545 6  -1497442.715 6  -1151070.76247  23282842.63947
  23724985.514 5  -3743689.633 5  -2869923.93446  23724980.06846
  20261809.686 7  -1589477.699 7  -1226076.51649  20261808.42049
  22038842.537 6  -4101295.852 6  -3131382.90647  22038840.56447
  23386579.975 5   -721410.938 5   -553079.53146  23386575.11946
  21187994.201 7  -1837088.301 7  -1412863.57848  21187988.78748
  22385214.076 6   -388540.785 6   -301465.16847  22385213.83047
 18  5 30  0 31 49.9980000  0 10G03G14G16G22G23G26G27G29G31G32       0.000369984
  23326462.272 4  -1894327.367 4  -1447718.02046  23326461.62746
  20272122.756 6  -1349262.230 6  -1041571.37148  20272117.63548
  20124126.631 6  -2511017.730 6  -1933223.37948  20124121.30348
  23280259.904 6  -1511051.410 6  -1161674.94147  23280252.82247
  23718016.975 5  -3780309.707 5  -2898459.04746  23718011.35446
  20259057.139 7  -1603944.020 7  -1237348.97749  20259055.78349
  22031728.584 6  -4138679.910 6  -3160513.35247  22031726.51847
  23385355.693 5   -727845.914 5   -558093.81646  23385350.03346
  21184775.639 7  -1854001.262 7  -1426042.52048  21184770.08448
  22384495.279 6   -392321.395 6   -304411.10247  22384494.44747
 18  5 30  0 31 54.9980000  0 10G03G14G16G22G23G26G27G29G31G32       0.000357393
  23323255.022 4  -1911178.039 4  -1460848.40246  23323254.64746
  20269877.920 6  -1361056.309 6  -1050761.56648  20269873.07648
  20119877.498 6  -2533347.473 6  -1950623.18048  20119872.18948
  23277670.311 6  -1524658.645 6  -1172277.98447  23277663.59647
  23711047.936 5  -3816931.281 5  -2926995.34846  23711042.66646
  20256304.561 7  -1618408.434 7  -1248619.95349  20256303.22549
  22024614.951 6  -4176063.773 6  -3189643.63347  22024612.65847
  23384132.068 5   -734275.777 5   -563104.11346  23384127.10446
  21181556.873 7  -1870916.246 7  -1439223.03548  21181551.55348
  22383776.287 6   -396099.719 6   -307355.25847  22383775.56847
 18  5 30  0 31 59.9980000  0 10G03G14G16G22G23G26G27G29G31G32       0.000344801
  23320049.428 4  -1928022.980 4  -1473974.34446  23320048.92446
  20267635.482 6  -1372841.840 6  -1059945.10248  20267630.49848
  20115629.350 6  -2555670.980 6  -1968018.11748  20115624.13148
  23275080.787 6  -1538264.625 6  -1182880.06347  23275074.45547
  23704078.748 5  -3853554.551 5  -2955532.97746  23704073.07246
  20253552.303 7  -1632871.184 7  -1259889.62949  20253550.94349
  22017501.256 6  -4213447.672 6  -3218773.94147  22017498.76847
  23382909.201 5   -740700.840 5   -568110.69946  23382904.86546
  21178337.779 7  -1887833.516 7  -1452405.32048  21178332.53348
  22383057.811 6   -399876.055 6   -310297.88747  22383056.94347
 18  5 30  0 32  4.9980000  0 10G03G14G16G22G23G26G27G29G31G32       0.000332205
  23316844.889 3  -1944862.340 3  -1487095.92246  23316844.39346
  20265394.420 6  -1384618.980 6  -1069122.10248  20265389.50648
  20111382.350 7  -2577988.285 7  -1985408.22748  20111376.99848
  23272492.436 6  -1551869.488 6  -1193481.27047  23272485.41647
  23697108.904 5  -3890179.621 5  -2984071.98446  23697103.76046
  20250800.436 7  -1647332.359 7  -1271158.07849  20250799.27249
  22010387.318 6  -4250831.652 6  -3247904.31647  22010385.13547
  23381687.772 5   -747121.113 5   -573113.50846  23381683.36146
  21175118.053 7  -1904753.156 7  -1465589.45348  21175112.32248
  22382339.553 6   -403650.500 6   -313239.02747  22382338.33047
 18  5 30  0 32  9.9980000  0 10G03G14G16G22G23G26G27G29G31G32       0.000319605
  23313642.006 4  -1961695.777 4  -1500212.89846  23313641.41246
  20263154.920 6  -1396387.527 6  -1078292.40248  20263150.39348
  20107136.850 6  -2600299.207 6  -2002793.36748  20107130.92448
  23269903.490 6  -1565473.012 6  -1204081.41047  23269897.10747
  23690139.272 5  -3926806.207 5  -3012612.18846  23690133.30746
  20248048.779 7  -1661791.785 7  -1282425.16049  20248047.35749
  22003273.561 6  -4288215.500 6  -3277034.58648  22003271.18648
  23380466.982 5   -753536.500 5   -578112.53146  23380462.92446
  21171897.834 7  -1921674.930 7  -1478775.25848  21171892.14748
  22381622.029 6   -407422.801 6   -316178.49247  22381620.25247
 18  5 30  0 32 14.9980000  0 10G03G14G16G22G23G26G27G29G31G32       0.000307001
  23310439.779 4  -1978523.316 4  -1513325.24246  23310439.09246
  20260916.537 6  -1408147.340 6  -1087455.88748  20260912.29148
  20102892.545 6  -2622603.641 6  -2020173.44148  20102886.93648
  23267314.920 6  -1579075.129 6  -1214680.47347  23267308.76047
  23683169.514 5  -3963434.230 5  -3041153.51246  23683163.28746
  20245297.279 7  -1676249.340 7  -1293690.78949  20245296.20149
  21996159.193 6  -4325599.121 6  -3306164.67647  21996157.38947
  23379247.654 5   -759946.883 5   -583107.63346  23379243.03746
  21168677.803 7  -1938598.715 7  -1491962.62948  21168672.20548
  22380904.311 6   -411192.902 6   -319116.24647  22380902.28347
 18  5 30  0 32 19.9980000  0 10G03G14G16G22G23G26G27G29G31G32       0.000294394
  23307238.350 3  -1995344.672 3  -1526432.80946  23307237.65446
  20258681.014 6  -1419898.188 6  -1096612.40648  20258676.26848
  20098649.779 6  -2644901.352 6  -2037548.28548  20098643.95948
  23264727.670 6  -1592675.609 6  -1225278.25047  23264720.48647
  23676198.998 5  -4000063.438 5  -3069695.73846  23676192.91246
  20242546.428 7  -1690704.801 7  -1304954.78549  20242545.18249
  21989046.014 6  -4362982.215 6  -3335294.36748  21989043.96348
  23378028.764 5   -766352.055 5   -588098.67646  23378024.43646
  21165456.459 7  -1955524.340 7  -1505151.43448  21165451.33048
  22380187.514 6   -414960.633 6   -322052.15647  22380185.42447
 18  5 30  0 32 24.9980000  0 10G03G14G16G22G23G26G27G29G31G32       0.000281784
  23304038.772 3  -2012160.094 3  -1539535.73446  23304038.34646
  20256446.186 6  -1431640.328 6  -1105762.12948  20256441.77948
  20094407.529 6  -2667192.582 6  -2054918.07848  20094401.63148
  23262139.100 5  -1606274.688 5  -1235874.93047  23262132.47147
  23669228.482 5  -4036694.016 5  -3098239.03546  23669222.29546
  20239796.209 7  -1705158.395 7  -1316217.32049  20239795.11949
  21981931.709 6  -4400365.012 6  -3364423.81348  21981929.60048
  23376811.342 5   -772752.164 5   -593085.79746  23376806.70946
  21162235.443 7  -1972451.902 7  -1518341.75048  21162230.18248
  22379470.139 6   -418726.113 6   -324986.30147  22379469.04947
 18  5 30  0 32 29.9980000  0 10G03G14G16G22G23G26G27G29G31G32       0.000269173
  23300840.873 3  -2028969.398 3  -1552633.90246  23300839.61946
  20254213.811 6  -1443373.559 6  -1114904.91048  20254209.17848
  20090167.162 7  -2689477.156 7  -2072282.68448  20090161.09248
  23259551.467 6  -1619872.219 6  -1246470.41846  23259545.29146
  23662257.545 5  -4073325.809 5  -3126783.28946  23662251.80346
  20237046.326 7  -1719609.930 7  -1327478.25449  20237045.16649
  21974818.412 6  -4437747.305 6  -3393552.87147  21974815.96347
  23375594.147 5   -779147.086 5   -598068.84446  23375589.91246
  21159013.865 7  -1989381.289 7  -1531533.49248  21159008.55748
  22378754.686 6   -422489.230 6   -327918.62147  22378753.08047
 18  5 30  0 32 34.9980000  0 10G03G14G16G22G23G26G27G29G31G32       0.000256556
  23297642.904 3  -2045772.516 3  -1565727.25846  23297641.79946
  20251982.147 6  -1455097.809 6  -1124040.69148  20251978.02948
  20085928.045 6  -2711754.992 6  -2089642.03948  20085921.59248
  23256964.147 5  -1633468.035 5  -1257064.57047  23256958.07247
  23655286.490 5  -4109958.656 5  -3155328.36746  23655280.59646
  20234296.592 7  -1734059.332 7  -1338737.53549  20234295.54949
  21967705.139 6  -4475128.996 6  -3422681.46148  21967702.01848
  23374378.498 5   -785536.742 5   -603047.80146  23374374.35746
  21155791.764 7  -2006312.398 7  -1544726.57048  21155786.85048
  22378039.334 6   -426249.906 6   -330849.04747  22378037.60047
 18  5 30  0 32 39.9980000  0 10G03G14G16G22G23G26G27G29G31G32       0.000243937
  23294446.522 4  -2062569.695 4  -1578815.96946  23294445.66646
  20249753.045 6  -1466813.320 6  -1133169.66848  20249748.60748
  20081690.053 7  -2734026.328 7  -2106996.32448  20081683.59248
  23254377.568 6  -1647062.496 6  -1267657.65647  23254370.89747
  23648315.686 5  -4146592.891 5  -3183874.53146  23648309.78346
  20231547.553 7  -1748506.898 7  -1349995.37949  20231546.30749
  21960591.436 6  -4512510.305 6  -3451809.75448  21960589.19748
  23373163.537 5   -791921.391 5   -608022.85246  23373159.26446
  21152569.897 7  -2023245.484 7  -1557921.18448  21152564.52948
  22377324.357 6   -430008.379 6   -333777.73447  22377322.17447
 18  5 30  0 32 44.9980000  0 10G03G14G16G22G23G26G27G29G31G32       0.000231314
  23291250.943 4  -2079360.914 4  -1591900.03146  23291250.45946
  20247525.279 6  -1478520.031 6  -1142291.77748  20247520.69748
  20077452.811 7  -2756291.125 7  -2124345.52348  20077446.56448
  23251790.654 6  -1660655.531 6  -1278249.63747  23251784.58847
  23641343.772 5  -4183228.379 5  -3212421.66046  23641338.02546
  20228798.514 7  -1762952.555 7  -1361251.73848  20228797.08048
  21953478.225 6  -4549891.219 6  -3480937.73448  21953475.79948
  23371948.897 5   -798301.000 5   -612993.97746  23371945.82646
  21149346.912 7  -2040180.484 7  -1571117.29348  21149342.16248
  22376609.225 6   -433764.645 6   -336704.70347  22376607.50647
 18  5 30  0 32 49.9980000  0 10G03G14G16G22G23G26G27G29G31G32       0.000218689
  23288057.076 3  -2096145.840 3  -1604979.21146  23288056.09646
  20245299.459 6  -1490217.617 6  -1151406.78948  20245294.57648
  20073217.053 6  -2778549.043 6  -2141689.35548  20073210.99048
  23249204.037 5  -1674246.813 5  -1288840.25447  23249198.12747
  23634372.397 5  -4219864.820 5  -3240969.54346  23634365.29946
  20226049.990 7  -1777395.969 7  -1372506.35549  20226048.78349
  21946364.522 6  -4587271.355 6  -3510065.10548  21946362.67448
  23370735.764 5   -804675.293 5   -617960.98046  23370732.82646
  21146124.076 7  -2057117.098 7  -1584314.66448  21146119.39348
  22375894.857 6   -437518.348 6   -339629.66847  22375893.13547
 18  5 30  0 32 54.9980000  0 10G03G14G16G22G23G26G27G29G31G32       0.000206059
  23284864.529 3  -2112924.555 3  -1618053.53946  23284863.10746
  20243075.186 6  -1501906.211 6  -1160514.79748  20243070.47148
  20068982.795 6  -2800800.230 6  -2159027.94548  20068976.85448
  23246618.467 6  -1687836.430 6  -1299429.57047  23246611.85447
  23627400.053 5  -4256502.313 5  -3269518.21946  23627393.42446
  20223301.826 7  -1791837.305 7  -1383759.34848  20223300.47548
  21939251.725 6  -4624650.789 6  -3539191.93848  21939250.01448
  23369524.232 5   -811044.309 5   -622923.84446  23369521.33446
  21142901.232 7  -2074055.398 7  -1597513.34448  21142896.22548
  22375181.193 6   -441269.645 6   -342552.78147  22375179.10747
 18  5 30  0 32 59.9980000  0 10G03G14G16G22G23G26G27G29G31G32       0.000193428
  23281673.100 4  -2129697.121 4  -1631123.07846  23281671.88146
  20240852.795 6  -1513585.824 6  -1169615.79348  20240847.98248
  20064749.881 6  -2823044.699 6  -2176361.30548  20064743.62748
  23244033.139 5  -1701424.453 5  -1310017.64147  23244025.98247
  23620428.201 5  -4293140.742 5  -3298067.64146  23620420.55746
  20220554.287 7  -1806276.531 7  -1395010.69148  20220552.39348
  21932138.639 6  -4662029.563 6  -3568318.25448  21932136.93948
  23368312.904 5   -817408.082 5   -627882.62946  23368310.05346
  21139677.162 7  -2090995.395 7  -1610713.34048  21139672.34248
  22374467.990 6   -445018.500 6   -345473.98047  22374466.21347
 18  5 30  0 33  4.9980000  0 10G03G14G16G22G23G26G27G29G31G32       0.000180792
  23278482.803 4  -2146463.363 4  -1644187.69546  23278481.18646
  20238632.006 6  -1525256.254 6  -1178709.63748  20238627.13548
  20060518.420 6  -2845282.258 6  -2193689.27048  20060512.15448
  23241447.311 5  -1715010.758 5  -1320604.37147  23241440.97547
  23613455.936 5  -4329780.059 5  -3326617.73446  23613447.75646
  20217806.928 7  -1820713.516 7  -1406260.29348  20217805.35048
  21925025.975 6  -4699407.461 6  -3597443.87148  21925023.75248
  23367103.154 5   -823766.566 5   -632837.30946  23367100.12346
  21136453.436 7  -2107936.906 7  -1623914.52348  21136448.56148
  22373754.701 6   -448764.781 6   -348393.19547  22373753.56447
 18  5 30  0 33  9.9980000  0 10G03G14G16G22G23G26G27G29G31G32       0.000168154
  23275292.904 4  -2163223.598 4  -1657247.62546  23275291.34246
  20236413.084 6  -1536917.867 6  -1187796.61348  20236408.09248
  20056288.014 7  -2867513.227 7  -2211012.09048  20056281.78748
  23238861.928 5  -1728595.555 5  -1331189.93046  23238855.18246
  23606484.045 5  -4366420.484 5  -3355168.73846  23606475.01446
  20215060.186 7  -1835148.547 7  -1417508.36748  20215058.13148
  21917913.272 6  -4736784.766 6  -3626569.04748  21917911.08848
  23365894.022 4   -830119.980 4   -637788.00846  23365891.19746
  21133229.061 7  -2124880.090 7  -1637117.01248  21133224.77948
  22373041.881 6   -452508.820 6   -351310.63348  22373041.22148
 18  5 30  0 33 14.9980000  0 10G03G14G16G22G23G26G27G29G31G32       0.000155514
  23272104.826 4  -2179977.855 4  -1670302.89846  23272103.14346
  20234195.482 6  -1548570.668 6  -1196876.72748  20234190.39348
  20052058.865 6  -2889737.617 6  -2228329.79748  20052052.89748
  23236277.201 5  -1742178.910 5  -1341774.35946  23236270.70546
  23599511.584 5  -4403062.063 5  -3383720.60246  23599502.74846
  20212313.475 7  -1849581.688 7  -1428754.97748  20212311.59648
  21910801.037 6  -4774161.492 6  -3655693.76248  21910798.28748
  23364685.772 4   -836468.332 4   -642734.78146  23364683.82246
  21130004.678 7  -2141825.156 7  -1650320.95748  21129999.70548
  22372330.201 6   -456250.656 6   -354226.36347  22372328.68647
 18  5 30  0 33 19.9980000  0 10G03G14G16G22G23G26G27G29G31G32       0.000142868
  23268918.068 4  -2196725.547 4  -1683353.05546  23268916.01446
  20231979.772 6  -1560214.117 6  -1205949.54348  20231974.86548
  20047830.740 6  -2911954.922 6  -2245641.98848  20047824.76448
  23233693.076 5  -1755760.293 5  -1352357.28146  23233686.51046
  23592538.467 5  -4439704.145 5  -3412272.86346  23592529.65846
  20209567.787 7  -1864012.340 7  -1439999.63748  20209565.44748
  21903688.107 6  -4811537.059 6  -3684817.57848  21903685.76448
  23363479.053 4   -842811.117 4   -647677.21546  23363476.31446
  21126779.982 7  -2158771.512 7  -1663525.91448  21126774.89348
  22371618.811 6   -459989.668 6   -357139.89147  22371617.47547
 18  5 30  0 33 24.9980000  0 10G03G14G16G22G23G26G27G29G31G32       0.000130222
  23265731.943 4  -2213467.133 4  -1696398.45346  23265730.33046
  20229766.037 6  -1571848.594 6  -1215015.37548  20229760.92848
  20043604.225 6  -2934165.492 6  -2262948.91848  20043598.31448
  23231109.014 5  -1769340.074 5  -1362938.92246  23231101.95146
  23585565.631 5  -4476347.133 5  -3440825.82046  23585556.32246
  20206821.920 7  -1878440.926 7  -1451242.69948  20206819.63548
  21896576.397 6  -4848911.855 6  -3713940.79748  21896573.36148
  23362273.326 4   -849148.684 4   -652615.59446  23362270.50646
  21123555.014 7  -2175719.527 7  -1676732.16448  21123550.01448
  22370907.818 6   -463726.309 6   -360051.57447  22370906.46747
 18  5 30  0 33 29.9980000  0 10G03G14G16G22G23G26G27G29G31G32       0.000117571
  23262547.467 4  -2230202.457 4  -1709438.96946  23262545.90446
  20227553.850 6  -1583473.961 6  -1224074.10248  20227548.60748
  20039378.693 6  -2956369.219 6  -2280250.53148  20039373.23648
  23228524.607 5  -1782918.188 5  -1373519.27046  23228518.69346
  23578592.350 5  -4512990.918 5  -3469379.40646  23578582.93946
  20204076.475 7  -1892867.359 7  -1462484.07448  20204074.35048
  21889464.717 6  -4886285.773 6  -3743063.32848  21889461.40448
  23361067.943 4   -855480.969 4   -657549.84446  23361065.67446
  21120329.498 7  -2192669.098 7  -1689939.62948  21120324.69748
  22370197.264 6   -467460.520 6   -362961.37547  22370196.19347
 18  5 30  0 33 34.9980000  0 10G03G14G16G22G23G26G27G29G31G32       0.000104918
  23259364.428 5  -2246931.352 5  -1722474.46146  23259362.79946
  20225343.162 6  -1595090.000 6  -1233125.56648  20225338.39348
  20035155.193 6  -2978565.852 6  -2297546.60548  20035149.42848
  23225940.639 5  -1796494.379 5  -1384098.15246  23225934.98246
  23571619.209 5  -4549635.301 5  -3497933.46546  23571609.52546
  20201331.772 7  -1907291.379 7  -1473723.58248  20201329.77948
  21882352.631 6  -4923658.500 6  -3772184.93848  21882349.93948
  23359864.084 4   -861807.684 4   -662479.74646  23359861.38946
  21117103.982 7  -2209620.090 7  -1703148.19548  21117098.96748
  22369486.740 6   -471191.988 6   -365869.02347  22369485.60747
 18  5 30  0 33 39.9980000  0 10G03G14G16G22G23G26G27G29G31G32       0.000092262
  23256181.412 4  -2263653.684 4  -1735504.84846  23256180.36146
  20223134.584 6  -1606696.695 6  -1242169.73848  20223129.81148
  20030932.701 6  -3000755.379 6  -2314837.14548  20030927.02948
  23223358.373 5  -1810068.660 5  -1394675.52746  23223352.10446
  23564645.936 5  -4586280.242 5  -3526487.94946  23564636.83046
  20198587.334 7  -1921712.992 7  -1484961.20348  20198585.11948
  21875241.006 6  -4961030.051 6  -3801305.61748  21875238.45148
  23358661.475 4   -868128.840 4   -667405.32046  23358658.45146
  21113877.568 7  -2226572.281 7  -1716357.69948  21113873.04548
  22368777.748 6   -474920.746 6   -368774.55947  22368776.18247
 18  5 30  0 33 44.9980000  0 10G03G14G16G22G23G26G27G29G31G32       0.000079603
  23253000.897 4  -2280369.941 4  -1748530.50846  23252999.59646
  20220927.553 6  -1618294.406 6  -1251206.92248  20220922.93948
  20026711.545 6  -3022938.164 6  -2332122.43448  20026706.01048
  23220775.350 5  -1823641.391 5  -1405251.67646  23220769.52246
  23557672.272 5  -4622926.023 5  -3555043.08646  23557663.08846
  20195843.459 7  -1936132.520 7  -1496197.19948  20195841.46348
  21868129.904 6  -4998400.707 6  -3830425.60948  21868127.27548
  23357459.217 4   -874444.922 4   -672326.94546  23357456.72546
  21110651.529 7  -2243526.070 7  -1729568.44548  21110646.86948
  22368068.357 6   -478647.094 6   -371678.21947  22368067.18647
 18  5 30  0 33 49.9980000  0 10G03G14G16G22G23G26G27G29G31G32       0.000066940
  23249821.326 5  -2297079.730 5  -1761551.13746  23249819.86546
  20218722.193 7  -1629882.809 7  -1260236.84848  20218717.47548
  20022491.936 6  -3045113.957 6  -2349402.27348  20022485.83048
  23218193.311 5  -1837212.281 5  -1415826.43046  23218186.95546
  23550698.865 5  -4659572.414 5  -3583598.70746  23550689.63946
  20193099.967 7  -1950549.738 7  -1507431.40248  20193097.87748
  21861018.514 6  -5035770.215 6  -3859544.70348  21861016.51048
  23356258.045 5   -880755.465 5   -677244.24646  23356255.30346
  21107424.951 7  -2260481.133 7  -1742780.18848  21107420.49848
  22367359.709 6   -482370.855 6   -374579.86747  22367358.53747
 18  5 30  0 33 54.9980000  0 10G03G14G16G22G23G26G27G29G31G32       0.000054276
  23246642.826 5  -2313782.965 5  -1774566.64846  23246641.35446
  20216518.772 6  -1641461.797 6  -1269259.44148  20216514.30348
  20018273.123 7  -3067282.539 7  -2366676.49648  20018267.43248
  23215610.295 5  -1850781.160 5  -1426399.59446  23215604.25246
  23543725.029 5  -4696219.133 5  -3612154.57046  23543715.80346
  20190357.076 7  -1964964.430 7  -1518663.62948  20190355.03348
  21853907.717 6  -5073138.355 6  -3888662.72348  21853905.15848
  23355058.311 5   -887060.438 5   -682157.21946  23355056.15846
  21104198.522 7  -2277437.285 7  -1755992.77748  21104193.53348
  22366652.232 6   -486091.766 6   -377479.29347  22366650.35447
 18  5 30  0 33 59.9980000  0 10G03G14G16G22G23G26G27G29G31G32       0.000041607
  23243465.686 5  -2330479.719 5  -1787577.11746  23243464.13146
  20214317.006 6  -1653031.395 6  -1278274.71948  20214312.46348
  20014055.639 7  -3089444.012 7  -2383945.17648  20014050.35748
  23213029.006 4  -1864348.129 4  -1436971.25446  23213022.55746
  23536751.600 5  -4732866.363 5  -3640710.83246  23536742.37346
  20187614.365 7  -1979376.703 7  -1529893.96948  20187612.27548
  21846796.615 6  -5110505.246 6  -3917779.77748  21846794.64348
  23353859.264 5   -893359.895 5   -687065.88746  23353856.90846
  21100971.951 7  -2294394.695 7  -1769206.35248  21100966.40448
  22365944.256 6   -489809.977 6   -380376.61347  22365943.11947
 18  5 30  0 34  4.9980000  0 10G03G14G16G22G23G26G27G29G31G32       0.000028936
  23240289.850 5  -2347169.984 5  -1800582.53946  23240288.24846
  20212117.404 6  -1664591.594 6  -1287282.67248  20212112.54148
  20009839.701 6  -3111598.379 6  -2401208.32848  20009834.08048
  23210447.897 5  -1877913.180 5  -1447541.44946  23210441.29146
  23529777.787 5  -4769513.949 5  -3669267.40646  23529768.81846
  20184872.154 7  -1993786.574 7  -1541122.44948  20184869.93948
  21839686.162 6  -5147870.797 6  -3946895.78948  21839684.17048
  23352661.920 5   -899653.820 5   -691970.26646  23352659.27546
  21097744.904 7  -2311353.277 7  -1782420.83648  21097739.38948
  22365237.443 6   -493525.465 6   -383271.82047  22365236.15447
 18  5 30  0 34  9.9980000  0 10G03G14G16G22G23G26G27G29G31G32       0.000016264
  23237114.475 5  -2363853.754 5  -1813582.86746  23237113.18246
  20209919.537 6  -1676142.453 6  -1296283.34848  20209914.64348
  20005625.717 6  -3133745.629 6  -2418465.92248  20005619.95148
  23207866.529 5  -1891476.289 5  -1458110.12546  23207860.49846
  23522804.022 5  -4806161.980 5  -3697824.27046  23522795.34646
  20182130.451 7  -2008194.008 7  -1552349.02348  20182128.88148
  21832576.248 6  -5185234.996 6  -3976010.74648  21832573.94748
  23351465.318 5   -905942.207 5   -696870.28546  23351462.53746
  21094517.545 7  -2328313.031 7  -1795636.23448  21094512.22548
  22364531.022 6   -497238.254 6   -386164.92247  22364530.01047
 18  5 30  0 34 14.9980000  0 10G03G14G16G22G23G26G27G29G31G32       0.000003588
  23233941.147 5  -2380530.977 5  -1826578.11346  23233939.40846
  20207722.693 6  -1687683.844 6  -1305276.64548  20207718.34248
  20001412.334 6  -3155885.684 6  -2435717.91848  20001406.71748
  23205286.475 5  -1905037.457 5  -1468677.27746  23205279.91646
  23515830.061 5  -4842810.293 5  -3726381.41046  23515821.56146
  20179389.287 7  -2022598.961 7  -1563573.67248  20179387.63148
  21825466.584 6  -5222597.781 6  -4005124.60248  21825463.86148
  23350269.600 5   -912225.055 5   -701766.03546  23350266.56446
  21091290.022 7  -2345273.871 7  -1808852.47748  21091284.54948
  22363824.850 6   -500948.258 6   -389055.86347  22363823.60747
 18  5 30  0 34 19.9980000  0 10G03G14G16G22G23G26G27G29G31G32      -0.000009092
  23230769.381 5  -2397201.668 5  -1839568.27346  23230767.40446
  20205528.334 6  -1699215.855 6  -1314262.63748  20205524.05348
  19997200.326 6  -3178018.625 6  -2452964.36748  19997194.72148
  23202705.818 5  -1918596.719 5  -1479242.94146  23202699.75246
  23508855.607 5  -4879458.949 5  -3754938.78946  23508847.87346
  20176648.811 7  -2037001.465 7  -1574796.40649  20176646.99449
  21818356.514 6  -5259959.152 6  -4034237.35548  21818354.02248
  23349075.162 5   -918502.371 5   -706657.46146  23349072.59646
  21088062.240 7  -2362235.824 7  -1822069.59048  21088056.94748
  22363119.459 6   -504655.523 6   -391944.66447  22363118.69347
 18  5 30  0 34 24.9980000  0 10G03G14G16G22G23G26G27G29G31G32      -0.000021774
  23227597.678 5  -2413865.832 5  -1852553.33246  23227595.86946
  20203335.748 6  -1710738.480 6  -1323241.30148  20203331.15848
  19992990.693 6  -3200144.414 6  -2470205.24248  19992984.58448
  23200126.240 5  -1932154.016 5  -1489807.08246  23200119.66646
  23501881.803 5  -4916107.961 5  -3783496.44546  23501873.21746
  20173908.764 7  -2051401.586 7  -1586017.28149  20173906.63549
  21811246.756 6  -5297319.117 6  -4063349.02048  21811244.63148
  23347881.006 4   -924774.145 4   -711544.57446  23347879.38946
  21084834.404 7  -2379198.926 7  -1835287.59848  21084829.00648
  22362414.779 6   -508360.090 6   -394831.34447  22362413.70947
 18  5 30  0 34 29.9980000  0 10G03G14G16G22G23G26G27G29G31G32      -0.000034458
  23224428.053 5  -2430523.566 5  -1865533.39546  23224426.47946
  20201144.459 6  -1722251.738 6  -1332212.67248  20201139.93648
  19988781.295 6  -3222263.117 6  -2487440.59448  19988775.36548
  23197546.553 5  -1945709.496 5  -1500369.80546  23197540.56446
  23494907.537 5  -4952757.328 5  -3812054.41046  23494899.60746
  20171168.647 7  -2065799.289 7  -1597236.27348  20171166.94748
  21804137.811 6  -5334677.648 6  -4092459.56348  21804135.77548
  23346688.850 4   -931040.477 4   -716427.43046  23346687.06146
  21081606.615 7  -2396163.191 7  -1848506.50448  21081600.56848
  22361710.193 6   -512061.992 6   -397715.96148  22361708.91648
 18  5 30  0 34 34.9980000  0 10G03G14G16G22G23G26G27G29G31G32      -0.000047146
  23221259.232 5  -2447174.973 5  -1878508.53147  23221257.19747
  20198955.701 6  -1733755.785 6  -1341176.86748  20198950.81848
  19984573.303 6  -3244374.895 6  -2504670.55148  19984567.83848
  23194967.732 5  -1959263.273 5  -1510931.20346  23194961.73246
  23487932.459 5  -4989407.188 5  -3840612.72346  23487925.45146
  20168429.350 7  -2080194.750 7  -1608453.52748  20168427.27548
  21797029.037 6  -5372034.934 6  -4121569.12548  21797026.56448
  23345498.014 5   -937301.473 5   -721306.16046  23345495.39346
  21078377.779 7  -2413128.770 7  -1861726.44148  21078372.14748
  22361005.998 6   -515761.352 6   -400598.59447  22361004.89747
 18  5 30  0 34 39.9980000  0 10G03G14G16G22G23G26G27G29G31G32      -0.000059837
  23218091.545 4  -2463819.641 4  -1891478.39846  23218090.30746
  20196768.467 6  -1745250.188 6  -1350133.55548  20196763.47548
  19980367.232 6  -3266479.262 6  -2521894.73048  19980361.28748
  23192388.670 5  -1972814.887 5  -1521490.89546  23192382.79946
  23480958.576 5  -5026057.063 5  -3869171.05946  23480951.25246
  20165690.639 7  -2094587.531 7  -1619668.68448  20165688.47548
  21789920.764 6  -5409390.469 6  -4150677.32448  21789918.00648
  23344307.998 5   -943556.676 5   -726180.38346  23344304.71346
  21075149.084 7  -2430095.156 7  -1874947.00448  21075143.53348
  22360303.334 6   -519457.742 6   -403478.91047  22360301.74047
 18  5 30  0 34 44.9980000  0 10G03G14G16G22G23G26G27G29G31G32      -0.000072529
  23214925.631 4  -2480457.629 4  -1904443.07046  23214924.50246
  20194582.951 7  -1756734.988 7  -1359082.76248  20194578.08048
  19976162.490 6  -3288576.336 6  -2539113.23048  19976156.49048
  23189809.982 6  -1986364.430 6  -1532049.00846  23189804.12746
  23473984.264 5  -5062706.992 5  -3897729.44546  23473977.52546
  20162952.389 7  -2108977.711 7  -1630881.81649  20162950.18249
  21782812.607 6  -5446744.316 6  -4179784.21148  21782809.63548
  23343118.357 5   -949806.230 5   -731050.17246  23343115.65846
  21071920.256 7  -2447062.477 7  -1888168.30148  21071914.60748
  22359600.334 6   -523151.262 6   -406356.98847  22359598.83847
 18  5 30  0 34 49.9980000  0 10G03G14G16G22G23G26G27G29G31G32      -0.000085226
  23211760.857 4  -2497088.945 4  -1917402.53947  23211759.76447
  20192399.217 6  -1768210.242 6  -1368024.52348  20192394.74048
  19971958.662 6  -3310666.160 6  -2556326.08248  19971953.08048
  23187232.209 5  -1999912.012 5  -1542605.55946  23187226.34246
  23467009.990 5  -5099357.051 5  -3926287.94146  23467003.47946
  20160214.490 7  -2123365.387 7  -1642092.99649  20160212.39349
  21775704.928 6  -5484096.516 6  -4208889.82448  21775701.92848
  23341930.357 5   -956050.172 5   -735915.60946  23341927.26046
  21068691.326 7  -2464030.730 7  -1901390.32448  21068685.95548
  22358897.772 6   -526841.945 6   -409232.86347  22358897.35747
 18  5 30  0 34 54.9980000  0 10G03G14G16G22G23G26G27G29G31G32      -0.000097923
  23208596.826 4  -2513713.652 4  -1930356.87146  23208596.31146
  20190217.225 6  -1779675.883 6  -1376958.80548  20190212.51048
  19967756.467 6  -3332748.609 6  -2573533.19148  19967750.63948
  23184654.865 5  -2013457.461 5  -1553160.45346  23184648.27546
  23460035.772 5  -5136007.082 5  -3954846.41046  23460029.53746
  20157477.162 7  -2137750.410 7  -1653302.10249  20157475.04549
  21768596.842 6  -5521446.996 6  -4237994.08648  21768594.14348
  23340743.943 5   -962288.355 5   -740776.53146  23340739.74046
  21065462.365 7  -2480999.836 7  -1914613.01248  21065456.27548
  22358196.217 6   -530529.762 6   -412106.50847  22358195.24847
 18  5 30  0 34 59.9980000  0 10G03G14G16G22G23G26G27G29G31G32      -0.000110626
  23205434.756 4  -2530331.965 4  -1943306.20346  23205434.20946
  20188037.264 6  -1791132.262 6  -1385885.85248  20188032.38548
  19963555.998 6  -3354824.078 6  -2590734.85248  19963550.10048
  23182077.732 5  -2027001.184 5  -1563714.00447  23182071.56847
  23453061.857 5  -5172657.422 5  -3983405.10246  23453055.25646
  20154740.045 7  -2152133.164 7  -1664509.44549  20154737.76049
  21761489.834 6  -5558796.035 6  -4267097.22748  21761487.08448
  23339557.842 5   -968521.219 5   -745633.33246  23339553.79546
  21062232.912 7  -2497970.121 7  -1927836.62148  21062227.23248
  22357494.186 6   -534215.023 6   -414978.15647  22357494.08847
 18  5 30  0 35  4.9980000  0 10G03G14G16G22G23G26G27G29G31G32      -0.000123329
  23202274.022 5  -2546943.379 5  -1956250.15246  23202272.91246
  20185859.279 7  -1802578.762 7  -1394805.21148  20185854.38548
  19959356.389 7  -3376891.938 7  -2607930.58248  19959350.56148
  23179500.818 5  -2040542.570 5  -1574265.74246  23179494.86546
  23446087.006 5  -5209307.543 5  -4011963.66446  23446081.38146
  20152003.678 7  -2166513.039 7  -1675714.53949  20152001.70949
  21754382.826 6  -5596143.023 6  -4296198.77048  21754380.38948
  23338372.615 5   -974748.172 5   -750485.50046  23338368.76446
  21059003.115 7  -2514940.980 7  -1941060.66848  21058997.90048
  22356793.904 6   -537897.109 6   -417847.33247  22356793.06147
 18  5 30  0 35  9.9980000  0 10G03G14G16G22G23G26G27G29G31G32      -0.000136036
  23199113.686 5  -2563547.770 5  -1969188.64146  23199112.79146
  20183682.725 7  -1814015.391 7  -1403716.87548  20183677.93248
  19955158.350 6  -3398952.125 6  -2625120.34048  19955152.47148
  23176924.678 5  -2054081.598 5  -1584815.63346  23176918.36546
  23439113.334 5  -5245957.348 5  -4040521.93446  23439106.66646
  20149267.928 7  -2180890.023 7  -1686917.39549  20149266.03349
  21747276.326 6  -5633487.926 6  -4325298.69548  21747273.71348
  23337188.092 5   -980969.109 5   -755333.00446  23337184.49446
  21055773.920 7  -2531912.355 7  -1954285.12948  21055768.30748
  22356093.607 6   -541576.023 6   -420714.04747  22356092.76447
 18  5 30  0 35 14.9980000  0 10G03G14G16G22G23G26G27G29G31G32      -0.000148745
  23195954.834 5  -2580145.453 5  -1982121.91446  23195954.50246
  20181508.576 6  -1825442.371 6  -1412621.02048  20181503.82648
  19950961.826 6  -3421004.965 6  -2642304.37148  19950955.63948
  23174348.592 5  -2067618.453 5  -1595363.84047  23174342.22147
  23432138.592 5  -5282606.992 5  -4069080.09846  23432132.83846
  20146532.475 7  -2195264.348 7  -1698118.17249  20146531.18249
  21740170.217 6  -5670830.945 6  -4354397.13748  21740167.71348
  23336006.295 5   -987184.313 5   -760176.03546  23336001.48246
  21052544.084 7  -2548884.531 7  -1967510.20748  21052538.58848
  22355394.342 6   -545252.000 6   -423578.47347  22355393.37747
 18  5 30  0 35 19.9980000  0 10G03G14G16G22G23G26G27G29G31G32      -0.000161455
  23192798.107 4  -2596736.453 4  -1995049.97346  23192797.66646
  20179335.897 7  -1836859.719 7  -1421517.66048  20179331.01848
  19946766.600 6  -3443050.445 6  -2659482.66848  19946760.80748
  23171772.943 5  -2081153.277 5  -1605910.46146  23171766.61146
  23425164.201 5  -5319256.582 5  -4097638.21146  23425158.55346
  20143797.607 7  -2209636.043 7  -1709316.89549  20143795.97949
  21733064.264 6  -5708172.070 6  -4383494.12148  21733062.09648
  23334824.334 5   -993393.824 5   -765014.62146  23334820.19346
  21049314.389 7  -2565857.484 7  -1980735.87948  21049309.00248
  22354695.412 6   -548925.129 6   -426440.66047  22354694.49047
 18  5 30  0 35 24.9980000  0 10G03G14G16G22G23G26G27G29G31G32      -0.000174170
  23189642.936 5  -2613320.840 5  -2007972.87546  23189641.28746
  20177164.779 7  -1848267.551 7  -1430406.89148  20177160.21748
  19942573.248 7  -3465088.645 7  -2676655.28948  19942567.03748
  23169197.662 6  -2094686.070 6  -1616455.48847  23169191.58047
  23418190.576 5  -5355906.152 5  -4126196.31646  23418184.67046
  20141063.506 7  -2224005.211 7  -1720513.65649  20141061.70549
  21725958.772 6  -5745511.445 6  -4412589.72348  21725956.70948
  23333644.022 5   -999597.758 5   -769848.87146  23333639.43946
  21046084.076 7  -2582831.328 7  -1993962.25448  21046078.92048
  22353997.022 6   -552595.449 6   -429300.68047  22353995.67047
 18  5 30  0 35 29.9980000  0 10G03G14G16G22G23G26G27G29G31G32      -0.000186886
  23186488.100 5  -2629898.152 5  -2020890.27746  23186487.18646
  20174996.365 7  -1859665.367 7  -1439288.30948  20174991.31148
  19938380.272 6  -3487119.117 6  -2693821.88748  19938374.98248
  23166623.475 6  -2108216.445 6  -1626998.62946  23166616.63546
  23411216.279 5  -5392555.180 5  -4154754.00046  23411210.33846
  20138329.381 7  -2238371.406 7  -1731708.09449  20138327.64749
  21718853.607 6  -5782848.500 6  -4441683.53148  21718851.06848
  23332464.607 5  -1005795.648 5   -774678.39546  23332460.52246
  21042853.998 7  -2599805.594 7  -2007188.96548  21042849.06448
  22353299.522 6   -556262.496 6   -432158.13747  22353297.58047
 18  5 30  0 35 34.9980000  0 10G03G14G16G22G23G26G27G29G31G32      -0.000199606
  23183334.451 4  -2646468.953 4  -2033802.59446  23183333.32646
  20172828.959 7  -1871053.703 7  -1448162.34848  20172823.89348
  19934189.897 7  -3509142.402 7  -2710982.88348  19934184.34248
  23164048.889 6  -2121744.934 6  -1637540.33646  23164042.13146
  23404242.053 5  -5429204.301 5  -4183311.74246  23404236.81446
  20135596.139 7  -2252735.137 7  -1742900.60949  20135594.82249
  21711748.959 6  -5820183.813 6  -4470775.98848  21711746.97148
  23331286.123 5  -1011987.961 5   -779503.56346  23331282.16646
  21039623.639 7  -2616780.805 7  -2020416.40648  21039618.34248
  22352602.482 6   -559926.855 6   -435013.49247  22352600.07247
 18  5 30  0 35 39.9980000  0 10G03G14G16G22G23G26G27G29G31G32      -0.000212328
  23180182.092 4  -2663032.828 4  -2046709.51246  23180181.54146
  20170663.381 7  -1882432.215 7  -1457028.72348  20170658.89748
  19930000.076 6  -3531158.105 6  -2728137.97748  19929994.78748
  23161474.498 6  -2135271.164 6  -1648080.24646  23161468.02546
  23397267.779 5  -5465853.105 5  -4211869.26646  23397262.82246
  20132863.607 7  -2267096.074 7  -1754090.95749  20132861.99849
  21704645.131 6  -5857517.000 6  -4499866.78548  21704642.88548
  23330109.639 5  -1018174.434 5   -784324.21146  23330104.22946
  21036393.193 6  -2633756.566 6  -2033644.27348  21036388.45148
  22351904.779 4   -563588.063 4   -437866.40647  22351903.01447
 18  5 30  0 35 44.9980000  0 10G03G14G16G22G23G26G27G29G31G32      -0.000225052
  23177031.482 4  -2679589.715 4  -2059611.00846  23177031.07246
  20168500.467 7  -1893800.633 7  -1465887.24248  20168495.07248
  19925812.459 7  -3553166.027 7  -2745287.00848  19925806.85048
  23158901.482 6  -2148794.953 6  -1658618.27347  23158895.14747
  23390293.818 5  -5502501.230 5  -4240426.24646  23390288.65446
  20130131.256 7  -2281453.984 7  -1765278.93849  20130129.82649
  21697541.287 6  -5894847.750 6  -4528955.68048  21697539.03348
  23328933.201 5  -1024354.879 5   -789140.12546  23328928.04946
  21033162.482 7  -2650732.621 7  -2046872.36748  21033158.13148
  22351209.139 6   -567246.137 6   -440716.87147  22351206.75647
 18  5 30  0 35 49.9980000  0 10G03G14G16G22G23G26G27G29G31G32      -0.000237778
  23173882.686 4  -2696139.840 4  -2072507.21146  23173881.49046
  20166339.053 7  -1905159.410 7  -1474738.24248  20166334.29148
  19921626.084 6  -3575166.594 6  -2762430.31648  19921620.70948
  23156328.428 6  -2162316.813 6  -1669154.78546  23156321.67446
  23383319.857 5  -5539149.180 5  -4268983.07846  23383315.20146
  20127399.576 7  -2295809.332 7  -1776464.92649  20127398.34649
  21690437.428 6  -5932176.547 6  -4558043.05948  21690435.02248
  23327758.162 5  -1030529.691 5   -793951.68446  23327753.52946
  21029931.740 7  -2667709.414 7  -2060101.04348  21029927.18248
  22350513.990 6   -570901.254 6   -443565.03947  22350511.72147
 18  5 30  0 35 54.9980000  0 10G03G14G16G22G23G26G27G29G31G32      -0.000250507
  23170734.037 4  -2712683.199 4  -2085398.14146  23170733.56446
  20164179.264 7  -1916508.465 7  -1483581.67248  20164174.29148
  19917440.795 6  -3597159.668 6  -2779567.77748  19917435.01048
  23153755.272 6  -2175836.574 6  -1679689.66846  23153749.39346
  23376346.029 5  -5575796.844 5  -4297539.69546  23376340.84246
  20124668.209 7  -2310161.930 7  -1787648.77049  20124667.19749
  21683334.514 6  -5969503.246 6  -4587128.79748  21683332.53748
  23326584.029 5  -1036698.785 5   -798758.76246  23326579.14746
  21026701.709 7  -2684686.824 7  -2073330.19148  21026696.95948
  22349818.701 6   -574553.461 6   -446410.93047  22349816.66247
 18  5 30  0 35 59.9980000  0 10G03G14G16G22G23G26G27G29G31G32      -0.000263239
  23167587.584 5  -2729219.746 5  -2098283.77046  23167587.15846
  20162021.506 7  -1927847.699 7  -1492417.44148  20162016.63148
  19913257.068 6  -3619145.199 6  -2796699.35948  19913251.31448
  23151182.842 6  -2189354.023 6  -1690222.75446  23151176.59246
  23369372.193 5  -5612444.098 5  -4326096.00847  23369367.10047
  20121937.475 7  -2324511.758 7  -1798830.44949  20121936.30349
  21676232.201 6  -6006827.738 6  -4616212.81348  21676229.58048
  23325411.053 5  -1042862.039 5   -803561.30546  23325405.98246
  21023470.748 7  -2701664.730 7  -2086559.73048  21023465.89348
  22349124.272 6   -578202.578 6   -449254.43847  22349121.85047
 18  5 30  0 36  4.9980000  0 10G03G14G16G22G23G26G27G29G31G32      -0.000275974
  23164441.842 5  -2745749.523 5  -2111164.10546  23164441.49846
  20159865.467 6  -1939177.137 6  -1501245.57448  20159860.93948
  19909074.545 6  -3641123.277 6  -2813825.13748  19909069.33048
  23148611.186 6  -2202869.352 6  -1700754.19146  23148604.95146
  23362398.764 5  -5649091.031 5  -4354652.04746  23362393.67846
  20119207.568 7  -2338858.902 7  -1810010.05549  20119206.09249
  21669129.982 6  -6044150.063 6  -4645295.13348  21669127.97948
  23324239.787 5  -1049019.570 5   -808359.40246  23324234.79146
  21020240.139 7  -2718643.258 7  -2099789.74248  21020235.23648
  22348430.701 6   -581848.777 6   -452095.65247  22348428.33047
 18  5 30  0 36  9.9980000  0 10G03G14G16G22G23G26G27G29G31G32      -0.000288710
  23161297.686 5  -2762272.434 5  -2124039.10947  23161296.79947
  20157711.506 7  -1950496.762 7  -1510066.07048  20157706.77548
  19904893.928 6  -3663093.781 6  -2830945.01248  19904888.16248
  23146039.498 6  -2216382.453 6  -1711283.87946  23146033.10746
  23355425.639 5  -5685737.441 5  -4383207.69546  23355420.06146
  20116477.295 7  -2353203.262 7  -1821187.48049  20116476.41249
  21662028.061 6  -6081470.145 6  -4674375.71148  21662025.96348
  23323069.373 5  -1055171.258 5   -813152.93046  23323064.32246
  21017008.732 7  -2735622.297 7  -2113020.16848  21017004.60048
  22347736.928 6   -585491.930 6   -454934.49647  22347735.30747
 18  5 30  0 36 14.9980000  0 10G03G14G16G22G23G26G27G29G31G32      -0.000301449
  23158155.342 5  -2778788.438 5  -2136908.74647  23158154.60447
  20155559.482 7  -1961806.484 7  -1518878.84448  20155554.45548
  19900714.287 6  -3685056.680 6  -2848058.94948  19900708.92048
  23143468.701 6  -2229893.234 6  -1721811.77046  23143462.27246
  23348451.428 5  -5722383.332 5  -4411762.93446  23348446.38146
  20113748.600 7  -2367544.766 7  -1832362.68449  20113747.21349
  21654926.725 6  -6118787.871 6  -4703454.46548  21654924.79948
  23321899.834 5  -1061317.078 5   -817941.91046  23321894.84246
  21013777.584 7  -2752601.723 7  -2126250.88748  21013773.45548
  22347044.443 6   -589132.016 6   -457770.94947  22347042.22947
 18  5 30  0 36 19.9980000  0 10G03G14G16G22G23G26G27G29G31G32      -0.000314192
  23155013.889 5  -2795297.711 5  -2149773.12147  23155012.45947
  20153408.764 6  -1973106.453 6  -1527684.02748  20153404.26448
  19896536.115 6  -3707012.148 6  -2865167.10548  19896530.89748
  23140898.357 6  -2243401.953 6  -1732338.04746  23140891.20946
  23341478.123 5  -5759028.855 5  -4440317.88346  23341473.72546
  20111020.170 7  -2381883.633 7  -1843535.82849  20111018.32649
  21647825.717 6  -6156103.441 6  -4732531.52748  21647823.95948
  23320731.279 5  -1067457.176 5   -822726.39846  23320726.51446
  21010546.584 7  -2769581.746 7  -2139482.08248  21010541.79548
  22346352.264 6   -592769.191 6   -460605.13747  22346350.23247
 18  5 30  0 36 24.9980000  0 10G03G14G16G22G23G26G27G29G31G32      -0.000326935
  23151873.115 5  -2811800.199 5  -2162632.19147  23151872.35047
  20151260.342 6  -1984396.664 6  -1536481.60248  20151255.92848
  19892359.850 6  -3728960.055 6  -2882269.37148  19892354.10048
  23138327.576 6  -2256908.531 6  -1742862.66046  23138321.12746
  23334504.725 5  -5795673.875 5  -4468872.43446  23334499.91646
  20108291.850 7  -2396219.754 7  -1854706.82449  20108290.20949
  21640725.279 6  -6193416.715 6  -4761606.79748  21640723.16648
  23319563.779 5  -1073591.539 5   -827506.44946  23319559.47146
  21007315.389 7  -2786562.293 7  -2152713.67648  21007310.91248
  22345660.842 6   -596403.359 6   -463436.98447  22345659.14747
 18  5 30  0 36 29.9980000  0 10G03G14G16G22G23G26G27G29G31G32      -0.000339682
  23148734.256 5  -2828295.949 5  -2175486.03547  23148733.50647
  20149114.162 6  -1995677.172 6  -1545271.61748  20149109.26048
  19888184.404 6  -3750900.547 6  -2899365.86748  19888178.93648
  23135758.248 6  -2270413.047 6  -1753385.67246  23135751.74446
  23327532.037 5  -5832318.504 5  -4497426.66846  23327526.68646
  20105564.607 7  -2410553.234 7  -1865875.78149  20105562.78349
  21633624.928 6  -6230727.781 6  -4790680.36348  21633623.29548
  23318397.615 5  -1079720.277 5   -832282.09046  23318393.04546
  21004083.772 7  -2803543.398 7  -2165945.70348  21004079.59248
  22344970.225 6   -600034.680 6   -466266.61347  22344968.51447
 18  5 30  0 36 34.9980000  0 10G03G14G16G22G23G26G27G29G31G32      -0.000352432
  23145596.576 5  -2844784.715 5  -2188334.42247  23145595.56147
  20146968.842 7  -2006947.684 7  -1554053.84048  20146964.51448
  19884010.912 7  -3772833.340 7  -2916456.35548  19884005.11148
  23133188.920 6  -2283915.258 6  -1763906.87146  23133182.18946
  23320558.334 5  -5868962.457 5  -4525980.41446  23320553.52246
  20102837.256 7  -2424883.801 7  -1877042.45749  20102835.52549
  21626525.420 6  -6268036.367 6  -4819751.98848  21626524.18248
  23317232.350 5  -1085843.141 5   -837053.16846  23317227.92846
  21000852.545 7  -2820524.727 7  -2179177.91048  21000847.86948
  22344279.990 6   -603662.828 6   -469093.77047  22344278.10747
 18  5 30  0 36 39.9980000  0 10G03G14G16G22G23G26G27G29G31G32      -0.000365183
  23142460.553 5  -2861266.328 5  -2201177.25847  23142459.25647
  20144826.451 7  -2018208.043 7  -1562828.15648  20144821.79548
  19879838.865 6  -3794758.301 6  -2933540.74648  19879833.18648
  23130620.045 6  -2297414.973 6  -1774426.13746  23130612.84646
  23313586.201 5  -5905605.500 5  -4554533.44546  23313580.55746
  20100111.022 7  -2439211.305 7  -1888206.74249  20100109.15849
  21619426.693 6  -6305342.215 6  -4848821.46548  21619424.83848
  23316068.139 6  -1091959.879 6   -841819.47746  23316064.04946
  20997620.693 7  -2837506.215 7  -2192410.24248  20997616.39348
  22343590.272 6   -607287.668 6   -471918.33647  22343588.30347
 18  5 30  0 36 44.9980000  0 10G03G14G16G22G23G26G27G29G31G32      -0.000377937
  23139325.092 5  -2877741.141 5  -2214014.77347  23139324.33447
  20142685.475 6  -2029458.578 6  -1571594.80948  20142681.01848
  19875667.982 6  -3816675.746 6  -2950619.28548  19875662.49048
  23128051.342 6  -2310912.547 6  -1784943.73046  23128044.54146
  23306612.936 5  -5942248.027 5  -4583086.06646  23306607.25246
  20097385.029 7  -2453536.063 7  -1899368.90649  20097383.38149
  21612327.803 6  -6342645.730 6  -4877889.14148  21612326.31448
  23314905.506 6  -1098070.836 6   -846581.28146  23314901.50246
  20994389.498 7  -2854488.109 7  -2205642.90248  20994384.80748
  22342900.100 6   -610909.559 6   -474740.61347  22342899.32247
 18  5 30  0 36 49.9980000  0 10G03G14G16G22G23G26G27G29G31G32      -0.000390694
  23136192.045 5  -2894209.063 5  -2226846.93846  23136190.65046
  20140546.584 6  -2040699.234 6  -1580353.77048  20140541.75248
  19871498.740 6  -3838585.543 6  -2967691.85248  19871493.43648
  23125483.568 6  -2324407.895 6  -1795459.59046  23125476.45546
  23299640.326 5  -5978889.879 5  -4611638.17646  23299634.75646
  20094659.779 7  -2467857.996 7  -1910528.85549  20094657.96349
  21605229.662 6  -6379946.738 6  -4906954.86348  21605228.19748
  23313743.139 6  -1104175.926 6   -851338.49646  23313739.81846
  20991157.779 6  -2871470.340 6  -2218875.80548  20991153.01048
  22342212.318 6   -614528.352 6   -477560.47747  22342210.92047
 18  5 30  0 36 54.9980000  0 10G03G14G16G22G23G26G27G29G31G32      -0.000403452
  23133058.232 5  -2910670.039 5  -2239673.67646  23133058.24446
  20138409.607 6  -2051929.875 6  -1589104.92648  20138404.80348
  19867331.420 6  -3860487.688 6  -2984758.45748  19867325.54148
  23122916.131 6  -2337900.945 6  -1805973.65246  23122908.84646
  23292667.850 5  -6015530.898 5  -4640189.61746  23292662.24446
  20091934.693 7  -2482177.027 7  -1921686.54748  20091933.01848
  21598132.397 6  -6417245.180 6  -4936018.59048  21598130.80748
  23312582.842 5  -1110275.102 5   -856091.11746  23312579.76846
  20987925.951 6  -2888452.887 6  -2232108.96548  20987921.05348
  22341524.287 6   -618144.031 6   -480377.89847  22341522.94347
 18  5 30  0 36 59.9980000  0 10G03G14G16G22G23G26G27G29G31G32      -0.000416212
  23129928.318 5  -2927123.703 5  -2252494.71146  23129927.36946
  20136274.623 7  -2063150.266 7  -1597848.10248  20136269.92048
  19863164.725 6  -3882381.852 6  -3001818.84848  19863159.12748
  23120348.826 6  -2351391.355 6  -1816485.67646  23120341.89746
  23285695.318 5  -6052170.848 5  -4668740.22346  23285689.95146
  20089210.654 7  -2496492.887 7  -1932841.76648  20089208.63148
  21591035.045 6  -6454540.707 6  -4965080.03548  21591033.45948
  23311423.506 5  -1116368.078 5   -860838.91446  23311420.65846
  20984694.545 6  -2905435.430 6  -2245342.12148  20984689.50648
  22340837.303 6   -621756.293 6   -483192.67647  22340835.11947
 18  5 30  0 37  4.9980000  0 10G03G14G16G22G23G26G27G29G31G32      -0.000428976
  23126798.443 5  -2943571.148 5  -2265310.90246  23126798.07646
  20134140.787 6  -2074361.387 6  -1606584.03948  20134136.45948
  19858999.342 6  -3904269.016 6  -3018873.77748  19858994.21348
  23117781.553 6  -2364880.215 6  -1826996.47746  23117774.98246
  23278722.756 5  -6088810.754 5  -4697290.77746  23278717.11946
  20086487.022 7  -2510806.551 7  -1943995.27749  20086484.90049
  21583938.147 6  -6491834.328 6  -4994139.99648  21583937.13548
  23310265.287 5  -1122455.867 5   -865582.64146  23310262.11946
  20981462.693 7  -2922418.969 7  -2258576.04348  20981457.55748
  22340150.014 6   -625366.125 6   -486005.55147  22340148.45547
 18  5 30  0 37  9.9980000  0 10G03G14G16G22G23G26G27G29G31G32      -0.000441742
  23123668.865 4  -2960011.785 4  -2278121.78946  23123669.57646
  20132009.459 7  -2085562.613 7  -1615312.27748  20132004.76448
  19854836.193 6  -3926148.590 6  -3035922.80548  19854830.56448
  23115215.662 6  -2378366.859 6  -1837505.54747  23115208.99047
  23271750.732 5  -6125449.930 5  -4725840.79346  23271745.26446
  20083763.428 7  -2525117.434 7  -1955146.61348  20083761.59248
  21576842.365 6  -6529125.383 6  -5023197.95748  21576840.92848
  23309107.545 5  -1128537.852 5   -870321.85946  23309104.65046
  20978230.826 6  -2939402.852 6  -2271810.24248  20978225.74048
  22339463.326 6   -628972.957 6   -488816.09047  22339462.13547
 18  5 30  0 37 14.9980000  0 10G03G14G16G22G23G26G27G29G31G32      -0.000454510
  23120542.311 4  -2976445.477 4  -2290927.26646  23120541.92846
  20129879.951 7  -2096753.895 7  -1624032.76648  20129874.90048
  19850674.045 6  -3948020.531 6  -3052965.87548  19850668.17048
  23112649.514 6  -2391851.316 6  -1848012.93047  23112642.65447
  23264779.217 5  -6162088.320 5  -4754390.18446  23264772.87346
  20081040.975 7  -2539425.461 7  -1966295.72748  20081039.00248
  21569746.381 6  -6566413.875 6  -5052253.91848  21569745.41648
  23307950.686 5  -1134614.047 5   -875056.56646  23307948.69746
  20974998.834 6  -2956387.078 6  -2285044.71548  20974993.45548
  22338777.178 6   -632576.727 6   -491624.23847  22338776.06147
 18  5 30  0 37 19.9980000  0 10G03G14G16G22G23G26G27G29G31G32      -0.000467281
  23117416.842 4  -2992871.941 4  -2303727.08646  23117415.90046
  20127752.225 7  -2107934.902 7  -1632745.25048  20127747.40848
  19846513.303 6  -3969884.453 6  -3070002.69948  19846507.83848
  23110083.584 6  -2405333.230 6  -1858518.30546  23110077.63546
  23257806.889 5  -6198725.500 5  -4782938.62546  23257800.62746
  20078318.678 7  -2553730.332 7  -1977442.39148  20078317.09648
  21562650.834 6  -6603699.375 6  -5081307.54748  21562650.00248
  23306795.951 5  -1140684.027 5   -879786.42246  23306793.63146
  20971766.717 7  -2973371.207 7  -2298279.10248  20971761.56848
  22338092.264 6   -636177.070 6   -494429.72347  22338090.90847
 18  5 30  0 37 24.9980000  0 10G03G14G16G22G23G26G27G29G31G32      -0.000480053
  23114291.779 4  -3009291.453 4  -2316521.52046  23114291.29546
  20125626.037 7  -2119105.938 7  -1641449.95748  20125621.49048
  19842354.279 6  -3991740.672 6  -3087033.52348  19842348.87348
  23107518.475 6  -2418812.867 6  -1869021.93047  23107512.26847
  23250835.295 5  -6235361.836 5  -4811486.41846  23250829.11546
  20075596.959 7  -2568032.328 7  -1988586.80948  20075594.88948
  21555556.186 6  -6640982.137 6  -5110359.03948  21555555.05748
  23305641.272 5  -1146748.113 5   -884511.68846  23305639.68646
  20968534.818 7  -2990355.559 7  -2311513.66848  20968529.85448
  22337408.092 6   -639774.313 6   -497232.77347  22337406.50247
 18  5 30  0 37 29.9980000  0 10G03G14G16G22G23G26G27G29G31G32      -0.000492828
  23111168.092 3  -3025704.188 3  -2329310.68446  23111168.11146
  20123502.428 7  -2130267.164 7  -1650147.01248  20123497.43648
  19838196.725 6  -4013589.387 6  -3104058.50448  19838190.96348
  23104954.498 6  -2432290.418 6  -1879523.91447  23104947.92847
  23243864.006 5  -6271997.480 5  -4840033.68046  23243857.48646
  20072876.248 7  -2582331.586 7  -1999729.09048  20072874.38548
  21548462.428 6  -6678262.363 6  -5139408.56648  21548460.76848
  23304488.904 5  -1152806.453 5   -889232.48846  23304486.59646
  20965302.623 7  -3007340.246 7  -2324748.50048  20965297.77248
  22336723.795 6   -643368.656 6   -500033.59047  22336722.61147
 18  5 30  0 37 34.9970000  0 10G03G14G16G22G23G26G27G29G31G32       0.000494396
  23108047.149 3  -3042106.523 3  -2342091.71946  23108047.04046
  20121380.728 7  -2141416.020 7  -1658834.43448  20121376.13848
  19834041.470 6  -4035425.875 6  -3121073.95348  19834035.50148
  23102390.587 6  -2445762.887 6  -1890021.95347  23102384.23547
  23236893.814 5  -6308624.766 5  -4868574.41846  23236887.30646
  20070156.110 7  -2596625.000 7  -2010866.81648  20070154.46248
  21541369.337 6  -6715532.285 6  -5168450.06348  21541368.57948
  23303337.532 5  -1158857.625 5   -893947.69946  23303335.09946
  20962071.548 7  -3024321.547 7  -2337980.69548  20962066.03648
  22336040.509 6   -646959.016 6   -502831.29747  22336039.36847
 18  5 30  0 37 39.9970000  0 10G03G14G16G22G23G26G27G29G31G32       0.000481617
  23104926.282 3  -3058505.316 3  -2354870.03146  23104926.44646
  20119260.306 6  -2152557.160 6  -1667515.85248  20119255.73148
  19829886.548 6  -4057259.105 6  -3138086.85548  19829880.93548
  23099826.657 6  -2459235.828 6  -1900520.35247  23099820.34147
  23229922.853 5  -6345258.516 5  -4897120.20346  23229916.15746
  20067436.017 7  -2610918.449 7  -2022004.57448  20067434.75948
  21534276.587 6  -6752806.930 6  -5197495.23048  21534275.29448
  23302186.837 5  -1164904.215 5   -898659.32846  23302184.76746
  20958838.946 7  -3041306.516 7  -2351215.74648  20958833.86848
  22335357.462 6   -650547.078 6   -505627.20747  22335356.27847
 18  5 30  0 37 44.9970000  0 10G03G14G16G22G23G26G27G29G31G32       0.000468834
  23101806.353 2  -3074897.363 2  -2367643.03146  23101807.17746
  20117142.470 6  -2163688.508 6  -1676189.63348  20117137.63048
  19825733.478 6  -4079084.813 6  -3155093.90648  19825727.33748
  23097263.071 6  -2472706.723 6  -1911017.14547  23097256.82947
  23222951.751 5  -6381891.520 5  -4925665.39846  23222945.29446
  20064716.509 7  -2625209.223 7  -2033140.24248  20064715.04048
  21527183.806 6  -6790078.980 6  -5226538.39148  21527182.41548
  23301037.321 5  -1170945.129 5   -903366.53546  23301035.16146
  20955606.728 7  -3058291.820 7  -2364451.05548  20955601.32948
  22334676.024 6   -654132.266 6   -508420.88347  22334674.06447
 18  5 30  0 37 49.9970000  0 10G03G14G16G22G23G26G27G29G31G32       0.000456049
  23098687.868 1  -3091282.262 1  -2380410.51646  23098689.45046
  20115025.954 6  -2174809.672 6  -1684855.48048  20115021.45448
  19821581.399 6  -4100902.590 6  -3172094.77748  19821575.64648
  23094700.681 6  -2486175.156 6  -1921512.03147  23094693.90747
  23215980.743 5  -6418523.352 5  -4954209.66846  23215974.34546
  20061997.798 7  -2639496.914 7  -2044273.51248  20061995.85648
  21520091.939 6  -6827347.984 6  -5255579.16448  21520090.45448
  23299888.595 5  -1176979.934 5   -908068.97746  23299886.36846
  20952374.649 7  -3075277.066 7  -2377686.32048  20952369.62248
  22333994.142 6   -657714.148 6   -511211.97747  22333992.37647
 18  5 30  0 37 54.9970000  0 10G03G14G16G22G23G26G27G29G31G32       0.000443262
  23095570.993 1  -3107660.469 1  -2393172.73446  23095572.46646
  20112911.392 6  -2185921.047 6  -1693513.69548  20112907.22448
  19817431.337 6  -4122712.938 6  -3189089.85548  19817425.94248
  23092137.603 6  -2499641.605 6  -1932005.36347  23092131.08347
  23209010.196 5  -6455154.457 5  -4982753.39846  23209003.84546
  20059279.587 7  -2653781.953 7  -2055404.71948  20059277.30248
  21513000.610 6  -6864614.418 6  -5284617.95348  21512998.89648
  23298741.970 5  -1183009.202 5   -912767.10146  23298738.90346
  20949142.626 7  -3092262.695 7  -2390921.87948  20949137.56748
  22333312.923 6   -661293.188 6   -514000.84047  22333311.43547
 18  5 30  0 37 59.9970000  0 10G03G14G16G22G23G26G27G29G31G32       0.000430473
  23092456.454 1  -3124031.559 1  -2405929.45346  23092457.49346
  20110799.360 6  -2197022.297 6  -1702164.03148  20110795.01748
  19813282.251 6  -4144515.422 6  -3206078.80548  19813276.92348
  23089575.376 6  -2513105.672 6  -1942496.84847  23089568.94647
  23202040.524 5  -6491784.422 5  -5011296.22346  23202033.45046
  20056561.728 7  -2668064.031 7  -2066533.61348  20056559.75148
  21505909.485 6  -6901877.859 6  -5313654.39848  21505908.26348
  23297594.681 5  -1189032.402 5   -917460.52046  23297593.02146
  20945910.009 7  -3109248.313 7  -2404157.43448  20945905.45048
  22332632.337 6   -664869.016 6   -516787.20347  22332630.85647
 18  5 30  0 38  4.9970000  0 10G03G14G16G22G23G26G27G29G31G32       0.000417683
  23089343.149 1  -3140395.648 1  -2418680.69546  23089343.84546
  20108688.220 6  -2208113.430 6  -1710806.46948  20108684.08748
  19809134.939 6  -4166310.102 6  -3223061.67248  19809129.53648
  23087013.993 6  -2526567.363 6  -1952986.47747  23087006.94647
  23195069.626 5  -6528413.223 5  -5039838.15246  23195063.06746
  20053844.657 7  -2682343.070 7  -2077660.13348  20053842.52148
  21498819.228 6  -6939138.277 6  -5342688.48448  21498817.56748
  23296450.024 5  -1195049.676 5   -922149.28546  23296447.53646
  20942678.095 7  -3126233.887 7  -2417392.95348  20942672.83748
  22331953.110 6   -668441.629 6   -519571.07847  22331951.14947
 18  5 30  0 38  9.9970000  0 10G03G14G16G22G23G26G27G29G31G32       0.000404888
  23086229.587 2  -3156752.609 2  -2431426.39846  23086230.92746
  20106579.353 6  -2219194.340 6  -1719440.95348  20106575.11848
  19804988.845 6  -4188096.859 6  -3240038.37148  19804983.95048
  23084452.439 6  -2540026.656 6  -1963474.24247  23084445.67747
  23188099.907 5  -6565040.738 5  -5068379.06346  23188093.57146
  20051127.962 7  -2696619.086 7  -2088784.31348  20051126.01748
  21491729.485 6  -6976395.629 6  -5371720.18848  21491727.65748
  23295305.907 5  -1201060.922 5   -926833.40646  23295303.92346
  20939446.204 6  -3143219.414 6  -2430628.43848  20939440.88448
  22331273.407 6   -672010.992 6   -522352.40647  22331272.23147
 18  5 30  0 38 14.9970000  0 10G03G14G16G22G23G26G27G29G31G32       0.000392094
  23083118.243 1  -3173102.434 1  -2444166.55545  23083120.18545
  20104472.931 6  -2230265.102 6  -1728067.52048  20104468.56448
  19800844.876 6  -4209875.715 6  -3257008.91048  19800839.76748
  23081892.024 6  -2553483.543 6  -1973960.12947  23081885.06047
  23181130.595 5  -6601667.027 5  -5096919.03546  23181123.62646
  20048411.962 7  -2710892.047 7  -2099906.11348  20048409.95048
  21484640.001 6  -7013649.898 6  -5400749.48448  21484638.25948
  23294163.634 4  -1207066.156 4   -931512.81646  23294160.78646
  20936213.618 6  -3160204.820 6  -2443863.82848  20936208.48948
  22330595.157 6   -675577.121 6   -525131.23448  22330593.97448
 18  5 30  0 38 19.9970000  0 10G03G14G16G22G23G26G27G29G31G32       0.000379295
  23080007.579 1  -3189444.957 1  -2456900.96945  23080010.30645
  20102368.267 6  -2241325.453 6  -1736685.98848  20102363.63448
  19796701.985 6  -4231646.477 6  -3273973.14548  19796696.44248
  23079331.501 6  -2566937.813 6  -1984443.97747  23079324.77147
  23174160.524 5  -6638291.848 5  -5125457.84446  23174153.77446
  20045696.704 7  -2725161.789 7  -2111025.41448  20045695.02448
  21477551.314 6  -7050900.855 6  -5429776.20348  21477549.84948
  23293022.314 5  -1213065.219 5   -936187.41846  23293019.76346
  20932981.415 6  -3177189.941 6  -2457098.99248  20932976.37648
  22329917.290 6   -679139.820 6   -527907.37948  22329916.40748
 18  5 30  0 38 24.9970000  0 10G03G14G16G22G23G26G27G29G31G32       0.000366495
  23076900.415 1  -3205780.453 1  -2469629.99245  23076901.46645
  20100265.868 6  -2252375.684 6  -1745296.55948  20100261.07948
  19792560.532 6  -4253409.422 6  -3290931.29348  19792555.07148
  23076771.392 6  -2580389.777 6  -1994926.02347  23076765.61447
  23167191.892 5  -6674915.461 5  -5153995.73046  23167184.60646
  20042981.790 7  -2739428.555 7  -2122142.38748  20042979.93948
  21470463.634 6  -7088148.719 6  -5458800.50048  21470461.55648
  23291881.462 5  -1219058.309 5   -940857.37946  23291879.20446
  20929749.392 6  -3194175.023 6  -2470334.11748  20929744.01748
  22329239.446 6   -682699.363 6   -530681.05948  22329238.84948
 18  5 30  0 38 29.9970000  0 10G03G14G16G22G23G26G27G29G31G32       0.000353693
  23073793.196 2  -3222108.891 2  -2482353.41045  23073793.63845
  20098164.399 6  -2263415.734 6  -1753899.20348  20098159.97848
  19788420.915 6  -4275164.508 6  -3307883.30948  19788415.32548
  23074212.095 6  -2593839.355 6  -2005406.21547  23074206.18147
  23160223.103 5  -6711537.727 5  -5182532.56346  23160215.31046
  20040267.439 7  -2753692.285 7  -2133256.98449  20040265.77849
  21463375.978 6  -7125393.445 6  -5487822.37548  21463373.92348
  23290742.821 5  -1225045.418 5   -945522.66446  23290739.86846
  20926517.048 6  -3211159.965 6  -2483569.12948  20926512.43548
  22328562.915 6   -686255.660 6   -533452.21147  22328562.24747
 18  5 30  0 38 34.9970000  0 10G03G14G16G22G23G26G27G29G31G32       0.000340889
  23070687.353 2  -3238430.125 2  -2495071.23845  23070688.18545
  20096065.868 6  -2274445.434 6  -1762493.77748  20096061.08348
  19784282.485 6  -4296911.570 6  -3324829.07048  19784276.77848
  23071653.837 6  -2607286.465 6  -2015884.48847  23071647.21647
  23153254.024 5  -6748158.656 5  -5211068.34046  23153246.74746
  20037553.759 7  -2767952.848 7  -2144369.11749  20037551.91549
  21456289.071 6  -7162634.871 6  -5516841.65648  21456286.52448
  23289604.056 5  -1231026.430 5   -950183.21546  23289601.61046
  20923284.774 6  -3228144.711 6  -2496804.00448  20923280.31748
  22327887.306 6   -689808.629 6   -536220.78148  22327886.00548
 18  5 30  0 38 39.9970000  0 10G03G14G16G22G23G26G27G29G31G32       0.000328083
  23067581.954 2  -3254744.379 2  -2507783.68046  23067583.84546
  20093968.704 6  -2285465.113 6  -1771080.55148  20093964.13848
  19780145.423 6  -4318650.867 6  -3341768.78548  19780140.04448
  23069095.032 6  -2620731.336 6  -2026361.02047  23069089.18947
  23146285.564 5  -6784778.324 5  -5239603.14546  23146278.04446
  20034840.556 7  -2782210.547 7  -2155479.00449  20034839.30249
  21449203.040 6  -7199873.219 6  -5545858.55548  21449200.65348
  23288467.532 5  -1237001.621 5   -954839.23046  23288464.16946
  20920052.939 6  -3245129.395 6  -2510038.81348  20920047.97848
  22327211.759 6   -693358.531 6   -538986.94948  22327210.34548
 18  5 30  0 38 44.9970000  0 10G03G14G16G22G23G26G27G29G31G32       0.000315273
  23064479.587 2  -3271051.488 2  -2520490.50445  23064480.36445
  20091874.079 6  -2296474.461 6  -1779659.26248  20091869.57948
  19776010.282 6  -4340382.109 6  -3358702.22748  19776004.45848
  23066537.321 6  -2634173.695 6  -2036835.59447  23066530.73547
  23139317.610 5  -6821396.488 5  -5268136.78146  23139310.13046
  20032128.040 7  -2796465.055 7  -2166586.41449  20032126.79049
  21442117.282 6  -7237108.246 6  -5574872.85548  21442115.27148
  23287331.712 5  -1242970.633 5   -959490.39146  23287328.07146
  20916821.040 6  -3262113.754 6  -2523273.37948  20916816.53248
  22326536.610 6   -696905.051 6   -541750.48048  22326535.40748
 18  5 30  0 38 49.9970000  0 10G03G14G16G22G23G26G27G29G31G32       0.000302464
  23061377.860 2  -3287351.703 2  -2533191.97745  23061378.76745
  20089780.931 6  -2307473.914 6  -1788230.27048  20089776.24348
  19771876.681 6  -4362105.785 6  -3375629.76248  19771870.66948
  23063979.329 6  -2647613.980 6  -2047308.54747  23063973.38047
  23132349.485 6  -6858013.605 6  -5296669.58646  23132341.61446
  20029415.899 7  -2810716.832 7  -2177691.69949  20029414.54049
  21435032.399 6  -7274340.297 6  -5603884.84448  21435030.08748
  23286197.353 5  -1248933.973 5   -964137.15646  23286193.36446
  20913588.821 6  -3279098.270 6  -2536508.06348  20913584.16548
  22325862.798 6   -700448.656 6   -544511.75047  22325861.52147
 18  5 30  0 38 54.9970000  0 10G03G14G16G22G23G26G27G29G31G32       0.000289650
  23058277.056 2  -3303644.855 2  -2545887.94945  23058278.50945
  20087689.462 6  -2318463.137 6  -1796793.30948  20087684.91948
  19767743.720 6  -4383821.531 6  -3392551.13348  19767738.38048
  23061422.407 5  -2661051.855 5  -2057779.61347  23061416.00147
  23125381.564 6  -6894629.324 6  -5325201.30947  23125374.45847
  20026704.564 7  -2824965.578 7  -2188794.61349  20026703.64949
  21427947.431 6  -7311569.063 6  -5632894.26648  21427945.84548
  23285063.103 5  -1254891.379 5   -968779.33646  23285059.11046
  20910356.821 6  -3296082.539 6  -2549742.55548  20910351.91548
  22325188.642 6   -703989.023 6   -547270.49248  22325187.66548
 18  5 30  0 38 59.9970000  0 10G03G14G16G22G23G26G27G29G31G32       0.000276836
  23055177.946 3  -3319930.934 3  -2558578.41846  23055179.14646
  20085600.103 6  -2329442.145 6  -1805348.37948  20085595.86048
  19763613.259 6  -4405529.313 6  -3409466.28148  19763607.60348
  23058865.056 6  -2674487.367 6  -2068248.85947  23058859.23547
  23118413.868 6  -6931243.617 6  -5353731.92246  23118406.73546
  20023993.665 7  -2839211.254 7  -2199895.14549  20023992.87649
  21420863.845 6  -7348794.516 6  -5661901.10248  21420861.99748
  23283930.759 5  -1260842.734 5   -973416.73046  23283926.62246
  20907124.712 6  -3313066.617 6  -2562976.89548  20907119.70848
  22324515.431 6   -707526.160 6   -550026.71547  22324514.59147
 18  5 30  0 39  4.9970000  0 10G03G14G16G22G23G26G27G29G31G32       0.000264019
  23052079.329 2  -3336210.102 2  -2571263.48845  23052080.70845
  20083512.978 6  -2340411.145 6  -1813895.65648  20083508.47448
  19759483.571 6  -4427229.453 6  -3426375.48448  19759478.20848
  23056308.759 6  -2687920.738 6  -2078716.43847  23056303.06447
  23111446.142 6  -6967856.765 6  -5382261.64946  23111439.41546
  20021283.439 7  -2853454.148 7  -2210993.50849  20021282.28649
  21413780.876 6  -7386016.898 6  -5690905.55148  21413778.57548
  23282799.009 5  -1266788.398 5   -978049.71946  23282794.48546
  20903893.376 6  -3330050.723 6  -2576211.27048  20903888.32148
  22323843.017 6   -711060.336 6   -552780.63347  22323841.56047
 18  5 30  0 39  9.9970000  0 10G03G14G16G22G23G26G27G29G31G32       0.000251198
  23048983.259 2  -3352482.324 2  -2583943.16445  23048984.69245
  20081427.501 6  -2351370.059 6  -1822435.08248  20081423.16548
  19755355.407 6  -4448921.758 6  -3443278.58248  19755350.09948
  23053753.407 5  -2701351.902 5  -2089182.28947  23053747.21647
  23104479.196 5  -7004468.465 5  -5410790.23446  23104472.35646
  20018573.665 7  -2867694.109 7  -2222089.58249  20018572.62249
  21406697.767 6  -7423236.027 6  -5719907.47348  21406696.09948
  23281669.110 5  -1272728.207 5   -982678.14146  23281663.89246
  20900661.173 6  -3347034.703 6  -2589445.53948  20900655.96248
  22323171.196 6   -714591.414 6   -555532.12947  22323169.73947
 18  5 30  0 39 14.9970000  0 10G03G14G16G22G23G26G27G29G31G32       0.000238377
  23045889.110 3  -3368747.535 3  -2596617.39145  23045889.83345
  20079343.884 6  -2362318.816 6  -1830966.57848  20079339.55248
  19751229.509 6  -4470606.273 6  -3460175.60248  19751224.04448
  23051197.915 5  -2714780.742 5  -2099646.33247  23051191.96647
  23097513.032 5  -7041078.809 5  -5439317.78146  23097506.21646
  20015864.618 7  -2881931.105 7  -2233183.34049  20015863.11049
  21399616.603 6  -7460451.891 6  -5748906.83648  21399614.32548
  23280539.892 5  -1278662.082 5   -987301.94146  23280534.87246
  20897429.220 6  -3364018.504 6  -2602679.66848  20897424.35648
  22322499.899 6   -718119.344 6   -558281.16847  22322499.05647
 18  5 30  0 39 19.9970000  0 10G03G14G16G22G23G26G27G29G31G32       0.000225554
  23042794.985 3  -3385005.828 3  -2609286.20745  23042796.36445
  20077262.962 6  -2373257.531 6  -1839490.26248  20077258.38448
  19747104.220 6  -4492283.016 6  -3477066.57448  19747099.03248
  23048643.173 6  -2728207.387 6  -2110108.64847  23048636.66547
  23090546.251 5  -7077687.832 5  -5467844.29346  23090539.38446
  20013155.860 7  -2896165.258 7  -2244274.89549  20013154.34949
  21392535.032 6  -7497664.496 6  -5777903.67248  21392532.91148
  23279411.962 5  -1284590.180 5   -991921.23846  23279406.11046
  20894197.149 6  -3381002.273 6  -2615913.78548  20894192.18948
  22321829.220 6   -721644.223 6   -561027.84848  22321828.20848
 18  5 30  0 39 24.9970000  0 10G03G14G16G22G23G26G27G29G31G32       0.000212727
  23039702.173 3  -3401256.848 3  -2621949.32445  23039704.25545
  20075182.860 6  -2384185.785 6  -1848005.79348  20075178.65748
  19742980.915 6  -4513951.668 6  -3493951.23848  19742975.41548
  23046088.267 6  -2741631.516 6  -2120569.01247  23046081.88047
  23083580.282 5  -7114295.121 5  -5496369.45346  23083573.05246
  20010447.454 7  -2910396.180 7  -2255363.93049  20010446.29049
  21385454.392 6  -7534873.535 6  -5806897.73048  21385452.32548
  23278285.485 5  -1290512.148 5   -996535.77346  23278279.34946
  20890965.493 6  -3397985.578 6  -2629147.53148  20890960.61848
  22321158.860 6   -725165.723 6   -563771.88747  22321158.32147
 18  5 30  0 39 29.9970000  0 10G03G14G16G22G23G26G27G29G31G32       0.000199900
  23036611.314 3  -3417500.828 3  -2634606.95345  23036613.25545
  20073105.017 6  -2395103.863 6  -1856513.38748  20073100.81748
  19738859.071 6  -4535612.441 6  -3510829.77048  19738853.45048
  23043534.720 6  -2755053.328 6  -2131027.59447  23043527.81447
  23076614.337 5  -7150900.945 5  -5524893.46546  23076607.53646
  20007740.173 7  -2924624.117 7  -2266450.63349  20007738.47849
  21378374.384 6  -7572079.184 6  -5835889.13348  21378372.13448
  23277160.048 5  -1296428.203 5  -1001145.69146  23277153.46646
  20887733.798 6  -3414968.668 6  -2642381.10948  20887728.48948
  22320489.228 6   -728684.059 6   -566513.47747  22320488.79047
 18  5 30  0 39 34.9970000  0 10G03G14G16G22G23G26G27G29G31G32       0.000187071
  23033521.462 3  -3433737.477 3  -2647258.90645  23033523.61445
  20071029.446 6  -2406011.473 6  -1865012.82448  20071025.33348
  19734738.884 6  -4557265.113 6  -3527701.97348  19734733.31448
  23040980.814 6  -2768472.566 6  -2141484.13746  23040974.45446
  23069649.134 5  -7187504.906 5  -5553416.03146  23069641.91546
  20005033.407 7  -2938848.789 7  -2277534.79349  20005031.82949
  21371294.939 6  -7609281.137 6  -5864877.66847  21371292.71247
  23276034.704 5  -1302338.004 5  -1005750.74246  23276028.85646
  20884502.306 6  -3431951.234 6  -2655614.27748  20884496.80648
  22319820.892 6   -732198.969 6   -569252.38747  22319820.11847
 18  5 30  0 39 39.9970000  0 10G03G14G16G22G23G26G27G29G31G32       0.000174238
  23030432.907 3  -3449967.102 3  -2659905.39545  23030435.26745
  20068955.759 6  -2416908.926 6  -1873504.35548  20068951.71248
  19730619.884 6  -4578909.922 6  -3544568.05948  19730614.56748
  23038426.931 6  -2781889.500 6  -2151938.89847  23038421.49347
  23062683.384 6  -7224107.375 6  -5581937.42646  23062676.95846
  20002327.103 7  -2953070.473 7  -2288616.63749  20002325.69649
  21364216.517 6  -7646479.648 6  -5893863.52048  21364214.09548
  23274912.189 5  -1308241.906 5  -1010351.18846  23274905.54446
  20881270.595 6  -3448933.504 6  -2668847.22748  20881265.34548
  22319152.618 6   -735710.738 6   -571988.85247  22319151.86847
 18  5 30  0 39 44.9970000  0 10G03G14G16G22G23G26G27G29G31G32       0.000161404
  23027346.353 3  -3466189.758 3  -2672546.38345  23027347.84945
  20066884.290 6  -2427796.230 6  -1881987.97748  20066879.95448
  19726502.689 6  -4600546.871 6  -3561428.01648  19726497.06748
  23035875.017 6  -2795304.203 6  -2162391.91847  23035868.70847
  23055718.720 5  -7260708.293 5  -5610457.62946  23055711.78646
  19999621.298 7  -2967289.203 7  -2299696.16449  19999619.65349
  21357138.399 6  -7683674.750 6  -5922846.71548  21357135.57548
  23273789.384 5  -1314139.973 5  -1014947.07846  23273782.71646
  20878039.009 6  -3465915.582 6  -2682080.01648  20878033.93948
  22318484.806 6   -739219.383 6   -574722.87147  22318484.32947
 18  5 30  0 39 49.9970000  0 10G03G14G16G22G23G26G27G29G31G32       0.000148567
  23024260.423 3  -3482405.723 3  -2685182.23445  23024262.11445
  20064814.345 6  -2438673.730 6  -1890463.96148  20064809.69648
  19722386.985 7  -4622176.316 7  -3578282.13748  19722380.83748
  23033322.368 6  -2808716.992 6  -2172843.44547  23033316.32547
  23048754.360 6  -7297307.988 6  -5638976.86346  23048747.34946
  19996915.876 7  -2981505.344 7  -2310773.68449  19996914.11049
  21350061.032 6  -7720866.742 6  -5951827.49648  21350058.82148
  23272667.524 5  -1320032.492 5  -1019538.67646  23272661.89246
  20874807.517 7  -3482897.773 7  -2695312.89548  20874802.13448
  22317817.618 6   -742725.273 6   -577454.75847  22317816.70447
 18  5 30  0 39 54.9970000  0 10G03G14G16G22G23G26G27G29G31G32       0.000135729
  23021176.095 3  -3498614.660 3  -2697812.54745  23021177.63845
  20062746.259 6  -2449541.063 6  -1898932.00848  20062741.75548
  19718272.282 6  -4643797.875 6  -3595130.10548  19718266.63048
  23030770.345 6  -2822127.508 6  -2183293.21147  23030764.55247
  23041789.915 6  -7333906.090 6  -5667494.86746  23041782.49346
  19994211.149 7  -2995718.504 7  -2321848.87549  19994209.39249
  21342984.204 6  -7758055.266 6  -5980805.56348  21342982.07548
  23271548.032 5  -1325919.199 5  -1024125.73846  23271541.73146
  20871575.798 7  -3499879.668 7  -2708545.54348  20871570.36448
  22317151.360 6   -746228.004 6   -580184.17247  22317149.90747
 18  5 30  0 39 59.9970000  0 10G03G14G16G22G23G26G27G29G31G32       0.000122889
  23018093.118 3  -3514816.555 3  -2710437.33645  23018094.27445
  20060680.306 6  -2460398.105 6  -1907392.04748  20060676.03648
  19714159.478 6  -4665411.438 6  -3611971.84448  19714153.31048
  23028219.462 6  -2835535.664 6  -2193741.12547  23028212.91947
  23034826.079 5  -7370502.465 5  -5696011.51247  23034818.44247
  19991507.345 7  -3009928.598 7  -2332921.67249  19991505.20449
  21335908.189 6  -7795240.180 6  -6009780.80947  21335906.07947
  23270428.626 4  -1331799.922 4  -1028708.07846  23270422.48946
  20868344.228 7  -3516861.191 7  -2721777.90248  20868338.86448
  22316485.165 6   -749727.551 6   -582911.12547  22316484.38447
 18  5 30  0 40  4.9970000  0 10G03G14G16G22G23G26G27G29G31G32       0.000110046
  23015010.360 2  -3531011.238 2  -2723056.68045  23015013.20445
  20058616.298 6  -2471244.820 6  -1915844.03148  20058611.32548
  19710047.829 6  -4687017.004 6  -3628807.34848  19710042.28648
  23025668.071 6  -2848941.426 6  -2204187.19547  23025662.00947
  23027862.360 6  -7407097.086 6  -5724526.82046  23027854.50146
  19988803.985 7  -3024135.582 7  -2343992.05149  19988801.88849
  21328832.767 6  -7832421.426 6  -6038753.19548  21328830.46248
  23269310.243 4  -1337674.617 4  -1033285.79346  23269304.86446
  20865112.704 7  -3533842.242 7  -2735009.89548  20865107.52148
  22315819.767 6   -753223.809 6   -585635.49647  22315818.53647
 18  5 30  0 40  9.9970000  0 10G03G14G16G22G23G26G27G29G31G32       0.000097202
  23011931.345 2  -3547198.961 2  -2735670.38745  23011932.48545
  20056554.134 6  -2482081.289 6  -1924288.04748  20056549.59148
  19705937.931 6  -4708614.656 6  -3645636.68848  19705931.98948
  23023117.649 6  -2862344.914 6  -2214631.46947  23023111.49347
  23020898.610 6  -7443690.090 6  -5753040.84446  23020891.32546
  19986100.720 7  -3038339.602 7  -2355060.12149  19986098.85649
  21321757.587 6  -7869599.133 6  -6067722.84448  21321756.06048
  23268193.173 4  -1343543.531 4  -1037858.99646  23268188.19246
  20861881.634 7  -3550822.984 7  -2748241.64148  20861876.21648
  22315154.689 6   -756716.977 6   -588357.46147  22315153.22847
 18  5 30  0 40 14.9970000  0 10G03G14G16G22G23G26G27G29G31G32       0.000084354
  23008851.587 3  -3563379.535 3                
  20054494.204 6  -2492907.516 6  -1932724.07048  20054488.84948
  19701829.407 6  -4730204.266 6  -3662459.76648  19701823.18148
  23020567.282 6  -2875746.066 6  -2225073.92647  23020561.31447
  23013935.439 6  -7480281.285 6  -5781553.47346  23013928.04846
  19983398.399 7  -3052540.539 7  -2366125.78949  19983396.72049
  21314683.985 6  -7906773.148 6  -6096689.59448  21314682.21248
  23267077.923 3  -1349406.457 3  -1042427.53546  23267072.15346
  20858650.446 6  -3567803.316 6  -2761473.08248  20858645.07948
  22314490.603 6   -760206.863 6   -591076.87547  22314489.32947
 18  5 30  0 40 19.9970000  0 10G03G14G16G22G23G26G27G29G31G32       0.000071507
  23005773.860 3  -3579552.922 3                
  20052435.868 6  -2503723.355 6  -1941152.00448  20052431.03248
  19697723.064 6  -4751785.855 6  -3679276.58248  19697716.77148
  23018018.142 6  -2889144.816 6  -2235514.51647  23018011.94647
  23006973.267 6  -7516870.703 6  -5810064.71546  23006965.77446
  19980696.478 7  -3066738.371 7  -2377189.03949  19980694.67349
  21307611.040 6  -7943943.422 6  -6125653.44548  21307608.86048
  23265963.407 3  -1355263.313 3  -1046991.31646  23265958.44646
  20855418.993 6  -3584783.156 6  -2774704.12548  20855413.83748
  22313826.821 6   -763693.535 6   -593793.77747  22313825.59147
 18  5 30  0 40 24.9970000  0 10G03G14G16G22G23G26G27G29G31G32       0.000058655
  23002697.407 2  -3595719.418 2                
  20050379.509 6  -2514529.129 6  -1949572.08648  20050375.09148
  19693617.774 6  -4773359.699 6  -3696087.37148  19693611.01348
  23015469.345 6  -2902541.402 6  -2245953.42247  23015462.59947
  23000010.735 6  -7553458.477 6  -5838574.66446  23000003.77146
  19977995.431 7  -3080933.340 7  -2388250.05149  19977993.50149
  21300537.806 6  -7981110.164 6  -6154614.53948  21300536.34148
  23264850.181 3  -1361114.457 3  -1051550.65646  23264845.28246
  20852187.931 6  -3601762.746 6  -2787934.98048  20852182.62248
  22313164.095 6   -767177.215 6   -596508.35547  22313162.13847
 18  5 30  0 40 29.9970000  0 10G03G14G16G22G23G26G27G29G31G32       0.000045803
  22999622.446 2  -3611879.004 2                
  20048325.243 6  -2525324.734 6  -1957984.24648  20048320.74348
  19689513.259 6  -4794925.719 6  -3712892.06648  19689507.50148
  23012919.939 6  -2915935.809 6  -2256390.62147  23012913.53247
  22993048.993 6  -7590044.629 6  -5867083.36346  22993041.29446
  19975294.689 7  -3095125.395 7  -2399308.80148  19975292.80248
  21293466.274 6  -8018273.328 6  -6183572.84048  21293464.06748
  23263737.845 3  -1366959.766 3  -1056105.46546  23263733.06046
  20848956.751 6  -3618742.023 6  -2801165.59048  20848951.78648
  22312501.892 6   -770657.797 6   -599220.52047  22312499.75947
 18  5 30  0 40 34.9970000  0 10G03G14G16G22G23G26G27G29G31G32       0.000032948
  22996549.032 2  -3628031.766 2                
  20046273.087 6  -2536110.422 6  -1966388.68448  20046268.04848
  19685410.884 6  -4816484.086 6  -3729690.79348  19685404.89648
  23010370.806 6  -2929328.184 6  -2266826.23847  23010364.81747
  22986086.743 6  -7626629.238 6  -5895590.86346  22986079.41146
  19972594.314 7  -3109314.715 7  -2410365.41849  19972592.75949
  21286395.134 6  -8055433.059 6  -6212528.47748  21286392.84148
  23262626.110 3  -1372799.500 3  -1060655.91845  23262622.27845
  20845725.524 6  -3635721.152 6  -2814396.08648  20845720.49748
  22311839.962 6   -774135.512 6   -601930.43847  22311838.22847
 18  5 30  0 40 39.9970000  0 10G03G14G16G22G23G26G27G29G31G32       0.000020090
  22993476.673 2  -3644177.141 2                
  20044222.439 6  -2546885.516 6  -1974784.87148  20044217.96648
  19681310.337 6  -4838034.133 6  -3746483.04348  19681304.18548
  23007823.103 6  -2942717.902 6  -2277259.79747  23007817.24347
  22979125.228 6  -7663211.773 6  -5924096.74246  22979117.88846
  19969895.095 7  -3123500.672 7  -2421419.41049  19969893.26749
  21279324.939 6  -8092588.715 6  -6241480.93048  21279322.89248
  23261515.751 3  -1378632.859 3  -1065201.41045  23261512.47845
  20842494.939 6  -3652699.469 6  -2827625.94148  20842489.68948
  22311178.946 6   -777609.777 6   -604637.68447  22311176.64647
 18  5 30  0 40 44.9970000  0 10G03G14G16G22G23G26G27G29G31G32       0.000007231
  22990405.228 2  -3660315.648 2                
  20042174.532 6  -2557650.621 6  -1983173.27748  20042169.03248
  19677210.931 6  -4859576.473 6  -3763269.28548  19677204.88048
  23005275.649 6  -2956105.578 6  -2287691.76247  23005269.29847
  22972164.165 6  -7699792.648 6  -5952601.31346  22972157.09146
  19967196.079 7  -3137683.848 7  -2432471.23848  19967194.36048
  21272254.845 6  -8129740.824 6  -6270430.62548  21272252.82948
  23260407.376 3  -1384460.629 3  -1069742.53945  23260403.51745
  20839264.259 6  -3669677.582 6  -2840855.63748  20839259.10648
  22310518.892 6   -781081.074 6   -607342.59847  22310516.44647
 18  5 30  0 40 49.9970000  0 10G03G14G16G22G23G26G27G29G31G32      -0.000005630
  22987334.946 2  -3676447.164 2                
  20040127.814 6  -2568405.434 6  -1991553.64848  20040122.89948
  19673113.290 6  -4881110.813 6  -3780049.28948  19673107.03248
  23002728.485 6  -2969490.926 6  -2298121.91047  23002722.14247
  22965203.314 6  -7736371.652 6  -5981104.44146  22965196.32546
  19964497.712 7  -3151863.949 7  -2443520.66448  19964496.18148
  21265185.626 6  -8166889.082 6  -6299377.31648  21265183.54448
  23259299.306 4  -1390282.398 4  -1074279.02345  23259295.98945
  20836033.478 6  -3686655.172 6  -2854084.92648  20836028.38848
  22309858.259 6   -784549.168 6   -610045.03147  22309856.12247
 18  5 30  0 40 54.9970000  0 10G03G14G16G22G23G26G27G29G31G32      -0.000018494
  22984266.407 1  -3692571.480 1                
  20038082.431 6  -2579149.906 6  -1999925.97348  20038077.95448
  19669016.728 7  -4902637.152 7  -3796823.06348  19669011.28248
  23000181.923 6  -2982873.898 6  -2308550.19547  23000175.58347
  22958242.821 6  -7772948.621 6  -6009605.94946  22958235.87246
  19961799.689 7  -3166040.961 7  -2454567.69148  19961798.01348
  21258116.978 6  -8204033.477 6  -6328320.99648  21258115.13048
  23258191.814 4  -1396098.258 4  -1078810.87546  23258189.26346
  20832802.532 6  -3703632.172 6  -2867313.75448  20832797.59548
  22309199.017 6   -788014.035 6   -612744.93447  22309196.97047
 18  5 30  0 40 59.9970000  0 10G03G14G16G22G23G26G27G29G31G32      -0.000031359
  22981200.384 1  -3708688.613 1                
  20036039.970 6  -2589884.012 6  -2008290.21948  20036035.70048
  19664921.806 7  -4924155.480 7  -3813590.59448  19664916.70448
  22997635.329 6  -2996254.523 6  -2318976.67247  22997629.44647
  22951282.689 6  -7809523.648 6  -6038105.93847  22951276.42347
  19959102.837 7  -3180214.902 7  -2465612.32448  19959101.02448
  21251049.884 6  -8241173.965 6  -6357261.64548  21251047.47848
  23257086.282 4  -1401908.148 4  -1083338.09046  23257084.16946
  20829572.165 6  -3720608.633 6  -2880542.16848  20829567.52448
  22308540.618 6   -791475.707 6   -615442.36747  22308538.49747
 18  5 30  0 41  4.9970000  0 10G03G14G16G22G23G26G27G29G31G32      -0.000044226
  22978133.056 1  -3724799.145 1                
  20033999.196 6  -2600608.188 6  -2016646.72348  20033994.66548
  19660828.939 7  -4945666.215 7  -3830352.20348  19660823.50548
  22995089.720 6  -3009633.242 6  -2329401.64847  22995083.88447
  22944323.056 5  -7846097.063 5  -6066604.68846  22944316.90346
  19956406.321 7  -3194386.148 7  -2476654.84448  19956404.39248
  21243982.814 6  -8278310.910 6  -6386199.52348  21243980.78648
  23255981.704 4  -1407712.395 4  -1087860.89546  23255980.46246
  20826341.610 6  -3737584.922 6  -2893770.43848  20826336.66548
  22307881.657 6   -794934.531 6   -618137.58247  22307880.20447
 18  5 30  0 41  9.9970000  0 10G03G14G16G22G23G26G27G29G31G32      -0.000057095
  22975068.876 1  -3740902.305 1                
  20031960.767 6  -2611321.805 6  -2024995.00448  20031956.30648
  19656736.853 6  -4967168.703 6  -3847107.39548  19656731.46248
  22992544.095 6  -3023009.363 6  -2339824.61347  22992538.45047
  22937364.204 6  -7882668.227 6  -6095101.69946  22937357.13446
  19953710.103 7  -3208554.090 7  -2487694.80148  19953707.99748
  21236916.970 6  -8315443.727 6  -6415134.17648  21236915.23948
  23254878.243 3  -1413510.523 3  -1092378.88746  23254877.14946
  20823111.509 6  -3754560.383 6  -2906998.07048  20823106.48548
  22307224.470 6   -798389.973 6   -620830.16047  22307222.78247
 18  5 30  0 41 14.9970000  0 10G03G14G16G22G23G26G27G29G31G32      -0.000069965
  22972004.267 1  -3756998.641 1                
  20029924.134 6  -2622025.328 6  -2033335.41048  20029919.09148
  19652646.743 7  -4988663.480 7  -3863856.56648  19652641.34548
  22989998.845 6  -3036383.395 6  -2350245.94147  22989993.48947
  22930405.282 6  -7919237.586 6  -6123597.27346  22930398.23546
  19951014.532 7  -3222719.219 7  -2498732.56648  19951012.55648
  21229850.985 6  -8352572.836 6  -6444065.94548  21229849.62648
  23253776.595 3  -1419303.051 3  -1096892.58246  23253775.61446
  20819881.142 7  -3771535.516 7  -2920225.45348  20819875.94648
  22306567.079 6   -801842.449 6   -623520.41447  22306565.83347
 18  5 30  0 41 19.9970000  0 10G03G14G16G22G23G26G27G29G31G32      -0.000082840
  22968945.446 1  -3773087.957 1                
  20027889.446 6  -2632718.688 6  -2041667.89548  20027884.34148
  19648557.509 7  -5010150.395 7  -3880599.61748  19648552.52848
  22987454.696 6  -3049755.297 6  -2360665.61347  22987448.19247
  22923446.423 6  -7955805.074 6  -6152091.42246  22923439.40346
  19948319.399 7  -3236881.426 7  -2509768.06348  19948317.50148
  21222786.962 6  -8389698.094 6  -6472994.70348  21222784.48148
  23252675.142 4  -1425089.727 4  -1101401.69545  23252674.45445
  20816651.189 7  -3788510.160 7  -2933452.45348  20816645.58348
  22305910.649 6   -805291.906 6   -626208.31347  22305909.10347
 18  5 30  0 41 24.9970000  0 10G03G14G16G22G23G26G27G29G31G32      -0.000095715
  22965884.399 1  -3789169.887 1                
  20025856.282 6  -2643401.281 6  -2049992.00448  20025851.74348
  19644470.431 6  -5031628.895 6  -3897336.10948  19644465.07548
  22984910.501 6  -3063124.484 6  -2371083.16447  22984904.48547
  22916488.196 6  -7992370.125 6  -6180583.67246  22916481.06746
  19945625.392 7  -3251040.168 7  -2520800.85248  19945623.41948
  21215722.954 6  -8426819.000 6  -6501920.09048  21215720.60348
  23251574.853 4  -1430870.125 4  -1105905.89145  23251573.90745
  20813421.142 7  -3805483.793 7  -2946678.66448  20813415.77448
  22305255.024 5   -808737.754 5   -628893.43047  22305253.81447
 18  5 30  0 41 29.9970000  0 10G03G14G16G22G23G26G27G29G31G32      -0.000108591
  22962824.290 1  -3805244.727 1  -2742217.09856  22962828.95856
  20023825.540 6  -2654073.734 6  -2058308.20348  20023820.36448
  19640385.087 6  -5053099.500 6  -3914066.45348  19640379.74748
  22982366.821 6  -3076491.484 6  -2381499.01247  22982360.77847
  22909530.509 6  -8028933.254 6  -6209074.42646  22909523.70446
  19942931.540 7  -3265195.996 7  -2531831.37148  19942929.59548
  21208660.079 6  -8463936.004 6  -6530842.43048  21208657.72848
  23250477.032 4  -1436644.707 4  -1110405.57445  23250475.07945
  20810191.228 7  -3822456.949 7  -2959904.49648  20810186.38848
  22304600.048 6   -812180.582 6   -631576.17247  22304598.88047
 18  5 30  0 41 34.9970000  0 10G03G14G16G22G23G26G27G29G31G32      -0.000121469
  22959766.142 1  -3821312.832 1  -2754737.66845  22959770.96645
  20021796.673 6  -2664736.113 6  -2066616.54748  20021791.67348
  19636300.485 7  -5074562.359 7  -3930790.75448  19636295.42748
  22979823.884 6  -3089856.449 6  -2391913.28147  22979817.59147
  22902572.829 5  -8065494.527 5  -6237563.72746  22902565.97046
  19940238.212 7  -3279349.012 7  -2542859.69948  19940236.22448
  21201597.251 6  -8501049.242 6  -6559761.83648  21201594.60648
  23249378.220 3  -1442413.633 3  -1114900.78945  23249377.43145
  20806961.345 7  -3839429.730 7  -2973130.05148  20806956.43948
  22303945.329 6   -815620.496 6   -634256.63347  22303944.42747
 18  5 30  0 41 39.9970000  0 10G03G14G16G22G23G26G27G29G31G32      -0.000134352
  22956711.181 1  -3837373.613 1  -2767252.60545  22956714.49745
  20019769.610 6  -2675387.965 6  -2074916.69548  20019764.81048
  19632217.649 7  -5096017.016 7  -3947508.67248  19632212.55248
  22977281.064 6  -3103218.898 6  -2402325.58247  22977274.71247
  22895615.939 6  -8102053.496 6  -6266051.23446  22895608.93546
  19937545.673 7  -3293498.766 7  -2553885.48448  19937543.55248
  21194535.985 6  -8538158.215 6  -6588677.91448  21194533.19648
  23248282.274 3  -1448176.465 3  -1119391.29745  23248280.51745
  20803731.798 7  -3856401.684 7  -2986354.96148  20803726.65748
  22303291.954 6   -819057.023 6   -636934.47747  22303290.78647
 18  5 30  0 41 44.9970000  0 10G03G14G16G22G23G26G27G29G31G32      -0.000147234
  22953656.493 1  -3853427.480 1  -2779762.24645  22953659.36845
  20017744.399 6  -2686029.672 6  -2083208.94148  20017739.29048
  19628136.649 6  -5117463.816 6  -3964220.46548  19628131.15748
  22974738.048 5  -3116579.180 5  -2412736.20746  22974732.43946
  22888659.298 6  -8138610.500 6  -6294537.19946  22888652.76746
  19934853.884 7  -3307645.633 7  -2564909.02748  19934851.90748
  21187475.056 6  -8575263.262 6  -6617590.94548  21187472.23548
  23247187.595 3  -1453933.543 3  -1123877.34045  23247185.32145
  20800502.360 7  -3873373.156 7  -2999579.48048  20800497.33748
  22302638.329 6   -822490.555 6   -639609.96147  22302637.70047
 18  5 30  0 41 49.9970000  0 10G03G14G16G22G23G26G27G29G31G32      -0.000160118
  22950603.689 1  -3869474.355 1  -2792266.18845  22950605.81745
  20015721.173 6  -2696661.094 6  -2091493.16848  20015716.57948
  19624056.899 6  -5138902.633 6  -3980926.03948  19624051.88448
  22972196.610 5  -3129937.254 5  -2423145.09846  22972190.71246
  22881703.657 6  -8175165.387 6  -6323021.53146  22881697.31046
  19932162.009 7  -3321789.480 7  -2575930.21148  19932160.29848
  21180414.470 6  -8612364.242 6  -6646500.80548  21180412.32548
  23246092.954 3  -1459684.766 3  -1128358.82846  23246090.61046
  20797272.642 7  -3890343.980 7  -3012803.50048  20797268.14248
  22301986.228 6   -825920.941 6   -642283.01647  22301985.45447
 18  5 30  0 41 54.9970000  0 10G03G14G16G22G23G26G27G29G31G32      -0.000173006
  22947551.884 1  -3885514.117 1  -2804764.70745  22947554.25945
  20013700.134 6  -2707282.188 6  -2099769.34848  20013695.48948
  19619978.751 7  -5160333.410 7  -3997625.35248  19619973.60348
  22969654.564 5  -3143293.035 5  -2433552.22347  22969648.51747
  22874747.149 6  -8211718.094 6  -6351504.14846  22874741.04446
  19929471.407 7  -3335930.262 7  -2586949.00048  19929469.28648
  21173355.282 6  -8649461.129 6  -6675407.46948  21173353.25948
  23244999.399 4  -1465430.133 4  -1132835.71946  23244997.23546
  20794043.306 6  -3907314.137 6  -3026027.00048  20794038.56048
  22301333.415 6   -829348.184 6   -644953.61347  22301333.60347
 18  5 30  0 41 59.9970000  0 10G03G14G16G22G23G26G27G29G31G32      -0.000185894
  22944501.079 1  -3901547.230 1  -2817258.07845  22944502.76345
  20011681.024 6  -2717893.332 6  -2108037.77348  20011676.04048
  19615902.048 6  -5181756.602 6  -4014318.74248  19615896.76348
  22967113.587 5  -3156646.945 5  -2443957.87946  22967107.36446
  22867792.157 6  -8248268.984 6  -6379985.35246  22867785.80246
  19926780.743 7  -3350068.410 7  -2597965.74248  19926778.97448
  21166296.782 6  -8686554.270 6  -6704311.21548  21166295.02148
  23243907.071 4  -1471169.988 4  -1137308.32846  23243904.60646
  20790814.095 6  -3924283.992 6  -3039250.27048  20790809.13448
  22300681.954 6   -832772.645 6   -647622.04347  22300681.95847
 18  5 30  0 42  4.9970000  0 10G03G14G16G22G23G26G27G29G31G32      -0.000198784
  22941451.845 1  -3917573.168 1  -2829745.79745  22941453.00945
  20009663.673 6  -2728494.074 6  -2116298.09048  20009659.19248
  19611826.751 7  -5203171.699 7  -4031005.83648  19611821.68148
  22964573.321 5  -3169998.539 5  -2454361.70746  22964566.88446
  22860837.079 5  -8284817.582 5  -6408464.74647  22860830.29047
  19924090.743 7  -3364203.438 7  -2608980.05548  19924089.39248
  21159239.368 6  -8723643.172 6  -6733211.64548  21159237.31448
  23242815.798 4  -1476903.941 4  -1141776.35545  23242813.51745
  20787585.189 6  -3941253.070 6  -3052472.91848  20787580.02448
  22300031.173 6   -836193.953 6   -650288.03547  22300031.13447
 18  5 30  0 42  9.9970000  0 10G03G14G16G22G23G26G27G29G31G32      -0.000211676
  22938403.446 1  -3933591.836 1  -2842227.89145  22938404.56045
  20007648.399 6  -2739084.285 6  -2124550.22748  20007643.77448
  19607753.243 6  -5224578.590 6  -4047686.53148  19607748.11848
  22962032.524 5  -3183347.691 5  -2464763.64546  22962026.22046
  22853882.837 5  -8321363.859 5  -6436942.37147  22853876.20047
  19921401.962 7  -3378335.238 7  -2619991.85249  19921400.51349
  21152182.439 6  -8760727.730 6  -6762108.70348  21152180.21648
  23241726.274 4  -1482631.801 4  -1146239.62945  23241723.18545
  20784356.056 6  -3958221.242 6  -3065694.87948  20784351.04448
  22299380.774 6   -839611.898 6   -652951.38347  22299380.89247
 18  5 30  0 42 14.9970000  0 10G03G14G16G22G23G26G27G29G31G32      -0.000224571
  22935356.962 3  -3949603.516 3  -2854704.55945  22935357.33345
  20005635.376 6  -2749664.203 6  -2132794.31348  20005630.56048
  19603681.220 7  -5245977.500 7  -4064360.99648  19603675.92348
  22959492.962 5  -3196694.539 5  -2475163.79746  22959486.59546
  22846928.173 5  -8357907.926 5  -6465418.28146  22846922.35346
  19918713.157 7  -3392464.043 7  -2631001.30548  19918711.22848
  21145126.071 6  -8797808.117 6  -6791002.50448  21145124.31748
  23240637.439 2  -1488353.773 2  -1150698.32045  23240634.35345
  20781127.321 6  -3975188.727 6  -3078916.28148  20781121.89948
  22298730.860 6   -843026.797 6   -655612.37147  22298731.43147
 18  5 30  0 42 19.9970000  0 10G03G14G16G22G23G26G27G29G31G32      -0.000237467
  22932310.767 2  -3965608.129 2  -2867175.69145  22932311.89645
  20003623.837 6  -2760233.750 6  -2141030.32448  20003619.06448
  19599610.501 6  -5267368.340 6  -4081029.19548  19599605.66148
  22956953.110 5  -3210039.152 5  -2485562.19946  22956947.31446
  22839974.243 5  -8394449.652 5  -6493892.34046  22839968.52446
  19916025.048 7  -3406589.730 7  -2642008.34048  19916023.00548
  21138070.751 6  -8834884.219 6  -6819892.96948  21138068.21248
  23239548.923 4  -1494069.824 4  -1155152.42645  23239547.00945
  20777898.368 6  -3992155.430 6  -3092137.10548  20777893.24748
  22298081.868 6   -846438.422 6   -658270.79347  22298082.43947
 18  5 30  0 42 24.9970000  0 10G03G14G16G22G23G26G27G29G31G32      -0.000250364
  22929266.173 1  -3981605.391 1  -2879641.05545  22929267.35345
  20001614.618 6  -2770792.707 6  -2149258.08648  20001609.92748
  19595541.751 6  -5288750.934 6  -4097690.95348  19595536.41548
  22954414.532 5  -3223381.242 5  -2495958.64546  22954408.84146
  22833021.087 5  -8430988.816 5  -6522364.41847  22833015.22047
  19913337.689 7  -3420712.133 7  -2653012.81648  19913336.29048
  21131015.782 6  -8871955.813 6  -6848779.92248  21131013.91548
  23238462.509 3  -1499779.828 3  -1159601.75046  23238460.36046
  20774670.501 6  -4009121.133 6  -3105357.14148  20774665.07948
  22297433.048 6   -849846.699 6   -660926.61747  22297433.91547
 18  5 30  0 42 29.9970000  0 10G03G14G16G22G23G26G27G29G31G32      -0.000263266
  22926223.134 1  -3997595.355 1  -2892100.71545  22926224.34145
  19999607.040 6  -2781340.945 6  -2157477.49248  19999603.00548
  19591473.939 6  -5310125.145 6  -4114346.18048  19591469.16548
  22951875.868 5  -3236720.828 5  -2506353.09446  22951870.07146
  22826068.478 5  -8467525.406 5  -6550834.49646  22826062.79446
  19910651.056 7  -3434831.145 7  -2664014.65648  19910649.45848
  21123962.251 6  -8909022.801 6  -6877663.29748  21123960.08748
  23237377.720 3  -1505483.594 3  -1164046.25446  23237374.84146
  20771442.032 6  -4026085.793 6  -3118576.35548  20771436.68948
  22296786.118 6   -853251.535 6   -663579.76247  22296786.56747
 18  5 30  0 42 34.9970000  0 10G03G14G16G22G23G26G27G29G31G32      -0.000276167
  22923181.837 1  -4013578.203 1  -2904554.93845  22923182.98545
  19997602.337 7  -2791878.938 7  -2165688.92248  19997597.27448
  19587408.235 6  -5331491.465 6  -4130995.26248  19587402.83748
  22949338.048 5  -3250058.207 5  -2516745.88346  22949331.98146
  22819116.306 5  -8504059.766 5  -6579302.80146  22819110.21246
  19907964.243 7  -3448947.230 7  -2675014.20348  19907963.00948
  21116909.009 6  -8946085.605 6  -6906543.40248  21116907.37248
  23236292.618 4  -1511181.664 4  -1168486.33246  23236290.61046
  20768214.267 6  -4043049.770 6  -3131795.02748  20768208.52148
  22296137.806 6   -856653.297 6   -666230.50848  22296138.66148
 18  5 30  0 42 39.9970000  0 10G03G14G16G22G23G26G27G29G31G32      -0.000289070
  22920142.204 1  -4029554.141 1  -2917003.70345  22920142.75945
  19995598.743 7  -2802406.723 7  -2173892.39848  19995594.20048
  19583343.814 6  -5352849.852 6  -4147638.15648  19583338.70048
  22946800.540 5  -3263393.426 5  -2527136.95746  22946793.88046
  22812164.282 5  -8540591.832 5  -6607769.33646  22812158.68946
  19905279.017 7  -3463060.391 7  -2686011.46948  19905277.56448
  21109857.767 6  -8983144.211 6  -6935420.23848  21109855.29448
  23235209.939 4  -1516873.957 4  -1172921.88746  23235207.56446
  20764985.493 7  -4060013.063 7  -3145013.19548  20764980.56048
  22295491.626 6   -860052.074 6   -668878.92248  22295492.50148
 18  5 30  0 42 44.9970000  0 10G03G14G16G22G23G26G27G29G31G32      -0.000301975
  22917102.689 1  -4045523.285 1  -2929447.28145  22917103.79045
  19993596.829 6  -2812924.391 6  -2182087.98448  19993592.70848
  19579281.282 7  -5374200.473 7  -4164275.01248  19579275.78248
  22944263.134 5  -3276726.648 5  -2537526.49646  22944256.93146
  22805212.970 5  -8577121.816 5  -6636234.25446  22805207.46646
  19902593.892 7  -3477170.758 7  -2697006.57449  19902592.53249
  21102806.595 6  -9020198.727 6  -6964293.87948  21102803.54848
  23234127.806 4  -1522560.695 4  -1177353.09046  23234125.38846
  20761758.251 7  -4076975.785 7  -3158230.90248  20761752.94248
  22294845.798 6   -863447.953 6   -671525.09848  22294846.26748
 18  5 30  0 42 49.9970000  0 10G03G14G16G22G23G26G27G29G31G32      -0.000314882
  22914066.204 1  -4061485.141 1  -2941885.06345  22914066.33345
  19991597.314 6  -2823431.512 6  -2190275.35548  19991593.10348
  19575219.829 7  -5395542.855 7  -4180905.43048  19575214.72848
  22941726.728 5  -3290057.469 5  -2547914.13346  22941719.85646
  22798262.321 5  -8613649.184 5  -6664697.14146  22798256.56046
  19899909.673 7  -3491277.875 7  -2707999.12948  19899907.89648
  21095756.329 6  -9057248.672 6  -6993163.97348  21095753.69648
  23233046.626 4  -1528241.336 4  -1181779.58646  23233044.33346
  20758530.298 7  -4093937.480 7  -3171447.80948  20758525.28648
  22294200.024 6   -866840.516 6   -674168.68048  22294200.58748
 18  5 30  0 42 54.9970000  0 10G03G14G16G22G23G26G27G29G31G32      -0.000327791
  22911030.126 2  -4077439.996 2  -2954317.43845  22911030.11045
  19989600.126 6  -2833928.254 6  -2198454.63348  19989595.61048
  19571159.853 6  -5416877.160 6  -4197529.57448  19571154.76348
  22939190.157 5  -3303386.047 5  -2558300.03946  22939183.68146
  22791312.009 5  -8650174.125 5  -6693158.12146  22791306.02146
  19897225.478 7  -3505381.898 7  -2718989.28948  19897224.17748
  21088706.696 6  -9094294.215 6  -7022030.62548  21088703.94648
  23231966.962 4  -1533916.055 4  -1186201.43446  23231964.47846
  20755302.767 7  -4110898.363 7  -3184664.09048  20755297.46248
  22293555.173 6   -870229.949 6   -676809.81648  22293555.93148
 18  5 30  0 42 59.9970000  0 10G03G14G16G22G23G26G27G29G31G32      -0.000340702
  22907996.071 2  -4093387.988 2  -2966744.38745  22907994.83745
  19987604.431 6  -2844414.863 6  -2206626.02348  19987600.10648
  19567101.626 6  -5438203.645 6  -4214147.60948  19567096.25948
  22936653.845 5  -3316712.543 5  -2568684.33646  22936647.98546
  22784361.259 5  -8686696.824 5  -6721617.37547  22784356.36047
  19894542.376 7  -3519483.094 7  -2729977.22749  19894540.77449
  21081657.571 6  -9131335.535 6  -7050893.98848  21081655.41148
  23230887.532 4  -1539585.156 4  -1190618.92646  23230885.19646
  20752075.274 7  -4127858.586 7  -3197879.84048  20752070.45048
  22292910.649 6   -873616.453 6   -679448.67648  22292910.62648
 18  5 30  0 43  4.9970000  0 10G03G14G16G22G23G26G27G29G31G32      -0.000353615
  22904962.189 2  -4109328.734 2  -2979165.76245  22904961.39245
  19985611.087 6  -2854890.914 6  -2214789.17648  19985606.60648
  19563045.024 6  -5459521.926 6  -4230759.25448  19563039.84948
  22934118.642 5  -3330036.645 5  -2579066.73846  22934112.26346
  22777412.368 6  -8723216.914 6  -6750074.57047  22777406.48947
  19891859.884 7  -3533581.082 7  -2740962.67649  19891857.91949
  21074609.868 6  -9168372.270 6  -7079753.78548  21074607.21648
  23229811.196 5  -1545248.258 5  -1195031.71546  23229807.41946
  20748847.657 6  -4144817.793 6  -3211094.82448  20748842.95048
  22292266.618 6   -876999.660 6   -682084.96948  22292266.97448
 18  5 30  0 43  9.9970000  0 10G03G14G16G22G23G26G27G29G31G32      -0.000366529
  22901929.876 2  -4125262.703 2  -2991581.84045  22901928.79445
  19983619.603 6  -2865356.867 6  -2222944.46548  19983614.93948
  19558989.579 6  -5480832.395 6  -4247364.81648  19558983.97448
  22931584.024 5  -3343358.730 5  -2589447.61346  22931577.32946
  22770463.673 5  -8759734.742 5  -6778530.02047  22770457.45847
  19889177.032 7  -3547676.250 7  -2751945.92649  19889175.83749
  21067562.970 6  -9205404.746 6  -7108610.25448  21067560.59948
  23228734.274 5  -1550905.750 5  -1199440.14846  23228730.42346
  20745620.939 7  -4161776.313 7  -3224309.25448  20745616.34948
  22291623.470 6   -880379.984 6   -684719.00848  22291624.01748
 18  5 30  0 43 14.9970000  0 10G03G14G16G22G23G26G27G29G31G32      -0.000379446
  22898899.220 2  -4141189.500 2  -3003992.30945  22898897.66545
  19981630.118 6  -2875812.387 6  -2231091.63748  19981624.97448
  19554935.954 6  -5502134.754 6  -4263964.05948  19554930.61448
  22929048.743 5  -3356678.555 5  -2599826.68446  22929042.52846
  22763514.587 5  -8796250.051 5  -6806983.50447  22763508.56747
  19886495.798 7  -3561768.301 7  -2762926.75049  19886494.02149
  21060516.431 6  -9242432.695 6  -7137463.19948  21060514.39648
  23227658.618 5  -1556557.359 5  -1203843.99246  23227655.18946
  20742394.157 7  -4178733.926 7  -3237522.98848  20742389.04448
  22290980.853 6   -883757.156 6   -687350.59048  22290981.02848
 18  5 30  0 43 19.9970000  0 10G03G14G16G22G23G26G27G29G31G32      -0.000392365
  22895868.884 2  -4157109.039 2  -3016397.17245  22895868.16945
  19979641.978 6  -2886257.301 6  -2239230.54348  19979637.71248
  19550884.110 6  -5523428.824 6  -4280556.85248  19550878.42748
  22926514.118 5  -3369995.957 5  -2610203.87947  22926508.64947
  22756566.431 5  -8832762.602 5  -6835434.87147  22756560.61847
  19883814.712 7  -3575857.082 7  -2773905.02348  19883813.25948
  21053471.079 6  -9279455.906 6  -7166312.45348  21053468.77848
  23226585.142 5  -1562202.902 5  -1208243.16446  23226580.79846
  20739167.274 7  -4195690.406 7  -3250735.83248  20739162.70848
  22290338.993 6   -887130.941 6   -689979.54748  22290338.93548
 18  5 30  0 43 24.9970000  0 10G03G14G16G22G23G26G27G29G31G32      -0.000405285
  22892840.884 1  -4173021.695 1  -3028796.64845  22892840.62245
  19977657.001 6  -2896691.961 6  -2247361.44148  19977651.96648
  19546833.142 7  -5544714.941 7  -4297143.43848  19546827.98948
  22923980.681 5  -3383311.211 5  -2620579.41046  22923974.57146
  22749619.446 6  -8869272.707 6  -6863884.29747  22749613.20847
  19881134.376 7  -3589942.914 7  -2784880.98849  19881132.93149
  21046426.806 6  -9316474.727 6  -7195158.27748  21046424.37248
  23225511.384 5  -1567842.770 5  -1212637.83646  23225507.70846
  20735940.657 6  -4212646.082 6  -3263948.05148  20735935.81048
  22289697.689 6   -890501.754 6   -692606.17248  22289697.47448
 18  5 30  0 43 29.9970000  0 10G03G14G16G22G23G26G27G29G31G32      -0.000418207
  22889814.399 1  -4188927.023 1  -3041190.45345  22889812.91545
  19975673.407 6  -2907116.055 6  -2255484.11348  19975667.98548
  19542784.126 7  -5565992.844 7  -4313723.62548  19542778.59548
  22921447.189 5  -3396624.070 5  -2630953.07446  22921441.27146
  22742671.603 6  -8905780.125 6  -6892331.65247  22742666.52147
  19878454.290 7  -3604025.555 7  -2795854.47749  19878452.98149
  21039383.142 6  -9353488.793 6  -7224000.40248  21039381.16948
  23224438.876 5  -1573476.625 5  -1217027.87546  23224435.84946
  20732714.376 7  -4229600.688 7  -3277159.43848  20732709.46648
  22289057.064 6   -893869.293 6   -695230.24648  22289056.32948
 18  5 30  0 43 34.9970000  0 10G03G14G16G22G23G26G27G29G31G32      -0.000431129
  22886789.337 2  -4204824.906 2  -3053578.36345  22886787.85645
  19973691.376 7  -2917529.297 7  -2263598.34048  19973686.33748
  19538736.689 7  -5587262.250 7  -4330297.19148  19538731.48948
  22918914.610 5  -3409934.219 5  -2641324.64546  22918908.65746
  22735725.571 5  -8942284.516 5  -6920776.63747  22735719.61847
  19875775.321 7  -3618104.688 7  -2806825.23449  19875773.90749
  21032340.478 6  -9390497.867 6  -7252838.64148  21032338.13048
  23223368.329 5  -1579104.211 5  -1221413.01246  23223365.13846
  20729488.423 6  -4246553.875 6  -3290369.71148  20729483.50548
  22288416.821 6   -897233.293 6   -697851.56647  22288416.25147
 18  5 30  0 43 39.9970000  0 10G03G14G16G22G23G26G27G29G31G32      -0.000444056
  22883764.939 2  -4220715.617 2  -3065960.76645  22883763.29045
  19971712.142 7  -2927932.051 7  -2271704.37948  19971707.07948
  19534690.790 7  -5608523.488 7  -4346864.38748  19534685.67748
  22916381.329 5  -3423242.055 5  -2651694.41046  22916375.79046
  22728779.774 6  -8978786.148 6  -6949219.47347  22728773.41147
  19873096.556 7  -3632180.633 7  -2817793.50449  19873095.21649
  21025298.970 6  -9427502.191 6  -7281673.17648  21025296.42348
  23222298.579 5  -1584725.836 5  -1225793.52046  23222295.81446
  20726262.603 7  -4263506.004 7  -3303579.16848  20726257.67348
  22287777.040 6   -900594.023 6   -700470.34447  22287776.42347
 18  5 30  0 43 44.9970000  0 10G03G14G16G22G23G26G27G29G31G32      -0.000456982
  22880742.907 2  -4236599.160 2  -3078337.55145  22880741.00945
  19969734.095 7  -2938324.234 7  -2279802.19148  19969729.26748
  19530646.743 6  -5629776.516 6  -4363425.18448  19530641.13848
  22913849.587 5  -3436547.512 5  -2662062.29746  22913843.89246
  22721834.056 6  -9015284.977 6  -6977660.10947  22721827.85347
  19870418.728 7  -3646253.402 7  -2828759.30549  19870416.94249
  21018258.196 6  -9464501.766 6  -7310504.00848  21018256.04448
  23221229.774 5  -1590341.508 5  -1230169.37546  23221227.22446
  20723036.681 7  -4280457.008 7  -3316787.74248  20723031.76348
  22287138.493 6   -903951.543 6   -703086.60547  22287137.11447
 18  5 30  0 43 49.9970000  0 10G03G14G16G22G23G26G27G29G31G32      -0.000469910
  22877721.220 2  -4252475.641 2  -3090708.80545  22877719.81445
  19967758.876 6  -2948706.020 6  -2287891.89848  19967753.78248
  19526603.759 6  -5651021.488 6  -4379979.71148  19526598.54448
  22911318.056 5  -3449850.777 5  -2672428.47746  22911312.30646
  22714889.173 6  -9051781.125 6  -7006098.66847  22714882.92347
  19867741.399 7  -3660323.090 7  -2839722.69149  19867740.23549
  21011218.181 6  -9501496.660 6  -7339331.19148  21011216.20448
  23220161.970 5  -1595951.344 5  -1234540.67246  23220159.51346
  20719811.321 7  -4297407.016 7  -3329995.53948  20719806.27848
  22286500.079 6   -907305.922 6   -705700.42247  22286498.16547
 18  5 30  0 43 54.9970000  0 10G03G14G16G22G23G26G27G29G31G32      -0.000482841
  22874701.665 3  -4268345.371 3  -3103074.83645  22874699.79045
  19965784.704 6  -2959077.699 6  -2295973.73048  19965779.80248
  19522562.134 7  -5672258.645 7  -4396528.14848  19522557.71648
  22908786.993 5  -3463152.148 5  -2682793.17646  22908781.41946
  22707944.915 6  -9088274.883 6  -7034535.35947  22707938.31747
  19865064.103 7  -3674390.012 7  -2850683.92649  19865063.09549
  21004179.165 6  -9538487.195 6  -7368154.98048  21004177.10348
  23219096.040 5  -1601555.656 5  -1238907.68446  23219093.17746
  20716586.040 7  -4314356.309 7  -3343202.79348  20716580.93548
  22285862.079 6   -910657.492 6   -708312.04347  22285860.35647
 18  5 30  0 43 59.9970000  0 10G03G14G16G22G23G26G27G29G31G32      -0.000495773
  22871683.603 3  -4284207.816 3  -3115435.19145  22871681.02145
  19963813.993 6  -2969438.742 6  -2304047.27748  19963808.60648
  19518522.946 6  -5693487.508 6  -4413070.12148  19518517.60648
  22906256.587 5  -3476451.016 5  -2693155.95746  22906250.54446
  22701000.743 6  -9124765.770 6  -7062969.80547  22700994.25947
  19862387.899 7  -3688453.668 7  -2861642.62949  19862387.04849
  20997141.329 6  -9575472.828 6  -7396974.94948  20997139.09548
  23218029.993 5  -1607153.969 5  -1243270.01246  23218028.15746
  20713360.751 7  -4331304.375 7  -3356409.07048  20713355.61048
  22285224.704 6   -914005.758 6   -710921.10947  22285223.91547
 18  5 30  0 44  4.9960000  0 10G03G14G16G22G23G26G27G29G31G32       0.000491295
  22868667.152 3  -4300060.020 3  -3127787.57845  22868664.93045
  19961843.809 6  -2979787.297 6  -2312111.08248  19961839.18448
  19514485.356 6  -5714704.008 6  -4429602.46148  19514480.05948
  22903726.645 5  -3489744.953 5  -2703514.86346  22903720.64146
  22694058.871 6  -9161246.586 6  -7091396.41047  22694052.85247
  19859713.293 7  -3702511.395 7  -2872596.70349  19859711.86349
  20990105.434 6  -9612446.250 6  -7425785.39848  20990103.63348
  23216966.535 5  -1612745.301 5  -1247626.88746  23216963.93046
  20710136.504 7  -4348247.965 7  -3369611.87548  20710131.46148
  22284588.746 6   -917350.188 6   -713527.18447  22284586.93447
 18  5 30  0 44  9.9960000  0 10G03G14G16G22G23G26G27G29G31G32       0.000478359
  22865650.863 3  -4315908.383 3  -3140136.89145  22865648.85945
  19959876.902 6  -2990127.543 6  -2320168.42648  19959871.11348
  19510448.902 6  -5735916.699 6  -4446131.84048  19510443.66448
  22901196.910 5  -3503039.422 5  -2713874.20746  22901191.20346
  22687115.731 6  -9197732.000 6  -7119826.61347  22687109.55147
  19857037.996 7  -3716568.906 7  -2883550.59849  19857036.45349
  20983069.145 6  -9649422.367 6  -7454597.95348  20983067.28148
  23215902.668 5  -1618331.953 5  -1251980.14546  23215901.22346
  20706911.988 7  -4365193.953 7  -3382816.53948  20706906.86348
  22283952.309 6   -920692.215 6   -716131.37547  22283950.94147
 18  5 30  0 44 14.9960000  0 10G03G14G16G22G23G26G27G29G31G32       0.000465422
  22862636.660 3  -4331749.824 3  -3152480.93045  22862634.02045
  19957910.559 6  -3000457.570 6  -2328217.79348  19957905.89548
  19506413.738 6  -5757121.473 6  -4462655.03948  19506408.43848
  22898667.145 5  -3516331.844 5  -2724231.94146  22898661.52746
  22680173.410 6  -9234214.840 6  -7148254.80547  22680167.01647
  19854363.660 7  -3730623.512 7  -2894502.24649  19854361.73849
  20976033.707 6  -9686393.918 6  -7483406.95748  20976031.97748
  23214840.668 5  -1623912.922 5  -1256328.96146  23214839.11346
  20703687.043 7  -4382139.043 7  -3396020.50448  20703682.25448
  22283317.293 6   -924031.320 6   -718733.29747  22283315.36347
 18  5 30  0 44 19.9960000  0 10G03G14G16G22G23G26G27G29G31G32       0.000452482
  22859623.246 3  -4347583.906 3  -3164819.16845  22859621.02045
  19955947.113 6  -3010776.824 6  -2336258.78148  19955942.82048
  19502379.941 6  -5778317.824 6  -4479171.68048  19502374.96148
  22896139.168 5  -3529621.711 5  -2734587.69146  22896132.49246
  22673231.660 6  -9270694.563 6  -7176680.56647  22673225.10647
  19851689.731 7  -3744674.750 7  -2905451.26248  19851688.22348
  20968999.293 7  -9723360.320 7  -7512211.94148  20968997.15248
  23213780.371 5  -1629487.773 5  -1260673.02346  23213778.62946
  20700463.059 7  -4399082.719 7  -3409223.37148  20700458.23848
  22282682.379 6   -927366.996 6   -721332.53947  22282681.02047
 18  5 30  0 44 24.9960000  0 10G03G14G16G22G23G26G27G29G31G32       0.000439543
  22856612.004 3  -4363410.941 3  -3177151.97345  22856609.05945
  19953985.301 6  -3021085.699 6  -2344291.67248  19953980.62548
  19498348.449 7  -5799506.121 7  -4495682.03948  19498342.54348
  22893610.410 5  -3542909.441 5  -2744941.77746  22893603.75846
  22666289.957 6  -9307171.484 6  -7205104.16047  22666283.67247
  19849016.348 7  -3758722.926 7  -2916397.89549  19849015.04349
  20961965.981 7  -9760321.918 7  -7541013.18448  20961963.74248
  23212720.059 5  -1635056.855 5  -1265012.58246  23212718.20346
  20697239.254 7  -4416025.379 7  -3422425.45348  20697234.44548
  22282048.324 6   -930699.613 6   -723929.40247  22282046.85947
 18  5 30  0 44 29.9960000  0 10G03G14G16G22G23G26G27G29G31G32       0.000426600
  22853600.926 3  -4379230.613 3  -3189479.03145  22853598.64145
  19952025.434 6  -3031383.871 6  -2352316.23448  19952021.18848
  19494317.816 7  -5820685.965 7  -4512185.81348  19494312.04748
  22891081.918 5  -3556194.633 5  -2755293.88746  22891075.70346
  22659349.059 6  -9343645.258 6  -7233525.29347  22659343.56347
  19846343.762 7  -3772767.711 7  -2927341.89149  19846342.21949
  20954933.465 7  -9797278.375 7  -7569810.42248  20954931.16848
  23211661.332 5  -1640619.805 5  -1269347.34846  23211660.03946
  20694015.301 7  -4432966.582 7  -3435626.39848  20694010.10248
  22281414.676 6   -934028.781 6   -726523.59047  22281413.50847
 18  5 30  0 44 34.9960000  0 10G03G14G16G22G23G26G27G29G31G32       0.000413656
  22850591.934 3  -4395043.480 3  -3201800.75445  22850589.88745
  19950067.988 6  -3041671.832 6  -2360332.82848  19950063.50048
  19490289.160 7  -5841857.980 7  -4528683.49248  19490283.29348
  22888554.402 5  -3569477.867 5  -2765644.46546  22888548.39846
  22652409.051 6  -9380116.398 6  -7261944.36347  22652402.87547
  19843671.785 7  -3786809.688 7  -2938283.69148  19843669.97748
  20947901.871 6  -9834230.180 6  -7598604.03148  20947899.54348
  23210604.301 5  -1646177.203 5  -1273677.80146  23210602.09446
  20690791.856 7  -4449906.957 7  -3448826.69548  20690786.90248
  22280781.387 6   -937355.129 6   -729115.56647  22280780.35647
 18  5 30  0 44 39.9960000  0 10G03G14G16G22G23G26G27G29G31G32       0.000400709
  22847584.043 3  -4410849.156 3  -3214116.86745  22847582.36745
  19948112.004 6  -3051949.227 6  -2368341.19948  19948107.94148
  19486261.551 6  -5863021.715 6  -4545174.71948  19486255.73448
  22886026.918 5  -3582758.773 5  -2775993.21146  22886020.44146
  22645469.176 5  -9416584.473 5  -7290361.04746  22645463.10946
  19841000.324 7  -3800848.418 7  -2949222.97348  19840998.57448
  20940870.973 7  -9871176.957 7  -7627393.72348  20940868.66448
  23209548.277 5  -1651728.629 5  -1278003.60546  23209545.67246
  20687568.340 7  -4466846.043 7  -3462025.98848  20687563.41048
  22280149.129 6   -940678.207 6   -731705.00447  22280148.25047
 18  5 30  0 44 44.9960000  0 10G03G14G16G22G23G26G27G29G31G32       0.000387762
  22844577.691 3  -4426647.641 3  -3226427.36745  22844575.21945
  19946158.418 6  -3062216.082 6  -2376341.35248  19946154.27048
  19482235.754 7  -5884177.191 7  -4561659.50848  19482229.93848
  22883500.262 5  -3596037.398 5  -2786340.21946  22883493.16846
  22638529.770 6  -9453049.500 6  -7318775.33247  22638524.12147
  19838329.426 7  -3814883.973 7  -2960159.77048  19838327.55948
  20933841.184 7  -9908118.680 7  -7656179.47748  20933838.75448
  23208492.668 5  -1657274.156 5  -1282324.82046  23208490.93846
  20684345.035 7  -4483783.820 7  -3475224.27048  20684340.39548
  22279517.496 6   -943998.094 6   -734291.93847  22279516.72347
 18  5 30  0 44 49.9960000  0 10G03G14G16G22G23G26G27G29G31G32       0.000374813
  22841573.121 3  -4442438.938 3  -3238732.25445  22841570.57445
  19944206.910 6  -3072472.301 6  -2384333.21148  19944202.65648
  19478211.395 7  -5905324.410 7  -4578137.85948  19478206.00848
  22880973.434 5  -3609313.598 5  -2796685.29746  22880967.13746
  22631591.699 6  -9489511.480 6  -7347187.26247  22631585.66447
  19835659.356 7  -3828916.250 7  -2971094.02348  19835657.02748
  20926812.418 7  -9945055.273 7  -7684961.23448  20926810.14548
  23207438.449 4  -1662813.711 4  -1286641.38346  23207436.32446
  20681122.191 7  -4500720.254 7  -3488421.50048  20681117.64548
  22278886.160 6   -947314.660 6   -736876.30547  22278885.00847
 18  5 30  0 44 54.9960000  0 10G03G14G16G22G23G26G27G29G31G32       0.000361862
  22838569.309 3  -4458223.391 3  -3251031.80145  22838566.68045
  19942257.043 6  -3082718.379 6  -2392317.17648  19942252.89548
  19474188.941 6  -5926463.770 6  -4594610.09048  19474183.08248
  22878447.434 5  -3622587.879 5  -2807028.91046  22878441.44946
  22624653.910 5  -9525970.816 5  -7375597.14547  22624647.46147
  19832989.504 7  -3842945.754 7  -2982026.11348  19832987.51648
  20919784.262 7  -9981987.195 7  -7713739.36348  20919781.96948
  23206385.645 4  -1668347.734 4  -1290953.61346  23206383.26246
  20677899.449 7  -4517655.758 7  -3501617.99648  20677894.36748
  22278255.004 6   -950628.449 6   -739458.49647  22278254.94947
 18  5 30  0 44 59.9960000  0 10G03G14G16G22G23G26G27G29G31G32       0.000348909
  22835567.449 3  -4474000.801 3  -3263325.89845  22835564.64845
  19940309.387 6  -3092953.934 6  -2400292.94148  19940305.38748
  19470167.816 6  -5947594.977 6  -4611075.96148  19470161.71148
  22875921.871 5  -3635859.918 5  -2817370.77346  22875915.76646
  22617716.449 5  -9562427.047 5  -7404004.59446  22617710.27046
  19830320.191 7  -3856972.086 7  -2992955.73448  19830318.26248
  20912757.731 7 -10018914.035 7  -7742513.52348  20912755.23148
  23205333.379 3  -1673875.898 3  -1295261.27046  23205331.12546
  20674677.004 7  -4534590.035 7  -3514813.55148  20674671.89548
  22277625.426 6   -953939.031 6   -742038.19547  22277625.08647
 18  5 30  0 45  4.9960000  0 10G03G14G16G22G23G26G27G29G31G32       0.000335955
  22832565.598 3  -4489771.238 3  -3275614.50845  22832563.36745
  19938363.387 6  -3103179.129 6  -2408260.62548  19938359.16848
  19466148.363 6  -5968718.133 6  -4627535.57448  19466142.30148
  22873396.152 5  -3649129.852 5  -2827710.98046  22873390.68446
  22610779.332 5  -9598880.410 5  -7432409.80946  22610773.36346
  19827651.637 7  -3870995.445 7  -3003883.02748  19827649.94148
  20905731.418 7 -10055835.953 7  -7771283.84048  20905729.32848
  23204283.059 3  -1679398.344 3  -1299564.49646  23204279.64146
  20671454.973 7  -4551523.211 7  -3528008.23048  20671449.89148
  22276995.621 6   -957246.656 6   -744615.59447  22276995.59047
 18  5 30  0 45  9.9960000  0 10G03G14G16G22G23G26G27G29G31G32       0.000322998
  22829566.762 3  -4505534.965 3  -3287897.97745  22829563.67645
  19936419.566 6  -3113394.230 6  -2416220.44948  19936415.44148
  19462130.129 6  -5989833.488 6  -4643989.10248  19462124.26648
  22870872.520 5  -3662397.941 5  -2838049.76646  22870866.44946
  22603843.363 5  -9635331.098 5  -7460812.95346  22603837.23446
  19824983.582 7  -3885016.047 7  -3014808.17648  19824981.77348
  20898705.926 7 -10092753.191 7  -7800050.52048  20898703.88348
  23203233.395 3  -1684915.383 3  -1303863.53146  23203230.16446
  20668232.699 7  -4568455.473 7  -3541202.20348  20668227.58248
  22276367.020 6   -960551.527 6   -747190.83247  22276366.74247
 18  5 30  0 45 14.9960000  0 10G03G14G16G22G23G26G27G29G31G32       0.000310040
  22826567.113 3  -4521291.438 3  -3300175.70745  22826565.27345
  19934477.746 6  -3123598.664 6  -2424171.96548  19934473.78548
  19458113.535 7  -6010940.492 7  -4660436.12548  19458107.60948
  22868348.270 5  -3675663.609 5  -2848386.66846  22868342.01646
  22596907.004 5  -9671778.563 5  -7489213.58646  22596900.84446
  19822316.348 7  -3899033.355 7  -3025730.76648  19822314.53148
  20891681.715 7 -10129665.168 7  -7828813.09448  20891679.72748
  23202184.199 3  -1690426.383 3  -1308157.80946  23202181.23846
  20665010.887 7  -4585386.277 7  -3554395.03948  20665005.84448
  22275738.496 6   -963853.102 6   -749763.50047  22275738.56347
 18  5 30  0 45 19.9960000  0 10G03G14G16G22G23G26G27G29G31G32       0.000297081
  22823569.902 3  -4537040.906 3  -3312448.03545  22823568.10945
  19932537.801 6  -3133792.691 6  -2432115.36348  19932533.89148
  19454098.473 7  -6032039.473 7  -4676876.88748  19454092.65648
  22865824.051 5  -3688927.230 5  -2858721.94946  22865817.82446
  22589971.934 5  -9708223.016 5  -7517611.85246  22589965.57446
  19819649.465 7  -3913047.652 7  -3036651.00848  19819647.34048
  20884658.926 7 -10166572.090 7  -7857571.73848  20884656.26648
  23201136.527 4  -1695931.664 4  -1312447.66846  23201133.64846
  20661789.418 7  -4602315.934 7  -3567586.97748  20661784.57848
  22275110.731 6   -967151.613 6   -752333.78547  22275110.73847
 18  5 30  0 45 24.9960000  0 10G03G14G16G22G23G26G27G29G31G32       0.000284121
  22820574.941 3  -4552783.211 3  -3324714.80545  22820573.00845
  19930600.348 6  -3143976.164 6  -2440050.54348  19930596.03548
  19450085.270 7  -6053130.191 7  -4693311.21548  19450079.26648
  22863299.996 5  -3702188.492 5  -2869055.40646  22863294.00846
  22583037.160 5  -9744664.273 5  -7546007.64546  22583030.78146
  19816983.199 7  -3927058.754 7  -3047568.75448  19816981.26248
  20877636.559 7 -10203473.809 7  -7886326.32048  20877633.85648
  23200089.777 4  -1701431.082 4  -1316732.93446  23200087.10946
  20658567.871 7  -4619244.230 7  -3580777.85948  20658562.66048
  22274483.965 6   -970446.984 6   -754901.62547  22274483.14547
 18  5 30  0 45 29.9960000  0 10G03G14G16G22G23G26G27G29G31G32       0.000271156
  22817580.285 3  -4568518.430 3  -3336976.00045  22817578.37945
  19928664.363 6  -3154149.098 6  -2447977.50848  19928660.43848
  19446073.121 7  -6074212.781 7  -4709739.20748  19446067.41448
  22860776.777 5  -3715447.574 5  -2879387.17646  22860771.11346
  22576103.043 5  -9781102.344 5  -7574400.95346  22576096.84846
  19814317.356 7  -3941066.750 7  -3058484.07848  19814315.57448
  20870615.027 7 -10240370.398 7  -7915076.90248  20870613.03148
  23199044.676 4  -1706924.656 4  -1321013.64146  23199041.85946
  20655346.832 7  -4636171.238 7  -3593967.74248  20655342.01248
  22273857.090 6   -973739.219 6   -757467.02347  22273856.90247
 18  5 30  0 45 34.9960000  0 10G03G14G16G22G23G26G27G29G31G32       0.000258192
  22814587.379 3  -4584246.852 3  -3349231.90245  22814585.69545
  19926730.441 6  -3164311.855 6  -2455896.54748  19926726.55548
  19442063.059 7  -6095287.473 7  -4726161.04748  19442056.95748
  22858253.832 4  -3728704.695 4  -2889717.42646  22858248.28546
  22569169.309 5  -9817537.559 5  -7602792.02046  22569163.12146
  19811652.332 7  -3955071.906 7  -3069397.19148  19811650.07448
  20863595.363 7 -10277262.039 7  -7943823.63348  20863592.18448
  23198000.113 4  -1712412.668 4  -1325290.00646  23197997.62146
  20652125.879 7  -4653097.199 7  -3607156.80548  20652121.08648
  22273231.582 6   -977028.598 6   -760030.19947  22273231.27747
 18  5 30  0 45 39.9960000  0 10G03G14G16G22G23G26G27G29G31G32       0.000245226
  22811595.238 3  -4599968.176 3  -3361482.29745  22811593.91045
  19924798.410 6  -3174464.039 6  -2463807.34448  19924794.42648
  19438054.090 7  -6116353.898 7  -4742576.44948  19438048.44148
  22855732.723 5  -3741959.609 5  -2900045.93846  22855725.94946
  22562237.129 5  -9853969.504 5  -7631180.52346  22562229.96546
  19808988.199 7  -3969073.875 7  -3080307.81348  19808985.83648
  20856575.863 7 -10314148.383 7  -7972566.23448  20856573.00048
  23196956.809 5  -1717894.840 5  -1329561.85545  23196953.55945
  20648905.231 7  -4670021.727 7  -3620344.75048  20648900.75448
  22272605.902 6   -980314.809 6   -762590.90247  22272605.85647
 18  5 30  0 45 44.9960000  0 10G03G14G16G22G23G26G27G29G31G32       0.000232258
  22808606.020 3  -4615682.406 3  -3373727.17645  22808603.31645
  19922868.832 6  -3184605.781 6  -2471710.00448  19922864.21948
  19434046.910 6  -6137412.176 6  -4758985.50448  19434041.21148
  22853210.574 5  -3755212.336 5  -2910372.75046  22853204.52746
  22555305.309 5  -9890398.305 5  -7659566.59846  22555297.85646
  19806324.441 7  -3983072.750 7  -3091216.03148  19806321.86748
  20849557.949 7 -10351029.539 7  -8001304.80148  20849554.79748
  23195914.566 4  -1723371.262 4  -1333829.21945  23195911.69145
  20645684.754 7  -4686944.926 7  -3633531.66048  20645680.10948
  22271981.277 6   -983597.938 6   -765149.19147  22271981.29747
 18  5 30  0 45 49.9960000  0 10G03G14G16G22G23G26G27G29G31G32       0.000219288
  22805616.840 3  -4631389.625 3  -3385966.60245  22805614.08645
  19920941.074 6  -3194737.070 6  -2479604.51648  19920936.38348
  19430041.238 6  -6158462.340 6  -4775388.22748  19430035.53148
  22850688.770 5  -3768462.891 5  -2920697.85546  22850683.02746
  22548373.020 5  -9926823.988 5  -7687950.23446  22548366.10646
  19803660.613 7  -3997068.563 7  -3102121.86348  19803658.66448
  20842540.316 6 -10387905.480 6  -8030039.30148  20842538.06648
  23194873.176 4  -1728841.879 4  -1338092.02345  23194871.07845
  20642464.863 7  -4703866.848 7  -3646717.57848  20642460.35248
  22271356.949 6   -986878.012 6   -767705.10947  22271357.28147
 18  5 30  0 45 54.9960000  0 10G03G14G16G22G23G26G27G29G31G32       0.000206316
  22802628.356 3  -4647089.926 3  -3398200.58245  22802626.26245
  19919014.723 6  -3204858.047 6  -2487490.99648  19919010.21548
  19426036.918 6  -6179504.480 6  -4791784.70348  19426031.12548
  22848167.926 5  -3781711.441 5  -2931021.41446  22848161.85246
  22541441.832 5  -9963246.621 5  -7716331.50846  22541435.54746
  19800998.309 7  -4011061.418 7  -3113025.39548  19800996.01648
  20835523.957 7 -10424776.328 7  -8058769.83248  20835521.41048
  23193833.770 4  -1734306.941 4  -1342350.55146  23193831.72346
  20639245.059 7  -4720787.555 7  -3659902.55148  20639240.17648
  22270733.324 6   -990155.137 6   -770258.73047  22270733.59847
 18  5 30  0 45 59.9960000  0 10G03G14G16G22G23G26G27G29G31G32       0.000193344
  22799642.246 3  -4662782.984 3  -3410428.94945  22799640.35945
  19917090.488 6  -3214968.266 6  -2495369.08648  19917086.78948
  19422034.168 6  -6200538.207 6  -4808174.62548  19422028.89148
  22845647.184 5  -3794957.566 5  -2941343.08246  22845641.59446
  22534512.106 5  -9999665.770 5  -7744710.06646  22534504.88346
  19798336.074 7  -4025050.953 7  -3123926.32448  19798333.89548
  20828508.996 7 -10461641.664 7  -8087496.07448  20828506.14148
  23192794.074 4  -1739765.930 4  -1346604.30145  23192793.17245
  20636025.348 7  -4737706.668 7  -3673086.28148  20636020.84848
  22270110.668 6   -993428.965 6   -772809.80147  22270110.90647
 18  5 30  0 46  4.9960000  0 10G03G14G16G22G23G26G27G29G31G32       0.000180370
  22796658.160 3  -4678469.242 3  -3422652.00445  22796655.77045
  19915169.020 6  -3225068.262 6  -2503239.22748  19915164.60248
  19418033.004 6  -6221564.055 6  -4824558.40648  19418027.69148
  22843127.543 5  -3808201.797 5  -2951663.26646  22843120.72746
  22527582.020 5 -10036081.930 5  -7773086.28146  22527574.97346
  19795674.207 7  -4039037.645 7  -3134825.05148  19795672.44548
  20821494.512 6 -10498501.965 6  -8116218.37548  20821492.14548
  23191756.856 4  -1745219.430 4  -1350853.78145  23191755.42245
  20632806.035 7  -4754624.691 7  -3686269.16048  20632801.61748
  22269487.949 6   -996699.961 6   -775358.66047  22269488.94947
 18  5 30  0 46  9.9960000  0 10G03G14G16G22G23G26G27G29G31G32       0.000167393
  22793674.223 3  -4694149.094 3  -3434870.04345  22793672.08645
  19913249.246 6  -3235158.422 6  -2511101.69948  19913244.84048
  19414033.402 6  -6242582.371 6  -4840936.32448  19414028.16048
  22840606.684 5  -3821444.480 5  -2961982.25447  22840601.16447
  22520652.824 5 -10072495.461 5  -7801460.48046  22520645.75846
  19793013.457 7  -4053021.895 7  -3145721.86748  19793011.23448
  20814481.129 6 -10535357.570 6  -8144937.03548  20814478.50048
  23190719.840 4  -1750667.762 4  -1355099.25845  23190718.35245
  20629586.965 7  -4771541.941 7  -3699451.43448  20629582.30148
  22268866.410 6   -999968.563 6   -777905.64547  22268867.03147
 18  5 30  0 46 14.9960000  0 10G03G14G16G22G23G26G27G29G31G32       0.000154415
  22790692.090 4  -4709821.793 4  -3447082.56645  22790689.45745
  19911330.816 6  -3245237.926 6  -2518955.85248  19911326.37948
  19410035.551 6  -6263592.398 6  -4857307.77048  19410030.06348
  22838087.254 5  -3834684.859 5  -2972299.42646  22838081.48446
  22513724.137 5 -10108905.551 5  -7829831.97346  22513717.78946
  19790352.973 7  -4067002.867 7  -3156616.12948  19790351.30548
  20807468.754 6 -10572207.684 6  -8173651.40648  20807466.06348
  23189684.762 4  -1756110.156 4  -1359340.08245  23189683.12145
  20626367.816 7  -4788457.656 7  -3712632.52048  20626363.37148
  22268245.066 6  -1003233.910 6   -780450.09047  22268245.66847
 18  5 30  0 46 19.9960000  0 10G03G14G16G22G23G26G27G29G31G32       0.000141436
  22787710.098 4  -4725487.508 4  -3459289.62945  22787708.43845
  19909414.363 6  -3255307.031 6  -2526801.91848  19909410.11348
  19406038.918 6  -6284594.320 6  -4873672.90248  19406033.43848
  22835568.176 5  -3847923.098 5  -2982614.94946  22835562.59846
  22506796.066 5 -10145312.418 5  -7858200.94546  22506789.08646
  19787692.754 7  -4080980.828 7  -3167508.04348  19787691.16048
  20800457.660 7 -10609052.480 7  -8202361.63348  20800454.96148
  23188650.184 4  -1761546.926 4  -1363576.54746  23188648.75846
  20623149.152 7  -4805372.031 7  -3725812.55948  20623144.51248
  22267624.082 6  -1006496.273 6   -782992.21547  22267625.16047
 18  5 30  0 46 24.9960000  0 10G03G14G16G22G23G26G27G29G31G32       0.000128454
  22784731.363 4  -4741145.980 4  -3471491.02345  22784728.39145
  19907500.152 6  -3265365.445 6  -2534639.64148  19907495.96148
  19402044.277 6  -6305587.898 6  -4890031.52748  19402038.43848
  22833049.402 5  -3861159.051 5  -2992928.69946  22833043.87546
  22499869.098 5 -10181715.734 5  -7886567.18846  22499861.96146
  19785033.488 7  -4094955.504 7  -3178397.39548  19785031.83648
  20793447.371 7 -10645891.699 7  -8231067.51248  20793444.97348
  23187617.035 5  -1766977.766 5  -1367808.30546  23187615.44546
  20619930.715 7  -4822284.809 7  -3738991.34848  20619926.25048
  22267004.762 6  -1009755.391 6   -785531.80947  22267004.86347
 18  5 30  0 46 29.9960000  0 10G03G14G16G22G23G26G27G29G31G32       0.000115471
  22781753.301 5  -4756797.645 5  -3483687.14146  22781750.46146
  19905588.316 6  -3275413.594 6  -2542469.37548  19905583.69148
  19398050.223 6  -6326573.539 6  -4906383.97348  19398045.34848
  22830531.309 5  -3874392.996 5  -3003240.86747  22830525.60947
  22492942.270 5 -10218115.863 5  -7914930.89546  22492935.43046
  19782374.574 7  -4108927.320 7  -3189284.52748  19782372.93448
  20786437.801 7 -10682725.742 7  -8259769.36348  20786435.46948
  23186584.512 5  -1772403.063 5  -1372035.85946  23186582.76646
  20616712.332 7  -4839196.340 7  -3752169.16848  20616708.09848
  22266384.660 6  -1013011.652 6   -788069.16847  22266385.15647
 18  5 30  0 46 34.9960000  0 10G03G14G16G22G23G26G27G29G31G32       0.000102488
  22778776.723 5  -4772442.207 5  -3495877.71146  22778773.19146
  19903678.559 6  -3285451.125 6  -2550290.84048  19903673.98448
  19394058.621 7  -6347550.934 7  -4922729.99648  19394053.48848
  22828013.348 5  -3887624.652 5  -3013551.25046  22828007.88346
  22486016.231 5 -10254512.555 5  -7943291.95746  22486009.55146
  19779716.637 7  -4122895.953 7  -3200169.17648  19779714.94948
  20779429.434 7 -10719554.230 7  -8288466.88748  20779427.19148
  23185553.527 5  -1777822.543 5  -1376258.80546  23185551.62546
  20613494.762 7  -4856106.328 7  -3765345.78948  20613490.13348
  22265766.059 6  -1016264.781 6   -790604.09047  22265766.77047
 18  5 30  0 46 39.9960000  0 10G03G14G16G22G23G26G27G29G31G32       0.000089500
  22775801.020 5  -4788079.977 5  -3508062.97746  22775797.53946
  19901770.191 6  -3295478.410 6  -2558104.31348  19901765.98448
  19390068.285 6  -6368520.430 6  -4939069.86348  19390062.98148
  22825495.840 5  -3900854.457 5  -3023860.19947  22825489.80947
  22479090.801 5 -10290906.141 5  -7971650.58246  22479083.96946
  19777058.879 7  -4136861.742 7  -3211051.61348  19777057.29348
  20772422.645 7 -10756377.539 7  -8317160.37548  20772420.11748
  23184523.402 5  -1783236.520 5  -1380477.49646  23184521.78946
  20610277.199 7  -4873015.109 7  -3778521.46148  20610271.63748
  22265147.699 6  -1019515.113 6   -793136.83647  22265148.12547
 18  5 30  0 46 44.9960000  0 10G03G14G16G22G23G26G27G29G31G32       0.000076513
  22772826.645 5  -4803710.598 5  -3520242.68846  22772823.36346
  19899864.254 6  -3305495.070 6  -2565909.51248  19899859.88348
  19386079.434 6  -6389481.598 6  -4955403.24248  19386074.19548
  22822978.699 5  -3914082.094 5  -3034167.44946  22822972.90646
  22472166.434 5 -10327296.160 5  -8000006.43046  22472159.19946
  19774401.738 7  -4150824.289 7  -3221931.52748  19774400.72348
  20765416.504 7 -10793195.230 7  -8345849.48048  20765414.03548
  23183493.856 5  -1788644.602 5  -1384691.55946  23183492.84846
  20607059.527 7  -4889922.285 7  -3791695.88748  20607054.85948
  22264529.457 6  -1022762.242 6   -795667.09447  22264529.78547
 18  5 30  0 46 49.9960000  0 10G03G14G16G22G23G26G27G29G31G32       0.000063524
  22769852.809 5  -4819334.820 5  -3532417.42646  22769850.52746
  19897959.988 6  -3315501.871 6  -2573707.00848  19897955.22348
  19382092.012 6  -6410435.273 6  -4971730.78548  19382086.90248
  22820461.574 5  -3927308.199 5  -3044473.51246  22820455.66046
  22465241.699 5 -10363683.402 5  -8028360.12546  22465234.82046
  19771745.598 7  -4164784.422 7  -3232809.55548  19771743.93048
  20758411.441 7 -10830008.031 7  -8374534.78548  20758408.78548
  23182465.809 5  -1794047.676 5  -1388901.76246  23182464.02046
  20603842.449 7  -4906828.629 7  -3804869.67648  20603837.62148
  22263912.246 6  -1026006.969 6   -798195.46947  22263912.16847
 18  5 30  0 46 54.9960000  0 10G03G14G16G22G23G26G27G29G31G32       0.000050533
  22766881.488 5  -4834952.355 5  -3544586.91446  22766878.82846
  19896057.395 6  -3325498.504 6  -2581496.60248  19896053.14548
  19378106.113 6  -6431381.063 6  -4988052.17648  19378101.02748
  22817944.715 5  -3940532.488 5  -3054778.16446  22817939.28546
  22458317.895 5 -10400067.438 5  -8056711.32846  22458311.12146
  19769089.840 7  -4178741.738 7  -3243685.39148  19769087.83648
  20751406.934 7 -10866815.648 7  -8403216.04348  20751405.37148
  23181438.512 5  -1799445.254 5  -1393107.67646  23181437.16046
  20600625.434 7  -4923733.754 7  -3818042.50448  20600620.85248
  22263295.238 6  -1029248.961 6   -800721.71547  22263295.88747
 18  5 30  0 46 59.9960000  0 10G03G14G16G22G23G26G27G29G31G32       0.000037540
  22763910.332 5  -4850562.758 5  -3556750.86746  22763908.41446
  19894156.965 6  -3335484.551 6  -2589277.94548  19894152.49648
  19374121.996 6  -6452318.582 6  -5004367.12148  19374116.66848
  22815428.918 5  -3953754.602 5  -3065081.10946  22815423.89146
  22451395.285 5 -10436447.902 5  -8085059.73446  22451388.72746
  19766434.106 7  -4192695.910 7  -3254558.77348  19766432.72748
  20744403.488 7 -10903617.621 7  -8431892.89548  20744401.86748
  23180412.207 5  -1804837.055 5  -1397309.09046  23180411.34046
  20597408.840 7  -4940637.289 7  -3831214.09048  20597403.89548
  22262678.746 6  -1032487.801 6   -803245.51247  22262679.36747
 18  5 30  0 47  4.9960000  0 10G03G14G16G22G23G26G27G29G31G32       0.000024546
  22760941.356 5  -4866166.223 5  -3568909.42246  22760938.96146
  19892258.871 6  -3345460.191 6  -2597051.17648  19892254.57848
  19370139.410 6  -6473248.000 6  -5020675.76648  19370134.03548
  22812913.746 5  -3966974.621 5  -3075382.43046  22812907.84446
  22444472.770 5 -10472824.992 5  -8113405.53146  22444466.48446
  19763779.402 7  -4206647.070 7  -3265429.83648  19763778.22348
  20737401.652 7 -10940414.074 7  -8460565.44948  20737399.72348
  23179387.566 5  -1810223.152 5  -1401506.05546  23179386.14546
  20594192.457 7  -4957539.352 7  -3844384.53148  20594187.49648
  22262063.504 6  -1035723.711 6   -805767.02747  22262063.83247
 18  5 30  0 47  9.9960000  0 10G03G14G16G22G23G26G27G29G31G32       0.000011551
  22757972.879 5  -4881762.887 5  -3581062.68846  22757971.08246
  19890362.613 6  -3355425.602 6  -2604816.44148  19890357.75848
  19366158.043 6  -6494169.477 6  -5036978.21548  19366152.31648
  22810398.254 5  -3980192.805 5  -3085682.32847  22810392.24247
  22437551.238 5 -10509198.785 5  -8141748.75046  22437544.16046
  19761125.035 7  -4220595.402 7  -3276298.68449  19761123.53949
  20730400.652 7 -10977205.230 7  -8489233.88348  20730398.31648
  23178363.707 5  -1815603.828 5  -1405698.79746  23178361.57446
  20590976.277 7  -4974440.109 7  -3857553.97348  20590971.46548
  22261447.949 6  -1038956.816 6   -808286.35547  22261447.85247
 18  5 30  0 47 14.9960000  0 10G03G14G16G22G23G26G27G29G31G32      -0.000001448
  22755006.223 5  -4897352.590 5  -3593210.51646  22755004.77746
  19888468.793 6  -3365380.480 6  -2612573.48848  19888463.71948
  19362178.348 6  -6515082.813 6  -5053274.32048  19362172.87148
  22807883.473 5  -3993408.883 5  -3095980.57446  22807877.28946
  22430630.434 5 -10545569.016 5  -8170089.18046  22430623.47346
  19758471.543 7  -4234540.609 7  -3287165.10249  19758470.04749
  20723400.332 7 -11013990.723 7  -8517897.90648  20723398.40248
  23177340.426 5  -1820978.801 5  -1409887.09846  23177339.21146
  20587760.113 7  -4991339.297 7  -3870722.16848  20587755.91048
  22260833.121 6  -1042186.875 6   -810803.30147  22260833.34847
 18  5 30  0 47 19.9960000  0 10G03G14G16G22G23G26G27G29G31G32      -0.000014446
  22752041.207 5  -4912935.633 5  -3605353.17246  22752038.52746
  19886575.965 6  -3375325.258 6  -2620322.66848  19886571.65248
  19358200.465 6  -6535988.352 6  -5069564.35248  19358194.86348
  22805369.090 5  -4006623.262 5  -3106277.50447  22805362.95347
  22423710.512 5 -10581936.133 5  -8198427.21546  22423703.44146
  19755818.262 7  -4248483.152 7  -3298029.43449  19755816.66449
  20716401.441 7 -11050771.004 7  -8546557.85548  20716399.46948
  23176319.262 4  -1826348.449 4  -1414071.24646  23176316.78946
  20584544.918 7  -5008237.328 7  -3883889.47348  20584540.02048
  22260219.488 6  -1045414.320 6   -813318.20747  22260218.91047
 18  5 30  0 47 24.9960000  0 10G03G14G16G22G23G26G27G29G31G32      -0.000027449
  22749077.879 5  -4928511.848 5  -3617490.47746  22749074.85946
  19884685.668 6  -3385259.621 6  -2628063.74248  19884681.39848
  19354223.262 6  -6556885.844 6  -5085848.11348  19354217.71948
  22802854.332 5  -4019835.613 5  -3116572.84846  22802848.79746
  22416790.121 6 -10618299.746 6  -8226762.49646  22416783.60946
  19753166.020 7  -4262422.730 7  -3308891.45748  19753164.39148
  20709403.488 7 -11087545.754 7  -8575213.50048  20709401.60248
  23175299.090 4  -1831712.496 4  -1418250.99646  23175295.97746
  20581329.395 7  -5025133.805 7  -3897055.57448  20581324.91848
  22259605.434 6  -1048638.891 6   -815830.87147  22259605.61347
 18  5 30  0 47 29.9960000  0 10G03G14G16G22G23G26G27G29G31G32      -0.000040449
  22746114.856 5  -4944080.703 5  -3629622.04346  22746112.40646
  19882797.434 6  -3395183.188 6  -2635796.38748  19882793.19948
  19350248.402 6  -6577774.867 6  -5102125.27048  19350242.88348
  22800341.035 5  -4033045.617 5  -3126866.37146  22800334.69146
  22409871.785 6 -10654659.484 6  -8255094.74646  22409864.70746
  19750513.793 7  -4276358.895 7  -3319750.80549  19750512.53549
  20702406.668 7 -11124314.543 7  -8603864.50448  20702404.14548
  23174279.785 4  -1837070.590 4  -1422426.10246  23174276.16446
  20578114.723 7  -5042028.438 7  -3910220.23048  20578109.60948
  22258992.762 6  -1051860.129 6   -818340.95347  22258992.94547
 18  5 30  0 47 34.9960000  0 10G03G14G16G22G23G26G27G29G31G32      -0.000053453
  22743153.590 5  -4959643.094 5  -3641748.60246  22743151.08246
  19880910.387 6  -3405096.691 6  -2643521.19548  19880906.52348
  19346274.613 6  -6598656.125 6  -5118396.37948  19346269.59848
  22797826.457 5  -4046253.969 5  -3137158.60547  22797820.99647
  22402953.207 6 -10691016.035 6  -8283424.51647  22402946.47747
  19747862.176 7  -4290292.398 7  -3330608.07449  19747861.09449
  20695411.090 7 -11161078.070 7  -8632511.40648  20695408.62148
  23173261.316 4  -1842423.398 4  -1426597.13346  23173257.18046
  20574899.715 7  -5058921.922 7  -3923383.99248  20574895.18848
  22258380.223 6  -1055078.781 6   -820849.02047  22258380.41847
 18  5 30  0 47 39.9960000  0 10G03G14G16G22G23G26G27G29G31G32      -0.000066460
  22740193.324 5  -4975198.434 5  -3653869.63746  22740191.02746
  19879025.832 7  -3414999.691 7  -2651237.83248  19879021.50848
  19342303.035 7  -6619529.254 7  -5134661.16048  19342297.61748
  22795313.949 5  -4059460.211 5  -3147449.20346  22795308.00446
  22396035.340 6 -10727368.957 6  -8311751.46146  22396029.11346
  19745211.418 7  -4304222.840 7  -3341462.96949  19745210.48149
  20688415.715 7 -11197835.887 7  -8661153.86348  20688413.96148
  23172243.941 4  -1847770.547 4  -1430763.73046  23172239.93046
  20571685.285 7  -5075813.785 7  -3936546.48448  20571680.68048
  22257768.051 6  -1058294.430 6   -823354.73447  22257768.47347
 18  5 30  0 47 44.9960000  0 10G03G14G16G22G23G26G27G29G31G32      -0.000079468
  22737234.043 5  -4990747.215 5  -3665985.55546  22737232.30546
  19877143.723 7  -3424892.598 7  -2658946.59048  19877139.53148
  19338332.371 6  -6640394.586 6  -5150919.85948  19338326.94548
  22792801.395 5  -4072664.805 5  -3157738.50847  22792795.51247
  22389118.746 6 -10763718.594 6  -8340075.84447  22389111.76247
  19742561.027 7  -4318150.637 7  -3352315.78948  19742560.10248
  20681422.371 6 -11234588.363 6  -8689792.14848  20681419.44548
  23171226.371 4  -1853112.398 4  -1434926.21546  23171223.02046
  20568471.316 7  -5092704.469 7  -3949708.06348  20568466.23448
  22257156.309 6  -1061507.484 6   -825858.43847  22257156.80547
 18  5 30  0 47 49.9960000  0 10G03G14G16G22G23G26G27G29G31G32      -0.000092476
  22734277.410 5  -5006289.254 5  -3678096.23446  22734274.87146
  19875263.238 6  -3434775.242 6  -2666647.35548  19875258.93848
  19334363.238 6  -6661251.996 6  -5167172.38348  19334357.77748
  22790288.707 5  -4085867.480 5  -3168026.32847  22790283.19947
  22382202.410 6 -10800064.777 6  -8368397.54747  22382195.54747
  19739911.082 7  -4332075.574 7  -3363166.38348  19739910.08648
  20674429.137 7 -11271335.332 7  -8718426.14848  20674427.03548
  23170211.121 5  -1858448.809 5  -1439084.47746  23170207.42646
  20565257.356 7  -5109593.789 7  -3962868.57448  20565252.72748
  22256545.691 6  -1064717.793 6   -828360.00047  22256545.62147
 18  5 30  0 47 54.9960000  0 10G03G14G16G22G23G26G27G29G31G32      -0.000105488
  22731320.481 6  -5021824.637 6  -3690201.73446  22731318.36346
  19873384.059 6  -3444647.742 6  -2674340.21948  19873379.78948
  19330395.551 6  -6682101.594 6  -5183418.82848  19330390.11748
  22787776.926 5  -4099068.457 5  -3178312.80947  22787771.10647
  22375286.668 6 -10836407.656 6  -8396716.66047  22375279.49247
  19737261.988 7  -4345997.781 7  -3374014.86349  19737260.76649
  20667437.691 7 -11308076.871 7  -8747055.91848  20667435.37148
  23169196.340 5  -1863779.945 5  -1443238.59446  23169193.07046
  20562043.606 7  -5126481.816 7  -3976028.07448  20562038.77748
  22255934.824 6  -1067925.441 6   -830859.49247  22255935.68847
 18  5 30  0 47 59.9960000  0 10G03G14G16G22G23G26G27G29G31G32      -0.000118500
  22728365.652 5  -5037353.145 5  -3702301.87546  22728363.51646
  19871507.981 6  -3454509.816 6  -2682024.95748  19871503.09048
  19326429.512 6  -6702943.074 6  -5199658.94948  19326424.64148
  22785264.723 5  -4112267.414 5  -3188597.71147  22785259.89847
  22368371.238 6 -10872746.852 6  -8425032.91847  22368364.53547
  19734612.824 7  -4359917.012 7  -3384861.02348  19734611.75448
  20660447.191 7 -11344812.688 7  -8775681.22348  20660444.39848
  23168183.402 5  -1869105.449 5  -1447388.34446  23168180.13746
  20558830.379 7  -5143368.281 7  -3989186.37548  20558825.41848
  22255325.168 6  -1071130.160 6   -833356.70747  22255325.74647
 18  5 30  0 48  4.9960000  0 10G03G14G16G22G23G26G27G29G31G32      -0.000131514
  22725412.418 5  -5052874.621 5  -3714396.50846  22725410.34046
  19869632.887 6  -3464361.383 6  -2689701.51648  19869628.41448
  19322465.316 6  -6723776.359 6  -5215892.68448  19322459.75048
  22782753.637 5  -4125464.293 5  -3198881.02347  22782748.32047
  22361456.520 6 -10909082.277 6  -8453346.23047  22361450.16847
  19731964.793 7  -4373833.148 7  -3395704.75448  19731963.67648
  20653457.668 7 -11381542.664 7  -8804301.98448  20653454.90248
  23167171.449 5  -1874425.289 5  -1451533.69946  23167167.82046
  20555617.113 7  -5160253.051 7  -4002343.34048  20555612.93048
  22254715.770 6  -1074331.906 6   -835851.57847  22254716.40247
 18  5 30  0 48  9.9960000  0 10G03G14G16G22G23G26G27G29G31G32      -0.000144529
  22722460.129 6  -5068389.414 6  -3726485.97746  22722458.11346
  19867760.418 6  -3474202.633 6  -2697370.02748  19867756.00848
  19318502.606 6  -6744601.688 6  -5232120.20348  19318496.84448
  22780243.215 5  -4138659.387 5  -3209162.91447  22780237.34047
  22354543.059 6 -10945414.195 6  -8481656.79347  22354536.12147
  19729316.848 7  -4387746.398 7  -3406546.23448  19729315.97348
  20646469.043 7 -11418267.004 7  -8832918.34848  20646466.82048
  23166160.184 5  -1879739.676 5  -1455674.78546  23166156.61346
  20552404.543 7  -5177136.332 7  -4015499.14548  20552399.99648
  22254106.809 6  -1077530.844 6   -838344.28147  22254107.32047
 18  5 30  0 48 14.9960000  0 10G03G14G16G22G23G26G27G29G31G32      -0.000157545
  22719508.574 5  -5083897.418 5  -3738570.11746  22719506.61746
  19865889.621 6  -3484033.648 6  -2705030.55948  19865884.75848
  19314541.285 6  -6765419.059 6  -5248341.53948  19314535.47348
  22777732.277 5  -4151852.703 5  -3219443.42247  22777726.63347
  22347629.816 6 -10981742.578 6  -8509964.60947  22347623.59447
  19726669.949 7  -4401656.836 7  -3417385.52748  19726668.71948
  20639481.504 7 -11454985.730 7  -8861530.34848  20639478.97748
  23165150.363 5  -1885048.691 5  -1459811.69946  23165146.55546
  20549192.215 7  -5194018.148 7  -4028653.81648  20549187.08248
  22253498.731 6  -1080727.082 6   -840834.89147  22253499.44547
 18  5 30  0 48 19.9960000  0 10G03G14G16G22G23G26G27G29G31G32      -0.000170565
  22716558.160 5  -5099398.625 5  -3750649.02046  22716557.05146
  19864020.434 6  -3493854.301 6  -2712683.01648  19864015.99248
  19310581.332 6  -6786228.363 6  -5264556.58648  19310575.76248
  22775221.949 5  -4165044.055 5  -3229722.40247  22775216.11347
  22340717.418 6 -11018067.313 6  -8538269.59047  22340711.47347
  19724023.441 7  -4415564.355 7  -3428222.56348  19724022.09448
  20632495.262 6 -11491698.711 6  -8890137.86348  20632492.66848
  23164141.043 5  -1890352.164 5  -1463944.27346  23164137.47346
  20545979.754 7  -5210898.426 7  -4041807.27348  20545974.95748
  22252891.965 6  -1083920.426 6   -843323.24247  22252891.94547
 18  5 30  0 48 24.9960000  0 10G03G14G16G22G23G26G27G29G31G32      -0.000183584
  22713609.707 5  -5114892.730 5  -3762722.34046  22713608.53546
  19862153.949 6  -3503664.367 6  -2720327.22748  19862149.12948
  19306623.043 6  -6807029.410 6  -5280765.19148  19306617.64148
  22772712.152 5  -4178233.254 5  -3239999.72747  22772706.90647
  22333805.793 6 -11054388.141 6  -8566571.51647  22333799.31347
  19721377.324 7  -4429468.719 7  -3439057.12948  19721376.22748
  20625510.246 6 -11528405.691 6  -8918740.70348  20625507.93448
  23163133.004 5  -1895649.918 5  -1468072.41046  23163129.23446
  20542767.996 7  -5227776.906 7  -4054959.33648  20542763.42648
  22252284.590 6  -1087110.719 6   -845809.21547  22252284.89147
 18  5 30  0 48 29.9960000  0 10G03G14G16G22G23G26G27G29G31G32      -0.000196606
  22710663.082 5  -5130379.707 5  -3774790.13746  22710661.44946
  19860288.668 6  -3513463.773 6  -2727963.13348  19860284.46948
  19302666.441 6  -6827822.164 6  -5296967.34048  19302660.92248
  22770203.340 5  -4191420.293 5  -3250275.34047  22770197.10647
  22326894.574 6 -11090704.973 6  -8594870.34447  22326888.95347
  19718732.129 7  -4443369.859 7  -3449889.18848  19718730.78148
  20618526.074 6 -11565106.574 6  -8947338.79348  20618523.75448
  23162125.949 5  -1900941.895 5  -1472196.03946  23162122.21946
  20539556.473 7  -5244653.504 7  -4068109.93448  20539552.10248
  22251677.895 6  -1090297.918 6   -848292.78947  22251677.94547
 18  5 30  0 48 34.9960000  0 10G03G14G16G22G23G26G27G29G31G32      -0.000209629
  22707716.395 5  -5145860.613 5  -3786853.18046  22707715.81646
  19858426.012 6  -3523253.500 6  -2735591.49648  19858421.95748
  19298710.152 6  -6848607.527 6  -5313163.72748  19298705.26648
  22767693.637 5  -4204606.160 5  -3260550.05947  22767688.71547
  22319984.254 6 -11127018.754 6  -8623166.79347  22319978.40647
  19716087.387 7  -4457268.762 7  -3460719.49248  19716085.86748
  20611543.020 6 -11601802.340 6  -8975932.89548  20611541.16048
  23161119.012 5  -1906229.027 5  -1476315.86746  23161116.36346
  20536345.238 7  -5261529.203 7  -4081259.83648  20536340.63748
  22251071.770 6  -1093482.934 6   -850774.63747  22251071.80147
 18  5 30  0 48 39.9960000  0 10G03G14G16G22G23G26G27G29G31G32      -0.000222654
  22704772.379 5  -5161334.816 5  -3798911.02046  22704771.78146
  19856565.356 6  -3533032.949 6  -2743211.84848  19856560.93448
  19294757.145 6  -6869385.004 6  -5329353.96148  19294751.23848
  22765184.707 5  -4217790.180 5  -3270823.34447  22765179.12547
  22313074.918 6 -11163328.969 6  -8651460.46147  22313068.69147
  19713443.176 7  -4471164.848 7  -3471547.61348  19713441.50848
  20604561.457 6 -11638492.398 6  -9004522.54748  20604559.44548
  23160114.121 4  -1911510.850 4  -1480431.60746  23160111.10946
  20533134.020 7  -5278403.410 7  -4094408.57848  20533129.46148
  22250466.816 6  -1096665.277 6   -853254.41847  22250465.91447
 18  5 30  0 48 44.9960000  0 10G03G14G16G22G23G26G27G29G31G32      -0.000235682
  22701829.012 5  -5176801.938 5  -3810963.32846  22701828.46146
  19854706.176 6  -3542801.828 6  -2750823.96548  19854701.77748
  19290804.895 6  -6890154.191 6  -5345537.74248  19290799.16848
  22762676.988 6  -4230972.086 6  -3281094.96147  22762671.31647
  22306165.863 6 -11199635.172 6  -8679751.01247  22306159.55547
  19710799.551 7  -4485057.770 7  -3482373.27748  19710798.05548
  20597580.645 6 -11675176.328 6  -9033107.42248  20597578.22348
  23159109.106 4  -1916786.848 4  -1484542.76646  23159106.68446
  20529923.496 7  -5295275.742 7  -4107555.84448  20529918.81348
  22249861.473 6  -1099844.590 6   -855731.81347  22249860.80547
 18  5 30  0 48 49.9960000  0 10G03G14G16G22G23G26G27G29G31G32      -0.000248709
  22698886.676 5  -5192262.652 5  -3823010.65246  22698886.31346
  19852848.981 6  -3552560.715 6  -2758428.28948  19852844.73148
  19286854.270 6  -6910915.711 6  -5361715.55148  19286848.30948
  22760168.176 5  -4244152.527 5  -3291365.44947  22760163.48147
  22299257.832 6 -11235938.051 6  -8708038.95747  22299251.22747
  19708155.887 7  -4498948.195 7  -3493196.99248  19708154.87548
  20590600.887 6 -11711854.813 6  -9061688.05948  20590598.58648
  23158106.145 4  -1922057.793 4  -1488650.02746  23158103.54746
  20526712.988 7  -5312146.809 7  -4120702.14148  20526708.48448
  22249256.863 6  -1103021.434 6   -858207.28147  22249256.48147
 18  5 30  0 48 54.9960000  0 10G03G14G16G22G23G26G27G29G31G32      -0.000261740
  22695946.426 5  -5207716.852 5  -3835052.89546  22695945.09446
  19850994.074 6  -3562309.477 6  -2766024.73848  19850989.36348
  19282904.488 6  -6931669.438 6  -5377887.29748  19282899.13748
  22757660.098 5  -4257331.359 5  -3301634.67247  22757655.48847
  22292349.941 6 -11272237.395 6  -8736324.16447  22292344.17647
  19705512.832 7  -4512835.930 7  -3504018.61748  19705511.80148
  20583622.434 6 -11748527.629 6  -9090264.27748  20583619.74248
  23157104.238 4  -1927323.590 4  -1492753.25046  23157102.08646
  20523502.660 7  -5329016.469 7  -4133847.34048  20523498.08248
  22248652.707 6  -1106195.746 6   -860680.80547  22248652.57847
 18  5 30  0 48 59.9960000  0 10G03G14G16G22G23G26G27G29G31G32      -0.000274771
  22693006.809 5  -5223164.160 5  -3847089.76246  22693005.87946
  19849140.199 6  -3572047.820 6  -2773613.07048  19849136.46148
  19278957.059 6  -6952415.066 6  -5394052.71548  19278951.25848
  22755153.738 6  -4270508.207 6  -3311902.35547  22755148.30147
  22285443.465 6 -11308532.855 6  -8764606.33647  22285436.96947
  19702871.160 7  -4526720.660 7  -3514837.89548  19702869.98448
  20576644.793 6 -11785194.477 6  -9118835.85248  20576642.56348
  23156103.551 4  -1932583.793 4  -1496852.10946  23156100.87946
  20520293.309 7  -5345884.438 7  -4146991.21148  20520288.31648
  22248049.660 6  -1109367.164 6   -863152.06647  22248049.21947
 18  5 30  0 49  4.9960000  0 10G03G14G16G22G23G26G27G29G31G32      -0.000287804
  22690068.793 5  -5238604.754 5  -3859121.40246  22690067.57846
  19847289.590 6  -3581775.906 6  -2781193.39548  19847285.06348
  19275010.488 6  -6973152.738 6  -5410211.94148  19275004.80148
  22752646.027 6  -4283683.293 6  -3322168.66447  22752640.19147
  22278537.168 6 -11344824.574 6  -8792885.58647  22278530.98847
  19700229.801 7  -4540602.586 7  -3525654.98448  19700227.96148
  20569668.629 6 -11821855.457 6  -9147402.84848  20569666.30148
  23155102.801 4  -1937838.630 4  -1500946.80046  23155100.16046
  20517083.160 7  -5362750.781 7  -4160133.83248  20517078.56348
  22247446.668 6  -1112535.879 6   -865621.21147  22247446.24647
 18  5 30  0 49  9.9960000  0 10G03G14G16G22G23G26G27G29G31G32      -0.000300838
  22687131.777 5  -5254038.520 5  -3871147.73446  22687130.64146
  19845440.441 6  -3591493.598 6  -2788765.63348  19845436.16048
  19271066.043 6  -6993882.348 6  -5426364.88348  19271060.23148
  22750139.066 5  -4296856.508 5  -3332433.52047  22750134.07847
  22271631.918 6 -11381112.422 6  -8821161.83247  22271625.41047
  19697588.496 7  -4554481.535 7  -3536469.75448  19697586.74248
  20562693.316 6 -11858510.461 6  -9175965.18848  20562691.19148
  23154104.645 5  -1943087.957 5  -1505037.19146  23154101.14546
  20513873.965 7  -5379615.457 7  -4173275.14848  20513869.12548
  22246843.527 6  -1115701.789 6   -868088.18047  22246843.52347
 18  5 30  0 49 14.9960000  0 10G03G14G16G22G23G26G27G29G31G32      -0.000313875
  22684195.926 5  -5269465.324 5  -3883168.61346  22684195.32046
  19843593.691 6  -3601200.762 6  -2796329.64848  19843589.04348
  19267122.816 6  -7014603.738 6  -5442511.42248  19267116.80548
  22747632.848 6  -4310027.625 6  -3342696.74247  22747627.23147
  22264727.246 6 -11417396.207 6  -8849434.91447  22264720.89847
  19694947.668 7  -4568357.395 7  -3547282.12148  19694946.20748
  20555719.645 6 -11895159.270 6  -9204522.69948  20555717.34048
  23153106.777 5  -1948331.621 5  -1509123.19146  23153103.38346
  20510665.168 7  -5396478.199 7  -4186414.94548  20510660.57048
  22246241.559 6  -1118864.656 6   -870552.77047  22246241.73447
 18  5 30  0 49 19.9960000  0 10G03G14G16G22G23G26G27G29G31G32      -0.000326912
  22681261.793 5  -5284885.121 5  -3895184.03546  22681260.27346
  19841747.809 6  -3610897.340 6  -2803885.43448  19841743.61748
  19263181.098 6  -7035316.844 6  -5458651.51248  19263175.06348
  22745127.316 6  -4323196.652 6  -3352958.32847  22745121.45347
  22257823.723 6 -11453675.867 6  -8877704.78547  22257817.08647
  19692308.027 7  -4582230.094 7  -3558092.01248  19692306.22748
  20548746.746 6 -11931801.855 6  -9233075.35548  20548744.66848
  23152109.160 5  -1953569.625 5  -1513204.80146  23152106.34046
  20507456.621 6  -5413339.039 6  -4199553.27048  20507451.64548
  22245640.324 6  -1122024.555 6   -873015.06347  22245640.35247
 18  5 30  0 49 24.9960000  0 10G03G14G16G22G23G26G27G29G31G32      -0.000339951
  22678328.160 5  -5300298.090 5  -3907194.13346  22678326.83246
  19839904.660 6  -3620583.520 6  -2811433.11348  19839900.92248
  19259240.785 6  -7056021.902 6  -5474785.31648  19259235.00848
  22742621.856 6  -4336363.867 6  -3363218.50447  22742615.49247
  22250920.699 6 -11489951.621 6  -8905971.59847  22250914.81647
  19689668.402 7  -4596099.867 7  -3568899.62948  19689666.80148
  20541774.676 6 -11968438.418 6  -9261623.32448  20541772.96548
  23151114.027 5  -1958802.148 5  -1517282.09446  23151110.71146
  20504248.363 6  -5430198.219 6  -4212690.30948  20504243.87148
  22245039.840 6  -1125181.625 6   -875475.14847  22245039.79347
 18  5 30  0 49 29.9960000  0 10G03G14G16G22G23G26G27G29G31G32      -0.000352991
  22675397.277 5  -5315704.391 5  -3919199.03146  22675395.25046
  19838063.621 6  -3630259.410 6  -2818972.76648  19838059.36348
  19255302.637 6  -7076719.004 6  -5490912.93448  19255296.60648
  22740116.496 6  -4349529.301 6  -3373477.29347  22740110.37947
  22244018.598 6 -11526223.523 6  -8934235.40647  22244012.18047
  19687030.066 7  -4609966.785 7  -3579705.02048  19687028.36748
  20534804.434 6 -12005069.008 6  -9290166.64548  20534801.85648
  23150119.418 5  -1964029.324 5  -1521355.24245  23150115.73145
  20501040.574 6  -5447055.719 6  -4225826.02348  20501035.91448
  22244438.684 6  -1128335.980 6   -877933.10947  22244439.32047
 18  5 30  0 49 34.9960000  0 10G03G14G16G22G23G26G27G29G31G32      -0.000366034
  22672466.754 5  -5331103.973 5  -3931198.71546  22672464.91846
  19836224.090 6  -3639925.035 6  -2826504.43448  19836219.98148
  19251365.551 6  -7097408.148 6  -5507034.35548  19251359.62948
  22737611.160 6  -4362692.941 6  -3383734.68047  22737605.36747
  22237116.566 6 -11562491.574 6  -8962496.23047  22237110.63747
  19684391.590 7  -4623830.887 7  -3590508.21548  19684389.97748
  20527835.106 6 -12041693.617 6  -9318705.28948  20527832.39848
  23149124.481 4  -1969251.184 4  -1525424.28545  23149122.58645
  20497832.981 6  -5463911.578 6  -4238960.45348  20497828.14148
  22243839.801 6  -1131487.680 6   -880389.00447  22243839.86747
 18  5 30  0 49 39.9960000  0 10G03G14G16G22G23G26G27G29G31G32      -0.000379078
  22669536.723 5  -5346496.871 5  -3943193.18846  22669535.91846
  19834386.731 6  -3649580.387 6  -2834028.09048  19834383.00048
  19247429.973 6  -7118089.367 6  -5523149.59048  19247424.35648
  22735106.223 6  -4375854.879 6  -3393990.72747  22735100.55547
  22230215.809 6 -11598755.699 6  -8990753.99647  22230209.92247
  19681753.918 7  -4637692.180 7  -3601309.22748  19681752.03548
  20520866.684 6 -12078312.250 6  -9347239.29748  20520864.46548
  23148132.051 4  -1974467.711 4  -1529489.02745  23148129.99645
  20494625.559 7  -5480765.746 7  -4252093.57848  20494620.86348
  22243240.535 6  -1134636.684 6   -882842.78947  22243240.38347
 18  5 30  0 49 44.9960000  0 10G03G14G16G22G23G26G27G29G31G32      -0.000392122
  22666609.090 5  -5361882.934 5  -3955182.34846  22666608.07446
  19832551.637 6  -3659225.309 6  -2841543.61348  19832547.41448
  19243495.832 6  -7138762.418 6  -5539258.46548  19243490.71548
  22732602.324 6  -4389014.848 6  -3404245.27347  22732596.59447
  22223315.606 6 -11635015.777 6  -9019008.60547  22223309.43447
  19679116.871 7  -4651550.461 7  -3612107.89548  19679114.91048
  20513899.660 6 -12114924.660 6  -9375768.44948  20513897.07048
  23147140.871 3  -1979678.699 3  -1533549.59045  23147138.41845
  20491418.582 7  -5497618.063 7  -4265225.26248  20491414.30148
  22242642.184 6  -1137782.836 6   -885294.37147  22242641.89847
 18  5 30  0 49 49.9960000  0 10G03G14G16G22G23G26G27G29G31G32      -0.000405169
  22663682.684 5  -5377261.840 5  -3967165.92246  22663681.66846
  19830718.449 6  -3668859.531 6  -2849050.80548  19830714.07048
  19239563.941 6  -7159427.082 6  -5555360.80148  19239558.11748
  22730098.309 5  -4402172.734 5  -3414498.17247  22730092.24647
  22216416.918 6 -11671271.508 6  -9047259.82847  22216410.40647
  19676480.606 7  -4665405.520 7  -3622904.04748  19676478.52348
  20506933.762 6 -12151530.629 6  -9404292.57848  20506931.28148
  23146150.559 3  -1984884.082 3  -1537605.70745  23146147.93045
  20488212.145 6  -5514468.246 6  -4278355.27348  20488207.05548
  22242043.879 6  -1140925.914 6   -887743.52047  22242043.66847
 18  5 30  0 49 54.9960000  0 10G03G14G16G22G23G26G27G29G31G32      -0.000418217
  22660757.340 5  -5392634.027 5  -3979144.26246  22660756.67246
  19828886.941 6  -3678483.324 6  -2856549.86748  19828882.82448
  19235632.871 6  -7180083.668 6  -5571456.84848  19235627.07448
  22727594.957 5  -4415328.750 5  -3424749.61347  22727588.92247
  22209518.535 6 -11707523.168 6  -9075507.85547  22209511.75047
  19673844.324 7  -4679257.648 7  -3633697.92248  19673842.69548
  20499968.777 6 -12188130.422 6  -9432811.89848  20499966.44148
  23145161.152 3  -1990083.855 3  -1541657.48445  23145158.72345
  20485006.590 6  -5531316.613 6  -4291483.88348  20485001.51248
  22241446.457 6  -1144066.168 6   -890190.49247  22241445.84447
 18  5 30  0 49 59.9960000  0 10G03G14G16G22G23G26G27G29G31G32      -0.000431265
  22657833.856 5  -5407999.344 5  -3991117.23447  22657832.91447
  19827057.496 6  -3688096.664 6  -2864040.78948  19827053.37548
  19231703.965 6  -7200732.066 6  -5587546.50848  19231697.99248
  22725091.723 6  -4428482.816 6  -3434999.55547  22725085.62547
  22202620.207 6 -11743770.652 6  -9103752.65647  22202614.19147
  19671209.215 7  -4693106.738 7  -3644489.41448  19671207.45748
  20493005.551 6 -12224723.914 6  -9461326.30548  20493003.25448
  23144172.793 3  -1995278.117 3  -1545704.97745  23144170.53545
  20481800.348 6  -5548163.098 6  -4304611.03148  20481795.70348
  22240848.996 6  -1147203.582 6   -892635.25447  22240849.33247
 18  5 30  0 50  4.9960000  0 10G03G14G16G22G23G26G27G29G31G32      -0.000444317
  22654910.816 5  -5423358.316 5  -4003085.29346  22654910.38346
  19825229.731 6  -3697700.070 6  -2871523.97348  19825226.04748
  19227775.934 6  -7221372.863 6  -5603630.24648  19227770.43048
  22722589.223 6  -4441635.473 6  -3445248.37147  22722582.97747
  22195723.223 6 -11780014.512 6  -9131994.61747  22195717.35247
  19668574.074 7  -4706953.344 7  -3655278.98848  19668572.37548
  20486043.254 6 -12261311.633 6  -9489836.21948  20486040.87148
  23143185.770 3  -2000467.488 3  -1549748.61745  23143182.82445
  20478594.809 7  -5565008.133 7  -4317737.05148  20478590.30148
  22240252.652 6  -1150338.629 6   -895078.17647  22240252.47347
 18  5 30  0 50  9.9960000  0 10G03G14G16G22G23G26G27G29G31G32      -0.000457369
  22651990.137 5  -5438710.906 5  -4015048.34046  22651989.07446
  19823404.559 6  -3707293.441 6  -2878999.32448  19823400.92648
  19223849.535 6  -7242005.965 6  -5619707.99648  19223843.95348
  22720086.738 6  -4454786.668 6  -3455496.07847  22720080.67647
  22188826.691 6 -11816254.645 6  -9160233.68847  22188821.07447
  19665939.902 7  -4720797.406 7  -3666066.57448  19665938.00848
  20479081.926 6 -12297893.500 6  -9518341.56348  20479079.56648
  23142198.262 4  -2005651.789 4  -1553788.27045  23142197.39545
  20475389.981 7  -5581851.699 7  -4330861.91848  20475384.94948
  22239657.012 6  -1153471.273 6   -897519.20747  22239656.61347
 18  5 30  0 50 14.9960000  0 11G03G14G16G21G22G23G26G27G29G31G32   -0.000470421
  22649069.340 5  -5454056.432 5  -4027005.91046  22649069.07846
  19821581.043 6  -3716876.184 6  -2886466.41048  19821577.27748
  19219924.691 6  -7262630.734 6  -5635779.25448  19219919.10248
  23469429.13714   -169003.21114    -99775.25055  23469424.48855
  22717584.121 6  -4467935.746 6  -3465742.12147  22717578.53147
  22181931.223 6 -11852490.395 6  -9188469.33647  22181925.87547
  19663306.066 7  -4734638.277 7  -3676851.67648  19663304.34048
  20472121.676 6 -12334468.801 6  -9546841.79748  20472119.37948
  23141213.816 4  -2010830.359 4  -1557823.57445  23141212.20345
  20472185.082 7  -5598693.094 7  -4343985.08248  20472180.07848
  22239061.043 6  -1156600.891 6   -899957.89147  22239061.27047
 18  5 30  0 50 19.9960000  0 11G03G14G16G21G22G23G26G27G29G31G32   -0.000483475
  22646150.543 5  -5469395.168 5  -4038958.16246  22646150.48446
  19819759.309 7  -3726448.582 7  -2893925.42648  19819755.34848
  19216001.606 6  -7283247.469 6  -5651844.24248  19215996.19548
  23464745.184 4   -193618.492 4   -118955.98045  23464739.89145
  22715082.746 6  -4481083.055 6  -3475986.77047  22715076.78147
  22175036.426 6 -11888722.066 6  -9216701.81347  22175030.92247
  19660672.457 7  -4748476.211 7  -3687634.49248  19660671.20348
  20465163.027 6 -12371037.887 6  -9575337.18448  20465160.69548
  23140228.613 4  -2016003.539 4  -1561854.61745  23140228.24645
  20468980.387 7  -5615532.660 7  -4357106.81348  20468975.62548
  22238466.121 6  -1159727.777 6   -902394.44547  22238465.86347
 18  5 30  0 50 24.9960000  0 11G03G14G16G21G22G23G26G27G29G31G32   -0.000496532
  22643232.801 5  -5484727.191 5  -4050905.19946  22643232.65646
  19817939.762 6  -3736010.547 6  -2901376.30548  19817935.95748
  19212079.973 6  -7303856.109 6  -5667902.93048  19212074.59848
  23460061.582 3   -218230.859 3   -138134.43445  23460056.85245
  22712580.566 6  -4494228.520 6  -3486230.01247  22712574.67247
  22168142.777 6 -11924949.520 6  -9244930.99647  22168137.15247
  19658040.035 7  -4762311.188 7  -3698414.97748  19658038.59448
  20458205.473 6 -12407600.648 6  -9603827.64548  20458203.13748
  23139245.738 4  -2021171.270 4  -1565881.43445  23139245.02345
  20465776.848 7  -5632370.281 7  -4370227.03948  20465771.69548
  22237871.629 6  -1162851.871 6   -904828.82447  22237871.65247
 18  5 30  0 50 29.9950000  0 11G03G14G16G21G22G23G26G27G29G31G32    0.000490412
  22640316.983 5  -5500049.457 5  -4062844.65246  22640316.38646
  19816122.788 6  -3745560.309 6  -2908817.68048  19816118.84748
  19208160.749 7  -7324452.645 7  -5683952.17648  19208155.08148
  23455380.007 3   -242835.492 3   -157306.88745  23455374.93745
  22710080.007 6  -4507369.594 6  -3496469.82447  22710074.26547
  22161250.874 6 -11961165.633 6  -9273151.36347  22161245.63647
  19655408.280 7  -4776140.605 7  -3709191.16448  19655407.13248
  20451249.874 6 -12444149.832 6  -9632307.52348  20451247.53448
  23138263.882 5  -2026332.648 5  -1569903.25045  23138263.19845
  20462573.413 7  -5649202.742 7  -4383343.24248  20462568.80048
  22237278.187 6  -1165972.684 6   -907260.64147  22237277.56547
 18  5 30  0 50 34.9950000  0 11G03G14G16G21G22G23G26G27G29G31G32    0.000477352
  22637402.171 4  -5515368.566 4  -4074781.61446  22637401.12046
  19814306.710 6  -3755102.125 6  -2916252.87148  19814303.05048
  19204242.273 7  -7345045.754 7  -5699998.75848  19204236.39848
  23450697.015 1   -267442.465 1   -176481.14145  23450692.07745
  22707579.585 6  -4520512.043 6  -3506710.70347  22707573.52347
  22154358.562 6 -11997385.309 6  -9301374.47347  22154353.38647
  19652776.687 7  -4789970.414 7  -3719967.66448  19652775.63648
  20444294.468 6 -12480700.527 6  -9660788.58648  20444291.95648
  23137282.202 5  -2031490.188 5  -1573922.20745  23137281.69845
  20459370.421 7  -5666037.203 7  -4396461.01248  20459365.31948
  22236684.444 6  -1169091.879 6   -909691.19147  22236684.19447
 18  5 30  0 50 39.9950000  0 11G03G14G16G21G22G23G26G27G29G31G32    0.000464291
  22634487.452 4  -5530680.875 4  -4086713.29746  22634487.05446
  19812492.866 6  -3764633.547 6  -2923679.95748  19812489.01948
  19200324.741 7  -7365630.793 7  -5716039.05548  19200319.26948
  23446014.40514   -292045.68014                
  22705079.046 6  -4533652.766 6  -3516950.22347  22705072.61247
  22147466.960 6 -12033600.770 6  -9329594.31647  22147461.62047
  19650145.577 7  -4803797.242 7  -3730741.80948  19650144.48748
  20437340.819 6 -12517244.863 6  -9689264.68848  20437338.23048
  23136302.023 5  -2036642.328 5  -1577936.83245  23136301.26945
  20456166.913 7  -5682869.758 7  -4409577.28548  20456162.26148
  22236091.546 6  -1172208.332 6   -912119.59847  22236091.41747
 18  5 30  0 50 44.9950000  0 11G03G14G16G21G22G23G26G27G29G31G32    0.000451227
  22631574.460 3  -5545987.051 3  -4098640.19546  22631573.89046
  19810680.866 6  -3774155.160 6  -2931099.40248  19810677.56248
  19196408.890 7  -7386208.316 7  -5732073.48448  19196403.46848
  23441333.476 3   -316647.344 3   -187983.30555  23441328.66355
  22702577.913 6  -4546792.219 6  -3527188.75847  22702572.55047
  22140575.694 6 -12069812.531 6  -9357811.28147  22140570.80847
  19647514.905 7  -4817621.742 7  -3741514.14848  19647513.86648
  20430387.257 6 -12553783.402 6  -9717736.27048  20430385.09348
  23135321.819 5  -2041789.668 5  -1581947.74645  23135322.28845
  20452963.515 7  -5699700.965 7  -4422692.51248  20452958.75748
  22235499.015 6  -1175322.625 6   -914546.32047  22235499.29247
 18  5 30  0 50 49.9950000  0 11G03G14G16G21G22G23G26G27G29G31G32    0.000438162
  22628662.194 2  -5561287.152 2  -4110562.37146  22628662.60146
  19808871.030 6  -3783667.102 6  -2938511.32048  19808867.75748
  19192494.585 7  -7406778.469 7  -5748102.18048  19192488.77648
  23436652.538 4   -341246.656 4   -207151.68845  23436647.85845
  22700077.968 6  -4559930.570 6  -3537426.45347  22700071.84747
  22133685.663 6 -12106020.750 6  -9386025.47747  22133680.28847
  19644884.687 7  -4831444.004 7  -3752284.74648  19644883.85148
  20423435.374 6 -12590316.184 6  -9746203.36748  20423432.79648
  23134343.827 5  -2046932.340 5  -1585955.05145  23134343.73045
  20449761.312 7  -5716530.941 7  -4435806.77748  20449756.76948
  22234906.304 6  -1178434.848 6   -916971.46147  22234907.18347
 18  5 30  0 50 54.9950000  0 11G03G14G16G21G22G23G26G27G29G31G32    0.000425097
  22625752.398 2  -5576581.055 2  -4122479.69946  22625752.22646
  19807063.030 6  -3793169.137 6  -2945915.50848  19807059.36248
  19188581.398 7  -7427341.074 7  -5764124.98848  19188575.75748
  23431971.593 3   -365843.422 3   -226317.95345  23431967.25745
  22697578.319 6  -4573067.660 6  -3547663.15647  22697572.36247
  22126796.851 6 -12142225.188 6  -9414236.73047  22126791.57347
  19642254.702 7  -4845263.883 7  -3763053.49248  19642253.52648
  20416484.890 7 -12626843.070 7  -9774665.87548  20416482.32348
  23133365.944 4  -2052070.090 4  -1589958.48845  23133366.00745
  20446559.093 7  -5733359.453 7  -4448919.92248  20446554.05448
  22234314.523 6  -1181544.852 6   -919394.86347  22234315.29647
 18  5 30  0 50 59.9950000  0 11G03G14G16G21G22G23G26G27G29G31G32    0.000412027
  22622842.116 1  -5591868.586 1  -4134392.05946  22622842.69446
  19805256.468 7  -3802661.250 7  -2953311.96548  19805252.89848
  19184670.194 7  -7447896.059 7  -5780141.85948  19184664.30848
  23427291.491 4   -390437.566 4   -245482.16445  23427287.22245
  22695078.507 6  -4586203.375 6  -3557898.77747  22695072.42947
  22119907.273 6 -12178425.738 6  -9442444.96147  22119902.21047
  19639625.452 7  -4859081.289 7  -3773820.30148  19639624.37448
  20409535.085 7 -12663363.953 7  -9803123.71548  20409532.91348
  23132389.038 4  -2057202.930 4  -1593958.11345  23132388.60145
  20443356.890 6  -5750186.461 6  -4462031.87948  20443352.19848
  22233723.327 6  -1184652.586 6   -921816.48847  22233723.96847
 18  5 30  0 51  4.9950000  0 11G03G14G16G21G22G23G26G27G29G31G32    0.000398956
  22619935.616 1  -5607150.047 1  -4146299.71545  22619934.35145
  19803452.351 7  -3812143.547 7  -2960700.77348  19803448.87048
  19180760.148 7  -7468443.547 7  -5796152.89548  19180754.20248
  23422611.351 4   -415029.180 4   -264644.49645  23422607.24545
  22692579.343 6  -4599337.871 6  -3568133.47747  22692572.71847
  22113019.304 6 -12214622.566 6  -9470650.28547  22113014.00347
  19636996.398 7  -4872896.328 7  -3784585.27748  19636995.20248
  20402586.358 6 -12699878.926 6  -9831576.93448  20402584.36248
  23131413.007 4  -2062330.957 4  -1597953.96945  23131412.92945
  20440155.288 6  -5767012.016 6  -4475142.71548  20440150.37048
  22233132.741 6  -1187758.125 6   -924236.40647  22233133.36247
 18  5 30  0 51  9.9950000  0 11G03G14G16G21G22G23G26G27G29G31G32    0.000385885
  22617028.132 1  -5622425.434 1  -4158202.57845  22617027.85845
  19801649.733 7  -3821616.133 7  -2968082.03148  19801646.16348
  19176850.851 7  -7488983.703 7  -5812158.21148  19176845.48748
  23417932.866 4   -439618.441 4   -283804.87545  23417928.36645
  22690079.866 6  -4612471.316 6  -3578367.34047  22690073.78847
  22106132.452 5 -12250815.816 5  -9498852.81647  22106127.06247
  19634367.741 7  -4886709.199 7  -3795348.55948  19634366.40948
  20395639.116 6 -12736388.133 6  -9860025.66848  20395636.90948
  23130438.249 4  -2067454.348 4  -1601946.27745  23130437.83945
  20436953.257 6  -5783836.348 6  -4488252.59048  20436948.87448
  22232542.273 6  -1190861.699 6   -926654.79747  22232542.83947
 18  5 30  0 51 14.9950000  0 11G03G14G16G21G22G23G26G27G29G31G32    0.000372810
  22614122.351 1  -5637694.473 1  -4170100.58245  22614122.17145
  19799848.976 7  -3831078.695 7  -2975455.46548  19799845.20248
  19172944.280 6  -7509516.082 6  -5828157.47748  19172938.56248
  23413253.812 4   -464204.828 4   -302963.19545  23413249.76545
  22687580.898 6  -4625603.297 6  -3588600.06347  22687574.85847
  22099245.593 6 -12287004.969 6  -9527052.16847  22099240.31947
  19631739.890 7  -4900519.457 7  -3806109.79748  19631738.53848
  20388692.694 6 -12772891.180 6  -9888469.59848  20388690.61648
  23129463.796 3  -2072572.734 3  -1605934.56645  23129463.92145
  20433752.257 6  -5800659.004 6  -4501361.16448  20433747.62048
  22231951.983 6  -1193962.867 6   -929071.30547  22231952.78447
 18  5 30  0 51 19.9950000  0 11G03G14G16G21G22G23G26G27G29G31G32    0.000359735
  22611218.749 2  -5652957.273 2  -4181993.61345  22611218.25345
  19798050.585 7  -3840531.379 7  -2982821.19948  19798046.48748
  19169038.585 6  -7530040.910 6  -5844150.85548  19169032.92548
  23408575.210 4   -488788.555 4   -322119.26245  23408571.48745
  22685083.062 6  -4638734.027 6  -3598831.81647  22685076.49147
  22092359.288 6 -12323190.207 6  -9555248.48047  22092354.30447
  19629112.288 7  -4914327.293 7  -3816869.14548  19629110.99148
  20381747.101 6 -12809388.152 6  -9916908.79748  20381745.41748
  23128490.905 3  -2077686.281 3  -1609919.16445  23128489.89045
  20430550.913 6  -5817480.121 6  -4514468.53948  20430546.56248
  22231362.194 6  -1197061.789 6   -931486.07047  22231362.89847
 18  5 30  0 51 24.9950000  0 11G03G14G16G21G22G23G26G27G29G31G32    0.000346659
  22608315.038 1  -5668213.789 1  -4193881.84845  22608315.16745
  19796253.616 7  -3849974.164 7  -2990179.21948  19796249.23048
  19165133.671 6  -7550558.152 6  -5860138.31348  19165128.30448
  23403898.280 4   -513369.594 4   -341273.33245  23403894.13245
  22682583.890 6  -4651863.473 6  -3609062.55147  22682578.05847
  22085474.663 6 -12359371.488 6  -9583441.69147  22085469.74947
  19626485.124 7  -4928132.691 7  -3827626.59448  19626483.47648
  20374803.437 6 -12845879.047 6  -9945343.24648  20374801.83548
  23127519.132 3  -2082794.930 3  -1613899.89145  23127517.54245
  20427350.444 6  -5834299.684 6  -4527574.68048  20427345.94448
  22230772.679 6  -1200158.496 6   -933899.11347  22230774.02647
 18  5 30  0 51 29.9950000  0 11G03G14G16G21G22G23G26G27G29G31G32    0.000333580
  22605413.538 1  -5683463.816 1  -4205765.01245  22605412.70245
  19794458.788 7  -3859406.773 7  -2997529.31648  19794454.35848
  19161231.140 6  -7571067.527 6  -5876119.64148  19161226.12848
  23399221.327 4   -537947.625 4   -360425.05945  23399216.67545
  22680086.218 6  -4664991.387 6  -3619292.10546  22680080.01146
  22078590.687 6 -12395548.555 6  -9611631.61347  22078585.20647
  19623858.405 7  -4941935.395 7  -3838381.94548  19623856.93348
  20367860.390 6 -12882363.570 6  -9973772.75048  20367858.49948
  23126548.343 3  -2087898.434 3  -1617876.65245  23126546.52645
  20424150.288 7  -5851117.434 7  -4540679.41848  20424145.99548
  22230183.898 6  -1203252.688 6   -936310.19547  22230184.89447
 18  5 30  0 51 34.9950000  0 11G03G14G16G21G22G23G26G27G29G31G32    0.000320499
  22602512.515 2  -5698707.355 2  -4217643.08245  22602511.94845
  19792664.944 7  -3868829.281 7  -3004871.53148  19792660.73348
  19157329.921 6  -7591569.137 6  -5892094.91848  19157324.50348
  23394544.523 3   -562522.719 3   -379574.43845  23394540.37045
  22677587.773 6  -4678117.750 6  -3629520.44547  22677581.73347
  22071706.835 6 -12431721.441 6  -9639818.28547  22071702.23047
  19621232.562 7  -4955735.414 7  -3849135.20348  19621230.96848
  20360919.054 6 -12918841.770 6 -10002197.30948  20360916.79648
  23125578.679 4  -2092996.883 4  -1621849.48845  23125576.57745
  20420950.108 7  -5867933.359 7  -4553782.73048  20420945.82348
  22229595.593 6  -1206344.422 6   -938719.37147  22229596.66747
 18  5 30  0 51 39.9950000  0 11G03G14G16G21G22G23G26G27G29G31G32    0.000307417
  22599612.546 1  -5713944.719 1  -4229516.34045  22599612.46045
  19790874.358 7  -3878241.855 7  -3012206.00448  19790869.91748
  19153430.171 6  -7612063.121 6  -5908064.25848  19153424.54248
  23389868.023 4   -587095.039 4   -398721.75445  23389864.24945
  22675090.562 6  -4691242.871 6  -3639747.82046  22675084.23346
  22064824.562 6 -12467890.359 6  -9668001.85247  22064819.20647
  19618606.937 7  -4969533.020 7  -3859886.58648  19618605.22648
  20353978.640 6 -12955313.781 6 -10030617.05148  20353976.27348
  23124609.882 5  -2098090.453 5  -1625818.50045  23124607.26945
  20417750.515 7  -5884747.715 7  -4566884.81648  20417746.03048
  22229007.554 6  -1209433.938 6   -941126.79747  22229008.69847
 18  5 30  0 51 44.9950000  0 11G03G14G16G21G22G23G26G27G29G31G32    0.000294334
  22596715.444 1  -5729175.285 1  -4241384.32045  22596713.99145
  19789085.421 7  -3887644.066 7  -3019532.41048  19789080.46848
  19149531.601 6  -7632549.047 6  -5924027.32048  19149526.49548
  23385192.835 3   -611664.133 3   -417866.46145  23385189.07745
  22672593.218 6  -4704366.188 6  -3649973.80146  22672587.15546
  22057942.616 6 -12504054.742 6  -9696181.89547  22057937.50347
  19615981.882 7  -4983327.695 7  -3870635.68448  19615980.17548
  20347039.101 6 -12991779.168 6 -10059031.64548  20347037.02348
  23123640.874 5  -2103178.609 5  -1629783.31645  23123639.56545
  20414550.983 7  -5901559.918 7  -4579985.24248  20414546.80848
  22228420.077 6  -1212520.723 6   -943532.09847  22228420.65947
 18  5 30  0 51 49.9950000  0 11G03G14G16G21G22G23G26G27G29G31G32    0.000281250
  22593818.140 1  -5744399.336 1  -4253247.23845  22593817.13645
  19787298.077 7  -3897036.141 7  -3026850.91848  19787293.34748
  19145634.710 6  -7653027.102 6  -5939984.25448  19145629.60548
  23380519.108 3   -636230.180 3   -437008.84045  23380514.41745
  22670096.468 6  -4717487.969 6  -3660198.57847  22670089.78047
  22051062.015 6 -12540214.848 6  -9724358.59847  22051056.35547
  19613357.468 7  -4997119.676 7  -3881382.68448  19613355.30848
  20340101.312 6 -13028238.090 6 -10087441.18848  20340099.35548
  23122674.679 5  -2108261.703 5  -1633744.17646  23122671.87046
  20411352.312 7  -5918370.238 7  -4593084.19148  20411348.05848
  22227833.413 6  -1215605.047 6   -945935.49647  22227834.46447
 18  5 30  0 51 54.9950000  0 11G03G14G16G21G22G23G26G27G29G31G32    0.000268164
  22590921.819 2  -5759617.836 2  -4265105.82045  22590921.27345
  19785512.421 7  -3906418.871 7  -3034162.13748  19785507.76548
  19141739.624 6  -7673498.148 6  -5955935.70748  19141734.05048
  23375844.858 4   -660794.000 4   -456149.45345  23375840.07345
  22667599.866 6  -4730609.129 6  -3670422.87147  22667593.28447
  22044181.015 6 -12576371.516 6  -9752532.63347  22044175.76147
  19610733.468 7  -5010909.824 7  -3892128.25448  19610731.73748
  20333164.616 6 -13064691.387 6 -10115846.35248  20333162.56948
  23121707.733 5  -2113340.496 5  -1637701.69146  23121705.71446
  20408153.648 7  -5935179.539 7  -4606182.34848  20408149.24548
  22227247.108 6  -1218687.746 6   -948337.62547  22227248.13647
 18  5 30  0 51 59.9950000  0 11G03G14G16G21G22G23G26G27G29G31G32    0.000255075
  22588026.593 1  -5774829.914 1  -4276959.37145  22588026.83945
  19783729.374 7  -3915791.527 7  -3041465.51248  19783724.06948
  19137845.374 6  -7693961.445 6  -5971881.14148  19137840.11248
  23371170.343 3   -685354.867 3   -475287.80945  23371166.17145
  22665102.929 6  -4743728.871 6  -3680646.04747  22665096.85147
  22037301.523 6 -12612523.973 6  -9780703.37147  22037296.49547
  19608109.483 7  -5024697.371 7  -3902871.80548  19608107.67148
  20326228.616 6 -13101138.320 6 -10144246.55148  20326227.23748
  23120741.773 5  -2118414.332 5  -1641655.36746  23120739.77346
  20404955.194 7  -5951987.039 7  -4619279.11348  20404950.70248
  22226660.749 6  -1221768.074 6   -950737.90247  22226661.29247
 18  5 30  0 52  4.9950000  0 11G03G14G16G21G22G23G26G27G29G31G32    0.000241985
  22585131.976 1  -5790035.773 1  -4288808.15245  22585133.23745
  19781947.601 7  -3925154.277 7  -3048761.16848  19781942.25748
  19133953.116 6  -7714417.156 6  -5987820.65248  19133947.11248
  23366495.523 3   -709912.875 3   -494423.89545  23366493.39445
  22662606.374 5  -4756847.359 5  -3690868.23846  22662599.71446
  22030423.179 6 -12648672.359 6  -9808870.94947  22030417.47647
  19605486.616 7  -5038482.453 7  -3913613.39848  19605484.66748
  20319294.562 6 -13137578.992 6 -10172641.87948  20319292.70248
  23119777.843 5  -2123483.313 5  -1645605.20346  23119775.10546
  20401757.233 7  -5968792.910 7  -4632374.58648  20401752.56948
  22226075.421 6  -1224846.180 6   -953136.45347  22226075.60547
 18  5 30  0 52  9.9950000  0 11G03G14G16G21G22G23G26G27G29G31G32    0.000228893
  22582240.960 1  -5805235.277 1  -4300651.88745  22582240.93345
  19780168.015 7  -3934507.047 7  -3056049.04748  19780162.69848
  19130061.655 6  -7734865.172 6  -6003754.17248  19130056.14848
  23361823.382 3   -734467.957 3   -513557.69145  23361820.36645
  22660110.140 5  -4769964.516 5  -3701089.39846  22660103.93746
  22023545.163 6 -12684816.559 6  -9837035.27747  22023539.23347
  19602863.562 7  -5052265.039 7  -3924353.06648  19602861.84748
  20312361.351 6 -13174013.293 6 -10201032.23848  20312359.45648
  23118813.468 5  -2128547.383 5  -1649551.28546  23118811.40146
  20398559.929 7  -5985597.039 7  -4645468.72748  20398554.76548
  22225490.421 6  -1227922.000 6   -955533.21147  22225490.17147
 18  5 30  0 52 14.9950000  0 11G03G14G16G21G22G23G26G27G29G31G32    0.000215801
  22579349.835 1  -5820428.516 1  -4312490.79345  22579350.06245
  19778390.124 7  -3943849.879 7  -3063329.17648  19778384.74148
  19126172.054 6  -7755305.488 6  -6019681.69548  19126166.00748
  23357151.382 3   -759020.094 3   -532689.23045  23357148.31545
  22657614.749 6  -4783080.363 6  -3711309.53546  22657608.23346
  22016668.233 6 -12720956.527 6  -9865196.30147  22016662.10847
  19600241.710 7  -5066045.129 7  -3935090.80948  19600239.80848
  20305429.687 6 -13210441.227 6 -10229417.63748  20305427.72248
  23117850.851 5  -2133606.555 5  -1653493.45346  23117848.37046
  20395362.054 7  -6002399.418 7  -4658561.49248  20395357.77648
  22224904.913 6  -1230995.555 6   -957928.20347  22224905.02647
 18  5 30  0 52 19.9950000  0 11G03G14G16G21G22G23G26G27G29G31G32    0.000202705
  22576459.765 1  -5835615.387 1  -4324324.73445  22576460.24145
  19776613.765 7  -3953182.520 7  -3070601.36348  19776608.48348
  19122283.983 6  -7775737.965 6  -6035603.10248  19122277.95248
  23352479.960 3   -783569.043 3   -551818.30545  23352476.99145
  22655118.890 6  -4796194.668 6  -3721528.49246  22655111.82346
  22009791.601 6 -12757092.051 6  -9893353.84847  22009785.14447
  19597619.937 7  -5079822.535 7  -3945826.45348  19597617.92148
  20298498.530 6 -13246862.547 6 -10257797.88748  20298496.51948
  23116888.648 4  -2138660.621 4  -1657431.70345  23116886.02345
  20392165.202 7  -6019199.840 7  -4671652.73048  20392160.72648
  22224320.421 6  -1234066.613 6   -960321.25447  22224320.44047
 18  5 30  0 52 24.9950000  0 11G03G14G16G21G22G23G26G27G29G31G32    0.000189610
  22573571.046 2  -5850795.641 2  -4336153.48445  22573571.31945
  19774839.640 6  -3962504.930 6  -3077865.58648  19774834.68748
  19118397.405 6  -7796162.539 6  -6051518.36348  19118391.66348
  23347808.749 3   -808114.781 3   -570944.84445  23347806.52645
  22652623.515 5  -4809307.523 5  -3731746.28946  22652617.08546
  22002916.062 6 -12793223.094 6  -9921507.89147  22002909.57347
  19594998.358 7  -5093597.207 7  -3956559.96948  19594996.68348
  20291569.530 6 -13283277.238 6 -10286172.96548  20291566.90948
  23115927.304 4  -2143709.563 4  -1661365.95746  23115925.13646
  20388968.413 7  -6035998.250 7  -4684742.41448  20388963.71048
  22223736.687 6  -1237135.199 6   -962712.39547  22223736.94847
 18  5 30  0 52 29.9950000  0 11G03G14G16G21G22G23G26G27G29G31G32    0.000176514
  22570683.773 2  -5865969.371 2  -4347977.18845  22570684.14445
  19773067.765 6  -3971817.094 6  -3085121.82048  19773062.59748
  19114512.273 6  -7816579.164 6  -6067427.42248  19114506.31948
  23343139.093 3   -832657.266 3   -590068.83245  23343136.03045
  22650128.546 6  -4822418.797 6  -3741962.87546  22650122.22246
  21996041.366 6 -12829349.664 6  -9949658.45747  21996035.15147
  19592377.710 7  -5107369.109 7  -3967291.30948  19592376.15548
  20284640.773 6 -13319685.250 6 -10314542.84048  20284638.73348
  23114967.319 4  -2148753.391 4  -1665296.19546  23114965.39846
  20385772.382 7  -6052794.629 7  -4697830.50848  20385767.35848
  22223153.226 6  -1240201.281 6   -965101.55947  22223153.48747
 18  5 30  0 52 34.9950000  0 11G03G14G16G21G22G23G26G27G29G31G32    0.000163414
  22567796.241 1  -5881137.145 1  -4359796.23445  22567798.09345
  19771297.819 6  -3981119.637 6  -3092370.56348  19771292.70648
  19110628.405 6  -7836988.453 6  -6083330.76248  19110622.53848
  23338469.257 3   -857197.051 3   -609190.75845  23338466.33545
  22647633.835 6  -4835529.039 6  -3752178.66846  22647627.73346
  21989167.718 6 -12865472.238 6  -9977805.90247  21989160.93747
  19589757.062 7  -5121138.828 7  -3978020.95748  19589755.59748
  20277713.749 6 -13356087.137 6 -10342907.95748  20277712.18748
  23114008.366 3  -2153792.609 3  -1669222.90646  23114006.13246
  20382576.499 7  -6069589.586 7  -4710917.50048  20382571.56548
  22222569.960 6  -1243265.391 6   -967489.20347  22222569.90947
 18  5 30  0 52 39.9950000  0 11G03G14G16G21G22G23G26G27G29G31G32    0.000150312
  22564912.296 1  -5896298.988 1  -4371610.69945  22564912.55845
  19769529.233 6  -3990412.473 6  -3099611.73848  19769524.34748
  19106746.015 6  -7857390.363 6  -6099228.36348  19106740.52648
  23333800.398 3   -881734.043 3   -628310.48045  23333796.89845
  22645139.562 6  -4848638.277 6  -3762393.65646  22645133.47246
  21982294.023 6 -12901590.844 6 -10005950.25847  21982287.60147
  19587137.343 6  -5134906.371 6  -3988748.91448  19587135.99548
  20270788.304 6 -13392482.836 6 -10371268.23048  20270786.03848
  23113050.382 3  -2158827.320 3  -1673146.02745  23113047.94845
  20379381.062 7  -6086382.984 7  -4724003.27748  20379375.94048
  22221987.640 6  -1246327.551 6   -969875.33647  22221987.65147
 18  5 30  0 52 44.9950000  0 10G03G14G16G21G22G23G26G27G31G32       0.000137211
  22562027.882 1  -5911454.063 1  -4383419.85945  22562028.57345
  19767762.851 7  -3999694.777 7  -3106844.70748  19767757.95248
  19102865.171 6  -7877784.063 6  -6115119.57048  19102859.45648
  23329132.148 3   -906267.574 3   -647427.50845  23329128.59745
  22642644.819 6  -4861745.691 6  -3772607.23446  22642639.37446
  21975421.921 6 -12937704.590 6 -10034090.83247  21975415.02347
  19584518.038 7  -5148670.895 7  -3999474.52048  19584516.70648
  20263863.601 6 -13428871.523 6 -10399623.05148  20263861.94448
  20376185.530 7  -6103174.020 7  -4737087.19948  20376180.68348
  22221405.530 6  -1249386.930 6   -972259.29347  22221405.01947
 18  5 30  0 52 49.9950000  0 10G03G14G16G21G22G23G26G27G31G32       0.000124107
  22559145.483 1  -5926602.301 1  -4395223.62945  22559145.96045
  19765998.280 7  -4008966.637 7  -3114069.53548  19765993.66748
  19098986.015 6  -7898169.590 6  -6131004.39548  19098980.20248
  23324463.827 3   -930797.395 3   -666541.66445  23324460.76945
  22640151.030 6  -4874851.309 6  -3782819.39546  22640144.81246
  21968550.890 6 -12973813.500 6 -10062227.63747  21968543.21847
  19581899.390 7  -5162432.371 7  -4010197.74648  19581897.76548
  20256940.530 6 -13465253.168 6 -10427972.37948  20256938.51148
  20372990.929 7  -6119962.719 7  -4750169.30948  20372986.05848
  22220823.585 6  -1252443.574 6   -974641.12547  22220823.67547
 18  5 30  0 52 54.9950000  0 10G03G14G16G21G22G23G26G27G31G32       0.000111002
  22556264.132 1  -5941744.332 1  -4407022.63745  22556264.30445
  19764235.968 6  -4018228.488 6  -3121286.56648  19764231.00748
  19095108.273 6  -7918547.422 6  -6146883.23048  19095101.91348
  23319797.085 4   -955324.133 4   -685653.39545  23319793.54245
  22637657.327 6  -4887955.598 6  -3793030.53946  22637651.37846
  21961680.343 6 -13009917.973 6 -10090360.98047  21961672.87047
  19579280.960 6  -5176191.332 6  -4020919.02048  19579279.27648
  20250018.569 6 -13501628.258 6 -10456316.61348  20250016.62048
  20369796.483 7  -6136749.559 7  -4763249.96148  20369791.44048
  22220242.554 6  -1255497.941 6   -977021.19147  22220242.05447
 18  5 30  0 52 59.9950000  0 10G03G14G16G21G22G23G26G27G31G32       0.000097897
  22553384.726 1  -5956879.656 1  -4418816.39145  22553383.70645
  19762475.452 7  -4027479.984 7  -3128495.53548  19762470.47648
  19091232.218 6  -7938917.258 6  -6162755.82848  19091225.97248
  23315130.280 3   -979847.379 3   -704762.41845  23315127.16745
  22635163.780 6  -4901058.273 6  -3803240.39846  22635157.84346
  21954811.077 6 -13046017.703 6 -10118490.63347  21954803.46047
  19576663.429 7  -5189947.430 7  -4031638.05948  19576662.15148
  20243098.194 6 -13537996.402 6 -10484655.42248  20243095.90948
  20366602.187 7  -6153534.148 7  -4776328.86748  20366597.24148
  22219662.132 6  -1258549.703 6   -979399.20747  22219661.65147
 18  5 30  0 53  4.9950000  0 10G03G14G16G21G22G23G26G27G31G32       0.000084789
  22550505.108 2  -5972008.641 2  -4430605.21945  22550504.87445
  19760716.905 6  -4036721.281 6  -3135696.54748  19760712.15948
  19087356.960 6  -7959279.180 6  -6178622.26248  19087351.35548
  23310463.733 4  -1004367.324 4   -723868.85545  23310460.81245
  22632670.468 6  -4914159.508 6  -3813449.16846  22632663.92946
  21947942.405 6 -13082112.852 6 -10146616.71147  21947934.38647
  19574046.468 7  -5203700.797 7  -4042354.95348  19574044.88248
  20236178.679 6 -13574357.785 6 -10512988.96948  20236176.74948
  20363408.585 7  -6170316.668 7  -4789406.15648  20363403.84748
  22219081.921 6  -1261599.023 6   -981775.31346  22219080.55846
 18  5 30  0 53  9.9950000  0 10G03G14G16G21G22G23G26G27G31G32       0.000071680
  22547627.421 1  -5987131.160 1  -4442389.02345  22547626.92545
  19758960.077 6  -4045952.531 6  -3142889.74248  19758955.51548
  19083484.194 6  -7979633.328 6  -6194482.62548  19083478.09348
  23305798.890 4  -1028884.039 4   -742972.79745  23305795.54645
  22630177.601 6  -4927259.355 6  -3823656.81646  22630171.62046
  21941074.210 6 -13118203.512 6 -10174739.30546  21941066.05446
  19571429.523 7  -5217451.617 7  -4053069.88348  19571428.08948
  20229260.843 6 -13610712.453 6 -10541317.28548  20229258.69048
  20360215.382 7  -6187097.207 7  -4802481.89548  20360210.76948
  22218501.804 6  -1264646.020 6   -984149.60947  22218500.39047
 18  5 30  0 53 14.9950000  0 10G03G14G16G21G22G23G26G27G31G32       0.000058569
  22544751.265 2  -6002247.617 2  -4454168.05945  22544750.37845
  19757205.491 6  -4055173.949 6  -3150075.26648  19757201.06248
  19079612.140 6  -7999979.953 6  -6210337.14148  19079606.06548
  23301134.179 4  -1053397.746 4   -762074.37545  23301130.65545
  22627685.468 5  -4940358.055 5  -3833863.62546  22627678.94046
  21934207.413 6 -13154289.867 6 -10202858.53946  21934198.89846
  19568813.358 7  -5231200.078 7  -4063782.98448  19568811.86248
  20222343.913 6 -13647060.652 6 -10569640.55548  20222341.48048
  20357022.093 7  -6203876.031 7  -4815556.30548  20357018.26948
  22217923.007 6  -1267690.934 6   -986522.29746  22217921.22246
 18  5 30  0 53 19.9950000  0 10G03G14G16G21G22G23G26G27G31G32       0.000045458
  22541876.905 2  -6017357.660 2  -4465942.16045  22541875.40145
  19755452.546 6  -4064385.266 6  -3157252.91848  19755447.94448
  19075741.898 7  -8020318.781 7  -6226185.56648  19075736.04648
  23296469.788 4  -1077908.145 4   -781173.41445  23296466.14845
  22625193.562 6  -4953455.402 6  -3844069.35546  22625186.55046
  21927341.108 6 -13190371.641 6 -10230974.20747  21927332.87447
  19566197.655 6  -5244945.926 6  -4074494.03948  19566196.25348
  20215427.780 6 -13683402.063 6 -10597958.53948  20215426.09748
  20353829.765 7  -6220652.828 7  -4828629.12948  20353825.56248
  22217343.140 6  -1270733.480 6   -988893.12947  22217342.55447
 18  5 30  0 53 24.9950000  0 10G03G14G16G21G22G23G26G27G31G32       0.000032345
  22539001.780 2  -6032461.207 2  -4477711.13345  22539000.41745
  19753701.726 6  -4073586.305 6  -3164422.57048  19753697.24948
  19071872.788 7  -8040649.570 7  -6242027.74648  19071867.14048
  23291806.444 4  -1102414.984 4   -800269.62545  23291803.29245
  22622700.983 6  -4966551.133 6  -3854273.82446  22622694.89846
  21920476.226 6 -13226448.523 6 -10259086.06647  21920467.45647
  19563582.554 7  -5258688.922 7  -4085202.87148  19563581.10548
  20208513.968 6 -13719736.449 6 -10626271.04748  20208511.79648
  20350637.733 7  -6237427.320 7  -4841700.17248  20350633.36248
  22216765.140 6  -1273773.473 6   -991261.98447  22216763.72247
 18  5 30  0 53 29.9950000  0 10G03G14G16G21G22G23G26G27G31G32       0.000019230
  22536129.249 2  -6047558.309 2  -4489475.13745  22536128.19445
  19751952.421 6  -4082777.227 6  -3171584.33248  19751947.92148
  19068005.421 7  -8060972.527 7  -6257863.82048  19067999.81948
  23287143.687 3  -1126918.516 3   -819363.26245  23287139.76545
  22620208.819 6  -4979645.453 6  -3864477.21146  22620202.99546
  21913611.499 6 -13262520.793 6 -10287194.32047  21913602.91747
  19560967.819 7  -5272429.254 7  -4095909.62548  19560966.24548
  20201601.194 6 -13756064.020 6 -10654578.24248  20201598.89848
  20347446.210 7  -6254199.734 7  -4854769.58648  20347441.71048
  22216186.882 6  -1276811.109 6   -993628.98847  22216185.98047
 18  5 30  0 53 34.9950000  0 10G03G14G16G21G22G23G26G27G31G32       0.000006113
  22533257.593 2  -6062648.863 2  -4501234.01645  22533256.44045
  19750205.937 6  -4091957.820 6  -3178738.05548  19750201.39448
  19064139.702 6  -8081287.512 6  -6273693.67248  19064133.70648
  23282480.780 3  -1151418.496 3   -838454.14845  23282478.23045
  22617717.358 6  -4992738.211 6  -3874679.35946  22617711.10846
  21906748.507 6 -13298588.219 6 -10315298.80547  21906739.82347
  19558353.476 7  -5286166.777 7  -4106614.18848  19558352.10848
  20194689.796 6 -13792384.547 6 -10682879.96148  20194687.50748
  20344255.015 7  -6270969.934 7  -4867837.28148  20344250.62848
  22215609.374 6  -1279846.184 6   -995994.01647  22215608.39047
 18  5 30  0 53 39.9950000  0 10G03G14G16G21G22G23G26G27G31G32      -0.000007004
  22530386.874 1  -6077732.664 1  -4512987.65645  22530385.99945
  19748460.773 6  -4101127.883 6  -3185883.55948  19748456.00748
  19060275.280 6  -8101594.227 6  -6289517.09048  19060269.43348
  23277820.148 3  -1175914.621 3   -857542.02345  23277816.90545
  22615226.585 6  -5005829.141 6  -3884880.09846  22615220.68346
  21899886.132 6 -13334650.539 6 -10343399.31347  21899877.30047
  19555740.202 7  -5299901.219 7  -4117316.34048  19555738.32748
  20187778.999 6 -13828697.754 6 -10711175.97348  20187777.12848
  20341064.437 7  -6287737.555 7  -4880902.96948  20341059.67148
  22215032.155 6  -1282878.480 6   -998356.87146  22215031.01546
 18  5 30  0 53 44.9950000  0 10G03G14G16G21G22G23G26G27G31G32      -0.000020123
  22527518.648 2  -6092809.895 2  -4524736.14845  22527517.15145
  19746717.655 6  -4110287.699 6  -3193021.08648  19746712.86248
  19056412.601 6  -8121893.004 6  -6305334.31348  19056406.64448
  23273158.796 4  -1200407.273 4   -876627.27045  23273155.48045
  22612735.858 5  -5018918.520 5  -3895079.62146  22612729.02346
  21893024.429 6 -13370708.027 6 -10371496.06347  21893015.85547
  19553127.358 7  -5313632.922 7  -4128016.38348  19553125.60148
  20180870.335 6 -13865003.941 6 -10739466.51248  20180868.58948
  20337873.741 7  -6304502.961 7  -4893966.92248  20337869.38648
  22214455.788 6  -1285908.316 6  -1000717.81647  22214454.84747
 18  5 30  0 53 49.9950000  0 10G03G14G16G21G22G23G26G27G31G32      -0.000033243
  22524649.710 2  -6107880.703 2  -4536479.59845  22524649.31245
  19744976.593 6  -4119437.258 6  -3200150.60948  19744971.81948
  19052552.054 6  -8142183.828 6  -6321145.34448  19052545.48348
  23268498.835 3  -1224896.234 3   -895709.53145  23268495.75745
  22610245.062 5  -5032006.395 5  -3905277.97746  22610238.82746
  21886164.046 6 -13406760.637 6 -10399588.98846  21886155.45246
  19550514.226 7  -5327361.820 7  -4138714.22348  19550512.93748
  20173963.382 6 -13901303.086 6 -10767751.55548  20173960.96448
  20334683.952 7  -6321266.102 7  -4907029.10248  20334679.50348
  22213879.288 6  -1288935.598 6  -1003076.75446  22213878.17946
 18  5 30  0 53 54.9950000  0 10G03G14G16G21G22G23G26G27G31G32      -0.000046364
  22521784.429 2  -6122944.730 2  -4548217.79746  22521782.39446
  19743237.616 6  -4128576.316 6  -3207271.96548  19743232.99148
  19048691.976 6  -8162466.445 6  -6336949.99248  19048685.59748
  23263839.062 3  -1249381.527 3   -914788.98045  23263836.30845
  22607755.460 5  -5045092.574 5  -3915475.00846  22607748.31546
  21879304.405 6 -13442808.109 6 -10427677.92647  21879295.85847
  19547902.804 7  -5341087.734 7  -4149409.75048  19547900.80848
  20167056.944 6 -13937594.914 6 -10796030.89848  20167055.12848
  20331494.499 7  -6338026.727 7  -4920089.33248  20331490.53448
  22213304.226 6  -1291960.254 6  -1005433.65246  22213303.14846
 18  5 30  0 53 59.9950000  0 10G03G14G16G21G22G23G26G27G31G32      -0.000059486
  22518919.382 3  -6138002.055 3  -4559950.80946  22518917.24946
  19741500.062 6  -4137704.867 6  -3214385.12948  19741495.65548
  19044833.921 6  -8182740.840 6  -6352748.21948  19044827.20648
  23259181.085 4  -1273862.887 4   -933865.38345  23259177.98345
  22605265.046 5  -5058177.035 5  -3925670.69946  22605258.74946
  21872445.757 6 -13478850.441 6 -10455762.87147  21872437.60847
  19545291.398 7  -5354810.605 7  -4160102.89148  19545289.79248
  20160152.124 6 -13973879.367 6 -10824304.49648  20160150.05048
  20328305.648 7  -6354784.828 7  -4933147.60248  20328301.35848
  22212728.929 6  -1294982.141 6  -1007788.38746  22212728.36246
 18  5 30  0 54  4.9950000  0 10G03G14G16G21G22G23G26G27G31G32      -0.000072609
  22516055.030 3  -6153052.945 3  -4571678.77346  22516052.81946
  19739764.819 6  -4146823.289 6  -3221490.39848  19739760.80848
  19040977.421 6  -8203007.398 6  -6368540.33648  19040970.52648
  23254523.319 3  -1298340.711 3   -952938.98845  23254520.00345
  22602774.601 5  -5071260.051 5  -3935865.25046  22602769.04246
  21865588.148 6 -13514887.945 6 -10483844.05547  21865580.27347
  19542680.632 7  -5368530.871 7  -4170794.01248  19542678.62848
  20153248.327 6 -14010156.828 6 -10852572.65648  20153246.39848
  20325116.882 7  -6371540.742 7  -4946204.16048  20325112.74148
  22212154.210 6  -1298001.664 6  -1010141.31346  22212153.79246
 18  5 30  0 54  9.9950000  0 10G03G14G16G21G22G23G26G27G31G32      -0.000085733
  22513192.601 4  -6168097.617 4  -4583401.90246  22513189.87446
  19738031.476 6  -4155931.680 6  -3228587.85548  19738027.26548
  19037122.210 6  -8223266.195 6  -6384326.41448  19037115.89048
  23249865.187 3  -1322815.133 3   -972009.96945  23249862.54645
  22600286.296 5  -5084341.785 5  -3946058.82846  22600279.26946
  21858731.398 6 -13550920.703 6 -10511921.52047  21858723.42947
  19540070.132 7  -5382248.570 7  -4181483.15248  19540067.89848
  20146346.515 6 -14046427.359 6 -10880835.40248  20146344.82348
  20321928.882 7  -6388294.559 7  -4959259.08648  20321924.56248
  22211580.437 6  -1301018.969 6  -1012492.48846  22211579.58946
 18  5 30  0 54 14.9950000  0 10G03G14G16G21G22G23G26G27G31G32      -0.000098860
  22510330.968 4  -6183135.715 4  -4595119.89846  22510328.81546
  19736300.398 6  -4165029.703 6  -3235677.23448  19736295.81248
  19033268.499 6  -8243517.023 6  -6400106.28148  19033261.65548
  23245208.515 3  -1347285.805 3   -991078.03945  23245205.94845
  22597796.562 4  -5097422.000 4  -3956251.19146  22597790.26146
  21851875.546 6 -13586948.469 6 -10539995.09847  21851868.08147
  19537459.937 7  -5395963.430 7  -4192170.07049  19537458.63249
  20139445.726 6 -14082690.695 6 -10909092.55148  20139443.69448
  20318741.179 7  -6405046.008 7  -4972312.18048  20318737.05848
  22211006.601 6  -1304033.699 6  -1014841.64846  22211006.00746
 18  5 30  0 54 19.9950000  0 10G03G14G16G21G22G23G26G27G31G32      -0.000111988
  22507470.171 4  -6198167.563 4  -4606833.01646  22507468.51946
  19734571.187 6  -4174117.754 6  -3242758.83648  19734566.39048
  19029416.483 6  -8263760.141 6  -6415880.14548  19029409.64448
  23240553.835 3  -1371753.074 3  -1010143.37945  23240549.97245
  22595308.218 5  -5110500.953 5  -3966442.61346  22595301.53846
  21845020.233 6 -13622971.480 6 -10568064.96947  21845012.95247
  19534850.780 7  -5409675.773 7  -4202855.01648  19534849.03448
  20132546.132 6 -14118947.047 6 -10937344.25448  20132544.34348
  20315554.007 7  -6421795.371 7  -4985363.62948  20315549.71448
  22210432.866 6  -1307046.242 6  -1017189.09846  22210432.83946
 18  5 30  0 54 24.9950000  0 10G03G14G16G21G22G23G26G27G31G32      -0.000125116
  22504611.023 3  -6213192.609 3  -4618540.87546  22504609.29246
  19732843.819 6  -4183195.227 6  -3249832.19548  19732838.77648
  19025566.015 6  -8283994.973 6  -6431647.54748  19025558.96848
  23235897.382 3  -1396216.359 3  -1029205.67245  23235894.95245
  22592819.499 5  -5123578.043 5  -3976632.56646  22592813.06946
  21838167.273 6 -13658989.137 6 -10596130.67247  21838159.46047
  19532241.905 7  -5423384.969 7  -4213537.50448  19532240.11648
  20125648.460 6 -14155195.871 6 -10965590.09048  20125646.84748
  20312367.148 7  -6438542.016 7  -4998412.96548  20312362.89848
  22209860.851 5  -1310056.004 5  -1019534.39846  22209860.29246
 18  5 30  0 54 29.9950000  0 10G03G14G16G21G22G23G26G27G31G32      -0.000138247
  22501752.687 3  -6228211.527 3  -4630243.91846  22501751.34346
  19731118.187 6  -4192262.758 6  -3256897.80948  19731113.44448
  19021716.663 6  -8304222.152 6  -6447408.98848  19021709.93748
  23231243.257 4  -1420676.203 4  -1048265.35245  23231240.26545
  22590331.476 5  -5136653.961 5  -3986821.59046  22590324.62446
  21831313.546 6 -13695002.113 6 -10624192.71947  21831306.44847
  19529633.694 7  -5437091.707 7  -4224218.07449  19529632.15949
  20118751.155 6 -14191437.793 6 -10993830.54748  20118750.01948
  20309180.663 7  -6455286.625 7  -5011460.70748  20309176.68748
  22209288.241 5  -1313063.625 5  -1021878.00446  22209287.97646
 18  5 30  0 54 34.9950000  0 10G03G14G16G21G22G23G26G27G31G32      -0.000151379
  22498895.132 4  -6243223.965 4  -4641941.92246  22498894.47646
  19729394.687 6  -4201320.063 6  -3263955.45348  19729389.79648
  19017869.265 7  -8324441.402 7  -6463164.24648  19017862.27648
  23226589.679 4  -1445132.352 4  -1067322.09845  23226586.40545
  22587843.280 4  -5149728.371 4  -3997009.44946  22587837.04646
  21824461.483 6 -13731010.055 6 -10652250.84447  21824454.97247
  19527025.710 7  -5450795.695 7  -4234896.50848  19527024.33548
  20111856.671 6 -14227672.453 6 -11022065.34848  20111854.75748
  20305994.663 7  -6472028.836 7  -5024506.59448  20305990.54648
  22208715.788 5  -1316068.797 5  -1024219.72346  22208716.08946
 18  5 30  0 54 39.9950000  0 10G03G14G16G21G22G23G26G27G31G32      -0.000164511
  22496040.515 4  -6258229.691 4  -4653634.69946  22496038.68346
  19727672.999 6  -4210366.883 6  -3271004.92248  19727668.35548
  19014022.960 6  -8344652.422 6  -6478913.09848  19014016.24148
  23221936.398 4  -1469584.516 4  -1086375.69545  23221933.53845
  22585355.585 4  -5162801.098 4  -4007196.00046  22585349.67146
  21817610.358 6 -13767012.676 6 -10680304.82447  21817603.64847
  19524418.390 7  -5464496.684 7  -4245572.60248  19524417.42148
  20104962.749 6 -14263899.629 6 -11050294.31348  20104961.08548
  20302809.171 7  -6488768.445 7  -5037550.45348  20302804.97248
  22208144.968 5  -1319071.246 5  -1026559.30546  22208144.76146
 18  5 30  0 54 44.9950000  0 10G03G14G16G21G22G23G26G27G31G32      -0.000177645
  22493186.827 4  -6273228.875 4  -4665322.39546  22493184.80046
  19725953.405 6  -4219403.406 6  -3278046.38748  19725948.60148
  19010178.765 6  -8364855.457 6  -6494655.71948  19010171.90148
  23217284.132 4  -1494032.805 4  -1105426.28545  23217280.81545
  22582868.648 4  -5175872.340 4  -4017381.40246  22582862.55046
  21810759.983 6 -13803010.160 6 -10708354.81347  21810753.55847
  19521811.913 6  -5478194.859 6  -4256246.51248  19521810.40148
  20098070.241 6 -14300119.461 6 -11078517.55948  20098068.69848
  20299624.601 7  -6505505.605 7  -5050592.39148  20299619.96048
  22207573.780 5  -1322071.262 5  -1028897.00446  22207573.85146
 18  5 30  0 54 49.9950000  0 10G03G14G16G21G22G23G26G27G31G32      -0.000190779
  22490333.171 4  -6288221.590 4  -4677005.05146  22490331.53846
  19724235.890 6  -4228429.656 6  -3285079.82848  19724231.06248
  19006335.890 6  -8385050.418 6  -6510392.05948  19006328.56248
  23212632.077 3  -1518477.309 3  -1124473.93045  23212629.15545
  22580381.124 4  -5188942.094 4  -4027565.60546  22580375.44046
  21803911.108 6 -13839002.504 6 -10736400.77347  21803904.72247
  19519205.601 7  -5491890.191 7  -4266918.18048  19519203.95648
  20091179.304 6 -14336331.957 6 -11106735.09448  20091177.63648
  20296439.608 7  -6522240.336 7  -5063632.43448  20296435.48748
  22207003.437 5  -1325068.762 5  -1031232.73046  22207003.32746
 18  5 30  0 54 54.9950000  0 10G03G14G16G21G22G23G26G27G31G32      -0.000203917
  22487481.421 3  -6303207.770 3  -4688682.60546  22487479.70246
  19722519.538 6  -4237445.586 6  -3292105.23448  19722515.63648
  19002494.226 6  -8405237.352 6  -6526122.14148  19002487.83148
  23207982.069 4  -1542917.930 4  -1143518.57845  23207977.86645
  22577894.507 4  -5202010.254 4  -4037748.62146  22577888.56246
  21797062.890 6 -13874989.652 6 -10764442.70347  21797056.67547
  19516600.093 7  -5505582.699 7  -4277587.66048  19516598.29648
  20084289.499 6 -14372537.008 6 -11134946.81348  20084287.87048
  20293255.624 7  -6538972.574 7  -5076670.54348  20293251.55048
  22206433.202 5  -1328063.758 5  -1033566.51646  22206433.91746
 18  5 30  0 54 59.9950000  0 10G03G14G16G21G22G23G26G27G31G32      -0.000217054
  22484631.116 4  -6318187.555 4  -4700355.14846  22484629.02646
  19720806.241 6  -4246451.340 6  -3299122.71548  19720801.89048
  18998654.273 7  -8425416.406 7  -6541846.08648  18998647.51948
  23203331.812 4  -1567354.832 4  -1162560.30945  23203327.80045
  22575407.648 5  -5215077.066 5  -4047930.55546  22575402.06546
  21790215.632 6 -13910971.770 6 -10792480.70347  21790209.21047
  19513995.366 7  -5519272.547 7  -4288255.07448  19513993.30048
  20077401.421 6 -14408734.789 6 -11163152.85948  20077399.14448
  20290071.788 7  -6555702.457 7  -5089706.81648  20290067.58148
  22205863.585 5  -1331056.391 5  -1035898.45746  22205865.00746
 18  5 30  0 55  4.9950000  0 10G03G14G16G21G22G23G26G27G31G32      -0.000230192
  22481781.671 4  -6333161.087 4  -4712022.84846  22481779.72646
  19719094.155 6  -4255446.996 6  -3306132.32848  19719090.14848
  18994815.858 6  -8445587.699 6  -6557563.97748  18994809.41348
  23198683.132 5  -1591788.129 5  -1181599.23445  23198678.23045
  22572921.890 5  -5228142.656 5  -4058111.53946  22572915.98346
  21783369.093 6 -13946948.934 6 -10820514.86747  21783363.33547
  19511390.319 7  -5532959.824 7  -4298920.48848  19511388.74548
  20070514.741 6 -14444925.406 6 -11191353.34848  20070512.92548
  20286888.655 7  -6572430.094 7  -5102741.34848  20286884.39048
  22205294.835 5  -1334046.793 5  -1038228.68046  22205295.67146
 18  5 30  0 55  9.9950000  0 10G03G14G16G21G22G23G26G27G31G32      -0.000243332
  22478934.054 4  -6348128.102 4  -4723685.44546  22478931.15546
  19717384.608 6  -4264432.270 6  -3313133.84448  19717380.02648
  18990979.155 6  -8465750.887 6  -6573275.55148  18990972.17148
  23194033.726 4  -1616217.414 4  -1200635.00045  23194029.59345
  22570435.515 5  -5241206.625 5  -4068291.26246  22570429.82346
  21776524.132 6 -13982920.762 6 -10848544.85247  21776518.13247
  19508786.015 7  -5546644.168 7  -4309583.61348  19508784.53448
  20063629.507 6 -14481108.441 6 -11219547.91848  20063627.56948
  20283706.101 7  -6589155.113 7  -5115773.83248  20283701.71848
  22204725.515 5  -1337034.613 5  -1040556.87946  22204727.33146
 18  5 30  0 55 14.9950000  0 10G03G14G16G21G22G23G26G27G31G32      -0.000256474
  22476086.023 4  -6363088.887 4  -4735343.19946  22476084.24546
  19715676.718 6  -4273407.570 6  -3320127.59448  19715671.91748
  18987143.585 7  -8485906.398 7  -6588981.15248  18987136.72248
  23189385.882 4  -1640643.141 4  -1219668.05545  23189380.78045
  22567949.530 5  -5254269.414 5  -4078470.07446  22567944.15546
  21769679.913 6 -14018887.598 6 -10876570.95747  21769674.21847
  19506182.937 7  -5560326.012 7  -4320244.78148  19506181.13648
  20056744.999 6 -14517284.336 6 -11247736.91848  20056743.22648
  20280524.194 7  -6605877.938 7  -5128804.60548  20280519.62448
  22204158.124 5  -1340020.242 5  -1042883.39146  22204159.23746
 18  5 30  0 55 19.9950000  0 10G03G14G16G21G22G23G26G27G31G32      -0.000269617
  22473241.398 5  -6378043.253 5  -4746995.93646  22473238.60546
  19713970.819 6  -4282372.688 6  -3327113.40248  19713966.22648
  18983309.624 7  -8506054.012 7  -6604680.59048  18983302.80048
  23184738.452 4  -1665064.984 4  -1238698.05145  23184733.62445
  22565464.718 5  -5267330.805 5  -4088647.78546  22565458.87046
  21762836.585 6 -14054849.250 6 -10904593.00447  21762830.68347
  19503579.773 7  -5574005.160 7  -4330903.85948  19503577.90148
  20049862.577 6 -14553452.840 6 -11275920.17248  20049860.65948
  20277342.343 7  -6622598.324 7  -5141833.48448  20277337.55448
  22203589.851 5  -1343003.555 5  -1045208.06646  22203591.54246
 18  5 30  0 55 24.9950000  0 10G03G14G16G21G22G23G26G27G31G32      -0.000282761
  22470397.233 5  -6392991.367 5  -4758643.82046  22470394.20246
  19712266.632 6  -4291327.727 6  -3334091.36748  19712261.94448
  18979477.405 7  -8526193.773 7  -6620373.91848  18979470.35548
  23180091.648 4  -1689483.066 4  -1257725.10245  23180086.79645
  22562979.398 5  -5280390.875 5  -4098824.45346  22562973.71846
  21755994.202 6 -14090805.770 6 -10932611.05947  21755988.46047
  19500977.241 6  -5587681.664 6  -4341560.89548  19500975.23748
  20042981.546 6 -14589613.988 6 -11304097.69148  20042979.45248
  20274161.171 7  -6639316.328 7  -5154860.50448  20274156.39448
  22203023.202 5  -1345984.535 5  -1047530.94946  22203024.49146
 18  5 30  0 55 29.9950000  0 10G03G14G16G21G22G23G26G27G31G32      -0.000295906
  22467553.585 4  -6407933.406 4  -4770286.96546  22467550.65946
  19710564.327 6  -4300272.867 6  -3341061.61348  19710559.76148
  18975646.085 7  -8546326.016 7  -6636061.38348  18975639.39448
  23175445.444 4  -1713897.660 4  -1276749.44945  23175440.74945
  22560494.179 5  -5293449.945 5  -4109000.37146  22560488.40146
  21749152.882 6 -14126757.496 6 -10960625.39547  21749147.46847
  19498375.015 7  -5601355.801 7  -4352216.07448  19498373.22248
  20036101.569 6 -14625768.082 6 -11332269.71148  20036099.29648
  20270980.241 7  -6656032.254 7  -5167885.91048  20270975.43348
  22202456.421 5  -1348963.570 5  -1049852.28546  22202457.88646
 18  5 30  0 55 34.9950000  0 10G03G14G16G21G22G23G26G27G31G32      -0.000309053
  22464711.398 4  -6422868.828 4  -4781924.95746  22464709.09746
  19708864.468 6  -4309207.547 6  -3348023.71948  19708859.98748
  18971816.569 6  -8566450.059 6  -6651742.46148  18971809.49148
  23170800.390 4  -1738308.063 4                
  22558009.843 5  -5306507.336 5  -4119174.97346  22558003.81246
  21742312.655 6 -14162703.711 6 -10988635.44947  21742306.92547
  19495773.437 7  -5615026.961 7  -4362868.92248  19495771.80448
  20029222.866 6 -14661914.430 6 -11360435.69548  20029220.70248
  20267799.788 7  -6672745.402 7  -5180909.14548  20267794.93748
  22201890.554 5  -1351939.941 5  -1052171.55946  22201891.33946
 18  5 30  0 55 39.9950000  0 10G03G14G16G21G22G23G26G27G31G32      -0.000322201
  22461869.905 4  -6437797.840 4  -4793557.96546  22461868.01546
  19707166.429 6  -4318132.082 6  -3354977.90248  19707161.48348
  18967988.812 6  -8586566.215 6  -6667417.38748  18967982.23048
  23166156.116 4  -1762714.547 4                
  22555525.187 5  -5319563.348 5  -4129348.50846  22555519.73346
  21735473.194 6 -14198644.660 6 -11016641.39847  21735467.76547
  19493172.968 7  -5628695.398 7  -4373519.66048  19493170.76548
  20022346.101 6 -14698053.277 6 -11388595.84048  20022343.35148
  20264619.718 7  -6689456.047 7  -5193930.43448  20264614.99948
  22201324.468 5  -1354913.953 5  -1054489.01246  22201325.36646
 18  5 30  0 55 44.9950000  0 10G03G14G16G21G22G23G26G27G31G32      -0.000335350
  22459029.999 4  -6452720.598 4  -4805186.09046  22459028.56246
  19705469.999 6  -4327046.574 6  -3361924.25848  19705464.90548
  18964162.124 6  -8606674.559 6  -6683086.23448  18964155.55048
  23161512.374 4  -1787117.211 4                
  22553040.968 5  -5332618.145 5  -4139521.07446  22553035.22246
  21728635.155 6 -14234580.496 6 -11044643.34447  21728629.14447
  19490571.882 7  -5642361.230 7  -4384168.36748  19490570.25748
  20015470.554 6 -14734184.797 6 -11416750.27048  20015467.69048
  20261440.335 7  -6706164.324 7  -5206949.87148  20261435.50348
  22200759.108 5  -1357885.750 5  -1056804.70746  22200759.64046
 18  5 30  0 55 49.9950000  0 10G03G14G16G21G22G23G26G27G31G32      -0.000348501
  22456191.882 4  -6467637.012 4  -4816809.28946  22456190.76546
  19703775.499 6  -4335950.855 6  -3368862.66848  19703770.78048
  18960337.437 7  -8626775.020 7  -6698748.93448  18960330.66748
  23156869.515 4  -1811516.020 4                
  22550556.648 5  -5345671.609 5  -4149692.62946  22550550.89846
  21721797.616 6 -14270511.012 6 -11072641.15247  21721792.17547
  19487972.210 7  -5656024.383 7  -4394814.98048  19487970.25348
  20008596.476 6 -14770308.805 6 -11444898.85548  20008593.81948
  20258261.187 7  -6722870.008 7  -5219967.30548  20258256.24948
  22200193.632 5  -1360855.223 5  -1059118.61746  22200194.12446
 18  5 30  0 55 54.9950000  0 10G03G14G16G21G22G23G26G27G31G32      -0.000361652
  22453353.882 4  -6482547.473 4  -4828427.83246  22453353.52346
  19702082.663 6  -4344845.344 6  -3375793.43848  19702078.13648
  18956513.351 7  -8646867.992 7  -6714405.80548  18956507.47648
  23152226.585 3  -1835911.270 3                
  22548073.038 5  -5358724.113 5  -4159863.42246  22548066.98746
  21714960.765 6 -14306436.660 6 -11100635.16047  21714955.17947
  19485372.163 7  -5669685.211 7  -4405459.78948  19485370.45248
  20001723.233 6 -14806425.699 6 -11473041.88348  20001720.92948
  20255082.874 7  -6739573.609 7  -5232983.09848  20255078.01148
  22199629.093 5  -1363822.770 5  -1061430.99646  22199629.56946
 18  5 30  0 55 59.9950000  0 10G03G14G16G21G22G23G26G27G31G32      -0.000374805
  22450517.562 3  -6497451.770 3  -4840041.56346  22450516.70246
  19700392.398 6  -4353729.727 6  -3382716.34448  19700386.85848
  18952691.562 7  -8666953.117 7  -6730056.55548  18952684.80848
  23147585.382 3  -1860302.684 3                
  22545589.194 5  -5371775.414 5  -4170033.27346  22545583.40546
  21708125.405 6 -14342357.078 6 -11128625.10947  21708120.53847
  19482773.077 7  -5683343.445 7  -4416102.57048  19482771.29648
  19994852.312 6 -14842535.105 6 -11501179.07848  19994849.23748
  20251904.358 7  -6756274.813 7  -5245997.02748  20251899.71848
  22199064.858 5  -1366788.078 5  -1063741.65246  22199065.32746
 18  5 30  0 56  4.9950000  0 10G03G14G16G21G22G23G26G27G31G32      -0.000387960
  22447682.335 3  -6512349.660 3  -4851650.31346  22447682.05446
  19698703.319 6  -4362603.961 6  -3389631.33248  19698698.56248
  18948870.921 6  -8687030.391 6  -6745701.18448  18948864.54648
  23142944.562 3  -1884690.168 3                
  22543106.187 5  -5384825.379 5  -4180202.11346  22543099.64046
  21701290.851 6 -14378272.156 6 -11156610.88747  21701285.51147
  19480174.866 7  -5696999.035 7  -4426743.28948  19480173.12048
  19987982.218 6 -14878636.988 6 -11529310.41848  19987979.88248
  20248727.280 7  -6772973.559 7  -5259009.04348  20248722.52348
  22198501.187 5  -1369751.121 5  -1066050.55146  22198501.41746
 18  5 30  0 56  9.9950000  0 10G03G14G16G21G22G23G26G27G31G32      -0.000401115
  22444849.194 3  -6527241.523 3  -4863254.38346  22444848.95246
  19697016.452 6  -4371468.285 6  -3396538.60548  19697011.35548
  18945051.788 7  -8707100.043 7  -6761339.87948  18945045.39448
  23138304.81213  -1909073.90213                
  22540622.773 5  -5397874.254 5  -4190370.07846  22540616.65546
  21694457.015 6 -14414182.094 6 -11184592.65247  21694452.11247
  19477576.874 7  -5710652.160 7  -4437382.08648  19477574.89448
  19981113.640 6 -14914731.543 6 -11557436.03548  19981111.29248
  20245549.687 6  -6789670.027 6  -5272019.29348  20245545.27648
  22197937.749 5  -1372712.082 5  -1068357.80146  22197937.82746
 18  5 30  0 56 14.9950000  0 10G03G14G16G21G22G23G26G27G31G32      -0.000414272
  22442016.593 4  -6542127.438 4  -4874853.80546  22442015.56946
  19695331.749 6  -4380322.867 6  -3403438.28548  19695326.63648
  18941233.882 6  -8727162.184 6  -6776972.71548  18941227.53048
  23133665.249 3  -1933454.051 3                
  22538139.905 5  -5410922.211 5  -4200537.31646  22538134.21446
  21687624.952 6 -14450087.043 6 -11212570.53147  21687619.57747
  19474979.030 7  -5724303.020 7  -4448019.11748  19474977.20248
  19974246.476 6 -14950818.918 6 -11585556.07048  19974244.12048
  20242372.835 7  -6806364.398 7  -5285027.89848  20242368.44048
  22197374.312 5  -1375671.176 5  -1070663.62146  22197374.88246
 18  5 30  0 56 19.9950000  0 10G03G14G16G21G22G23G26G27G31G32      -0.000427431
  22439184.929 4  -6557007.238 4  -4886448.44546  22439184.06246
  19693648.687 6  -4389167.461 6  -3410330.18048  19693643.89848
  18937417.530 6  -8747216.680 6  -6792599.60248  18937411.71848
  23129026.608 3  -1957830.328 3                
  22535657.054 4  -5423969.016 4  -4210703.69146  22535651.03446
  21680793.312 6 -14485986.793 6 -11240544.34847  21680787.85147
  19472381.601 7  -5737951.375 7  -4458654.20348  19472380.03848
  19967380.452 6 -14986898.852 6 -11613670.30148  19967378.06948
  20239196.648 6  -6823056.406 6  -5298034.66848  20239192.37848
  22196811.991 6  -1378628.113 6  -1072967.75046  22196811.68746
 18  5 30  0 56 24.9950000  0 10G03G14G16G21G22G23G26G27G31G32      -0.000440592
  22436354.866 4  -6571881.023 4  -4898038.38746  22436353.55446
  19691967.890 6  -4398002.230 6  -3417214.42248  19691962.76548
  18933602.999 7  -8767263.563 7  -6808220.55548  18933596.52348
  23124388.632 3  -1982202.863 3                
  22533174.265 4  -5437014.824 4  -4220869.26646  22533168.43746
  21673962.851 6 -14521881.344 6 -11268514.12547  21673957.54647
  19469785.124 7  -5751597.348 7  -4469287.42648  19469783.67948
  19960516.343 6 -15022971.438 6 -11641778.80548  19960513.30448
  20236020.358 7  -6839746.141 7  -5311039.65648  20236016.72248
  22196249.952 5  -1381583.066 5  -1075270.32846  22196249.03446
 18  5 30  0 56 29.9950000  0 10G03G14G16G21G22G23G26G27G31G32      -0.000453753
  22433525.858 5  -6586748.293 5  -4909623.28546  22433524.20646
  19690288.257 6  -4406826.605 6  -3424090.55548  19690283.55048
  18929789.937 6  -8787302.332 6  -6823835.18048  18929783.65548
  23119751.593 3  -2006571.121 3                
  22530692.569 4  -5450059.105 4  -4231033.66046  22530685.87046
  21667133.374 5 -14557770.344 5 -11296479.58647  21667127.91347
  19467188.913 7  -5765240.426 7  -4479918.40648  19467188.06248
  19953653.452 6 -15059036.160 6 -11669881.17648  19953650.51948
  20232845.233 6  -6856433.039 6  -5324042.44148  20232841.14848
  22195687.913 6  -1384535.539 6  -1077570.99246  22195687.21846
 18  5 30  0 56 34.9950000  0 10G03G14G16G21G22G23G26G27G31G32      -0.000466915
  22430697.976 4  -6601609.152 4  -4921203.17246  22430696.21846
  19688610.960 6  -4415640.746 6  -3430958.72748  19688606.19848
  18925978.210 6  -8807333.188 6  -6839443.63348  18925971.44848
  23115115.343 3  -2030935.297 3                
  22528211.171 4  -5463102.094 4  -4241197.04346  22528203.85146
  21660304.999 5 -14593653.855 5 -11324440.76647  21660299.40147
  19464593.515 7  -5778880.789 7  -4490547.26248  19464592.42148
  19946792.452 6 -15095093.121 6 -11697977.51248  19946788.81548
  20229670.257 7  -6873117.305 7  -5337043.16848  20229666.22648
  22195127.140 6  -1387485.660 6  -1079869.79746  22195125.82746
 18  5 30  0 56 39.9950000  0 10G03G14G16G21G22G23G26G27G31G32      -0.000480080
  22427870.858 4  -6616464.375 4  -4932778.66046  22427869.48046
  19686935.366 6  -4424445.414 6  -3437819.52348  19686931.11248
  18922167.679 6  -8827356.766 6  -6855046.42248  18922160.92548
  23110479.585 3  -2055296.055 3                
  22525728.882 5  -5476144.414 5  -4251359.90246  22525721.71846
  21653477.616 6 -14629532.531 6 -11352398.18047  21653471.90547
  19461998.148 7  -5792519.086 7  -4501174.50848  19461997.05048
  19939931.976 6 -15131143.039 6 -11726068.35948  19939928.72248
  20226495.976 6  -6889799.621 6  -5350042.37548  20226491.97648
  22194565.773 6  -1390434.141 6  -1082167.34047  22194564.96047
 18  5 30  0 56 44.9950000  0 10G03G14G16G21G22G23G26G27G31G32      -0.000493244
  22425045.030 4  -6631313.418 4  -4944349.37546  22425043.96446
  19685262.171 6  -4433240.109 6  -3444672.53148  19685257.39448
  18918358.687 7  -8847372.563 7  -6870643.14548  18918352.55848
  23105844.163 3  -2079652.809 3                
  22523246.804 5  -5489185.578 5  -4261521.85246  22523240.48346
  21646651.085 6 -14665405.828 6 -11380351.40247  21646645.23047
  19459403.210 7  -5806154.855 7  -4511799.79749  19459402.72249
  19933073.030 6 -15167185.344 6 -11754153.27348  19933070.01548
  20223321.757 7  -6906479.457 7  -5363039.64148  20223317.30848
  22194005.226 6  -1393380.480 6  -1084463.21547  22194004.08947
 18  5 30  0 56 49.9940000  0 10G03G14G16G21G22G23G26G27G31G32       0.000493591
  22422220.549 4  -6646153.453 4  -4955913.02346  22422219.63946
  19683590.736 7  -4442023.148 7  -3451516.47748  19683585.85048
  18914552.096 7  -8867376.738 7  -6886230.82048  18914545.47948
  23101211.416 4  -2104000.770 4                
  22520765.830 4  -5502223.133 4  -4271680.98846  22520759.95146
  21639826.900 5 -14701266.715 5 -11408294.94947  21639820.97147
  19456809.291 7  -5819785.473 7  -4522421.06648  19456808.28348
  19926217.440 6 -15203212.969 6 -11782226.73848  19926214.54148
  20220148.205 7  -6923153.578 7  -5376032.46548  20220144.64748
  22193445.002 6  -1396324.215 6  -1086757.05547  22193443.60447
 18  5 30  0 56 54.9940000  0 10G03G14G16G21G22G23G26G27G31G32       0.000480425
  22419396.861 4  -6660990.578 4  -4967474.42646  22419396.47546
  19681920.799 7  -4450798.168 7  -3458354.15248  19681916.02948
  18910746.065 6  -8887377.461 6  -6901815.79748  18910739.26848
  23096577.525 3  -2128349.918 3                
  22518284.861 5  -5515262.387 5  -4281841.47746  22518278.78346
  21633002.361 6 -14737129.637 6 -11436240.09447  21632996.44347
  19454215.533 7  -5833416.527 7  -4533042.69148  19454214.62348
  19919361.557 6 -15239240.402 6 -11810300.06348  19919358.67848
  20216975.244 6  -6939828.793 6  -5389026.13748  20216971.18648
  22192885.307 6  -1399266.645 6  -1089049.86747  22192883.69747
 18  5 30  0 56 59.9940000  0 10G03G14G16G21G22G23G26G27G31G32       0.000467255
  22416575.721 4  -6675821.609 4  -4979031.10546  22416574.52946
  19680252.713 7  -4459563.172 7  -3465184.03948  19680247.94048
  18906941.221 6  -8907370.477 6  -6917394.77348  18906934.91248
  23091944.752 3  -2152695.074 3                
  22515803.275 5  -5528300.520 5  -4292001.05146  22515797.86146
  21626179.088 6 -14772987.230 6 -11464181.08646  21626172.90846
  19451622.065 7  -5847045.102 7  -4543662.37948  19451620.95548
  19912507.346 6 -15275260.238 6 -11838367.46948  19912504.43648
  20213802.893 6  -6956501.578 6  -5402017.92648  20213798.40848
  22192325.783 6  -1402207.023 6  -1091341.10247  22192323.88947
