     2.10           OBSERVATION DATA    Mixed(MIXED)        RINEX VERSION / TYPE
cnvtToRINEX 3.07.0  convertToRINEX OPR  19-May-20 12:34 UTC PGM / RUN BY / DATE 
----------------------------------------------------------- COMMENT             
G058                                                        MARKER NAME         
G058                                                        MARKER NUMBER       
GNSS Observer       Trimble                                 OBSERVER / AGENCY   
5319436542          R5                  4.85                REC # / TYPE / VERS 
                    UNKNOWN EXT                             ANT # / TYPE        
 -3053228.4455  4926933.9652  2652653.1463                  APPROX POSITION XYZ 
        0.0000        0.0000        0.0000                  ANTENNA: DELTA H/E/N
     1     1     0                                          WAVELENGTH FACT L1/2
     4    C1    L1    L2    P2                              # / TYPES OF OBSERV 
     1.000                                                  INTERVAL            
  2020     5    16     5    11   38.0000000     GPS         TIME OF FIRST OBS   
  2020     5    16     6    20   55.0000000     GPS         TIME OF LAST OBS    
     0                                                      RCV CLOCK OFFS APPL 
    18                                                      LEAP SECONDS        
     9                                                      # OF SATELLITES     
   G01  4158  4158  4158  4158                              PRN / # OF OBS      
   G03  4158  4158  4154  4154                              PRN / # OF OBS      
   G07  4158  4158  4158  4158                              PRN / # OF OBS      
   G08  4158  4158  4154  4154                              PRN / # OF OBS      
   G11  4158  4158  4158  4158                              PRN / # OF OBS      
   G17  4158  4158  4154  4154                              PRN / # OF OBS      
   G22  4158  4158  4158  4158                              PRN / # OF OBS      
   G28  4158  4158  4154  4154                              PRN / # OF OBS      
   G30  4158  4158  4158  4158                              PRN / # OF OBS      
CARRIER PHASE MEASUREMENTS: PHASE SHIFTS REMOVED            COMMENT             
                                                            END OF HEADER       
 20  5 16  5 11 38.0000000  0  9G01G03G07G08G11G17G22G28G30          0.000311621
  20198420.844 7 106143415.75617  82709157.66759  20198422.60549
  23540336.305 5 123705548.77615                
  20969987.430 6 110198026.30816  85868614.30759  20969995.50449
  23093843.344 5 121358956.68315                
  21174469.797 6 111272589.27716  86705935.13458  21174477.01248
  24209894.391 4 127223831.72814                
  22774890.016 5 119682854.40515  93259386.75758  22774896.85948
  23877411.875 5 125476852.14715                
  21775782.828 6 114432508.38816  89168214.72959  21775793.01249
 20  5 16  5 11 39.0000000  0  9G01G03G07G08G11G17G22G28G30          0.000311750
  20198549.273 7 106144090.956 7  82709683.79649  20198561.34449
  23539854.477 4 123703015.680 4                
  20970217.578 6 110199235.275 6  85869556.36449  20970225.82449
  23094237.938 5 121361031.365 5                
  21174877.586 6 111274732.711 6  86707605.35148  21174884.98048
  24209655.445 4 127222573.903 4                
  22774630.047 5 119681487.104 5  93258321.33848  22774637.10948
  23876972.680 5 125474546.483 5                
  21775635.891 6 114431735.890 6  89167612.78149  21775645.66049
 20  5 16  5 11 40.0000000  0  9G01G03G07G08G11G17G22G28G30          0.000311878
  20198677.758 7 106144766.140 7  82710209.90949  20198688.59449
  23539372.344 4 123700481.944 4                
  20970447.875 6 110200444.249 6  85870498.42249  20970455.55949
  23094632.594 5 121363105.330 5                
  21175285.391 6 111276875.773 6  86709275.26448  21175292.80948
  24209416.055 4 127221315.551 4                
  22774369.664 6 119680119.483 6  93257255.66448  22774376.30548
  23876533.406 5 125472240.143 5                
  21775488.906 6 114430963.366 6  89167010.81149  21775499.05549
 20  5 16  5 11 41.0000000  0  9G01G03G07G08G11G17G22G28G30          0.000312008
  20198806.227 7 106145441.534 7  82710736.18849  20198816.66049
  23538890.336 4 123697947.817 4                
  20970677.484 6 110201653.343 6  85871440.56849  20970685.84049
  23095027.258 5 121365178.780 5                
  21175693.328 6 111279018.633 6  86710945.02048  21175700.94948
  24209176.477 4 127220056.813 4                
  22774109.531 6 119678751.748 6  93256189.89048  22774115.98848
  23876094.898 5 125469933.192 5                
  21775341.797 6 114430190.978 6  89166408.95149  21775352.13349
 20  5 16  5 11 42.0000000  0  9G01G03G07G08G11G17G22G28G30          0.000312136
  20198934.883 7 106146116.980 7  82711262.51049  20198945.62549
  23538408.289 4 123695413.124 4  96385897.24258  23538421.05548
  20970908.055 6 110202862.473 6  85872382.73749  20970915.71549
  23095421.430 5 121367251.635 5  94571935.55859  23095432.94549
  21176101.016 6 111281161.210 6  86712614.56048  21176108.86748
  24208936.953 4 127218797.661 4  99131582.61158  24208945.83248
  22773849.094 6 119677383.808 6  93255123.95848  22773856.10948
  23875656.047 5 125467625.567 5  97766848.81957  23875663.22747
  21775195.031 6 114429418.600 6  89165807.09749  21775205.00449
 20  5 16  5 11 43.0000000  0  9G01G03G07G08G11G17G22G28G30          0.000312263
  20199063.234 7 106146792.790 7  82711789.11549  20199074.10549
  23537924.984 4 123692878.223 4  96383921.99448  23537938.65648
  20971137.648 6 110204071.901 6  85873325.14549  20971145.73849
  23095816.125 5 121369324.140 5  94573550.49049  23095827.55149
  21176508.633 6 111283303.742 6  86714284.06348  21176516.09848
  24208696.719 4 127217538.296 4  99130601.28748  24208706.17648
  22773588.711 6 119676015.850 6  93254058.01548  22773595.61748
  23875216.305 5 125465317.555 5  97765050.35947  23875224.03547
  21775047.680 6 114428646.540 6  89165205.49049  21775058.23449
 20  5 16  5 11 44.0000000  0  9G01G03G07G08G11G17G22G28G30          0.000312389
  20199192.148 7 106147468.698 7  82712315.79649  20199202.75049
  23537443.328 4 123690342.787 4  96381946.33748  23537456.27348
  20971368.328 6 110205281.396 6  85874267.60449  20971375.72749
  23096211.086 5 121371396.015 5  94575164.93849  23096221.37549
  21176916.344 6 111285446.028 6  86715953.37848  21176923.94948
  24208457.063 4 127216278.524 4  99129619.65348  24208466.44948
  22773327.867 6 119674647.752 6  93252991.95748  22773335.13748
  23874777.109 5 125463008.871 5  97763251.39447  23874784.87147
  21774901.227 6 114427874.517 6  89164603.91449  21774911.35249
 20  5 16  5 11 45.0000000  0  9G01G03G07G08G11G17G22G28G30          0.000312517
  20199320.961 7 106148144.822 7  82712842.64749  20199331.28149
  23536960.461 4 123687806.958 4  96379970.36748  23536973.65248
  20971598.398 6 110206491.071 6  85875210.21349  20971606.37949
  23096605.203 5 121373467.410 5  94576779.00948  23096615.93448
  21177323.859 6 111287588.137 6  86717622.55348  21177331.56648
  24208217.289 4 127215018.422 4  99128637.75948  24208226.34848
  22773067.641 6 119673279.546 6  93251925.82748  22773074.91048
  23874337.844 5 125460699.715 5  97761452.05547  23874344.91447
  21774753.797 6 114427102.671 6  89164002.47249  21774764.04749
 20  5 16  5 11 46.0000000  0  9G01G03G07G08G11G17G22G28G30          0.000312645
  20199449.391 7 106148821.268 7  82713369.74649  20199460.17649
  23536478.398 4 123685270.887 4  96377994.20748  23536491.02748
  20971828.891 6 110207701.014 6  85876153.02249  20971836.91449
  23096998.852 5 121375538.449 5  94578392.81149  23097009.50449
  21177731.422 6 111289730.213 6  86719291.69748  21177739.18048
  24207977.414 4 127213758.130 4  99127655.71748  24207986.54348
  22772807.695 6 119671911.369 6  93250859.72048  22772814.68048
  23873898.570 5 125458390.104 5  97759652.36147  23873905.61747
  21774607.102 6 114426331.099 6  89163401.24349  21774617.71549
 20  5 16  5 11 47.0000000  0  9G01G03G07G08G11G17G22G28G30          0.000312771
  20199578.094 7 106149498.068 7  82713897.12549  20199588.71949
  23535995.641 4 123682734.502 4  96376017.80948  23536008.32848
  20972058.758 6 110208911.261 6  85877096.07049  20972066.51249
  23097393.398 5 121377609.136 5  94580006.32949  23097404.14849
  21178139.102 6 111291872.245 6  86720960.81248  21178146.68448
  24207737.539 4 127212497.646 4  99126673.52348  24207746.57448
  22772547.000 6 119670543.207 6  93249793.62248  22772554.18048
  23873458.461 5 125456080.083 5  97757852.34947  23873466.18047
  21774460.258 6 114425559.800 6  89162800.23449  21774470.25849
 20  5 16  5 11 48.0000000  0  9G01G03G07G08G11G17G22G28G30          0.000312897
  20199707.281 7 106150175.229 7  82714424.78249  20199717.75849
  23535512.898 4 123680197.901 4  96374041.23548  23535525.47348
  20972289.227 6 110210121.859 6  85878039.39549  20972297.16849
  23097786.711 5 121379679.474 5  94581619.57549  23097797.71549
  21178546.625 6 111294014.257 6  86722629.91248  21178554.14148
  24207497.453 4 127211236.983 4  99125691.18848  24207506.83648
  22772287.008 6 119669175.159 6  93248727.61148  22772294.32048
  23873019.250 5 125453769.691 5  97756052.04247  23873026.34447
  21774313.938 6 114424788.831 6  89162199.47749  21774323.79749
 20  5 16  5 11 49.0000000  0  9G01G03G07G08G11G17G22G28G30          0.000313025
  20199835.883 7 106150852.857 7  82714952.80449  20199846.32449
  23535029.914 4 123677661.175 4  96372064.56848  23535043.04348
  20972519.477 6 110211332.859 6  85878983.03149  20972527.67249
  23098180.969 5 121381749.563 5  94583232.63049  23098191.75449
  21178954.523 6 111296156.371 6  86724299.08748  21178962.15648
  24207258.359 4 127209976.269 4  99124708.81048  24207267.23448
  22772026.000 6 119667807.209 6  93247661.67848  22772033.50448
  23872579.133 5 125451459.015 5  97754251.51447  23872586.88747
  21774167.047 6 114424018.281 6  89161599.05249  21774177.36749
 20  5 16  5 11 50.0000000  0  9G01G03G07G08G11G17G22G28G30          0.000313150
  20199965.117 7 106151531.010 7  82715481.23649  20199975.54749
  23534547.289 4 123675124.348 4  96370087.82748  23534560.12148
  20972750.227 6 110212544.351 6  85879927.05449  20972758.09849
  23098574.898 5 121383819.451 5  94584845.52749  23098585.53949
  21179362.172 6 111298298.642 6  86725968.38848  21179369.50448
  24207018.297 4 127208715.524 4  99123726.41248  24207027.29348
  22771766.250 6 119666439.521 6  93246595.95048  22771773.47348
  23872139.680 5 125449148.122 5  97752450.82347  23872146.63747
  21774020.422 6 114423248.179 6  89160998.97249  21774030.44949
 20  5 16  5 11 51.0000000  0  9G01G03G07G08G11G17G22G28G30          0.000313276
  20200094.211 7 106152209.778 7  82716010.14549  20200105.03949
  23534064.969 4 123672587.561 4  96368111.11248  23534077.46948
  20972980.984 6 110213756.417 6  85880871.51949  20972988.81649
  23098968.453 5 121385889.291 5  94586458.38649  23098979.17649
  21179769.828 6 111300441.165 6  86727637.88948  21179777.57048
  24206778.008 4 127207454.899 4  99122744.10648  24206787.33248
  22771505.883 6 119665072.171 6  93245530.48248  22771513.27348
  23871699.820 5 125446837.122 5  97750650.04646  23871707.16446
  21773873.969 6 114422478.690 6  89160399.36549  21773884.37949
 20  5 16  5 11 52.0000000  0  9G01G03G07G08G11G17G22G28G30          0.000313402
  20200223.531 7 106152889.010 7  82716539.41149  20200234.05549
  23533581.242 4 123670050.599 4  96366134.26748  23533594.80148
  20973211.641 6 110214968.885 6  85881816.29549  20973219.51649
  23099362.313 5 121387958.886 5  94588071.06349  23099373.41849
  21180177.719 6 111302583.734 6  86729307.42148  21180185.07048
  24206538.570 4 127206194.174 4  99121761.72948  24206547.67248
  22771245.797 5 119663704.934 5  93244465.10448  22771252.87948
  23871259.922 5 125444525.805 5  97748849.02046  23871267.14146
  21773727.719 6 114421709.575 6  89159800.05849  21773738.01249
 20  5 16  5 11 53.0000000  0  9G01G03G07G08G11G17G22G28G30          0.000313528
  20200353.031 7 106153568.964 7  82717069.25149  20200363.64149
  23533099.188 4 123667513.749 4  96364157.50348  23533112.04748
  20973442.531 6 110216182.053 6  85882761.62249  20973450.39149
  23099756.414 5 121390028.539 5  94589683.77949  23099767.53149
  21180585.273 6 111304726.669 6  86730977.24448  21180592.69948
  24206298.594 4 127204933.674 4  99120779.52748  24206307.45748
  22770985.578 5 119662338.137 5  93243400.06848  22770993.12948
  23870819.750 5 125442214.473 5  97747047.98146  23870827.54346
  21773582.094 6 114420941.124 6  89159201.25849  21773591.40649
 20  5 16  5 11 54.0000000  0  9G01G03G07G08G11G17G22G28G30          0.000313656
  20200482.492 7 106154249.708 7  82717599.70149  20200493.29349
  23532616.297 5 123664977.145 5  96362180.93048  23532629.48448
  20973673.375 6 110217395.996 6  85883707.55449  20973681.43449
  23100150.242 5 121392098.288 5  94591296.56949  23100161.48449
  21180993.539 6 111306870.034 6  86732647.40048  21181001.13748
  24206058.016 4 127203673.436 4  99119797.52348  24206067.78948
  22770725.820 5 119660971.848 5  93242335.43148  22770733.03548
  23870380.391 5 125439903.140 5  97745246.94246  23870387.34046
  21773435.320 6 114420173.449 6  89158603.06849  21773445.28949
 20  5 16  5 11 55.0000000  0  9G01G03G07G08G11G17G22G28G30          0.000313782
  20200612.055 7 106154931.183 7  82718130.71949  20200623.23449
  23532133.703 4 123662440.574 4  96360204.37848  23532146.86748
  20973904.141 6 110218610.587 6  85884653.98349  20973912.22749
  23100543.492 5 121394168.035 5  94592909.35849  23100555.00449
  21181401.203 6 111309013.719 6  86734317.79648  21181408.71148
  24205818.609 4 127202413.396 4  99118815.67448  24205828.50048
  22770465.828 5 119659605.956 5  93241271.09947  22770472.93047
  23869940.586 5 125437591.860 5  97743445.94746  23869947.85246
  21773289.320 6 114419406.433 6  89158005.38949  21773299.46949
 20  5 16  5 11 56.0000000  0  9G01G03G07G08G11G17G22G28G30          0.000313908
  20200741.609 7 106155613.364 7  82718662.28849  20200752.58249
  23531650.625 4 123659904.190 4  96358227.97448  23531663.85548
  20974136.063 6 110219825.842 6  85885600.93649  20974144.07849
  23100937.641 5 121396237.808 5  94594522.16449  23100949.01649
  21181809.211 6 111311157.778 6  86735988.49048  21181816.71948
  24205579.016 3 127201153.498 3  99117833.93448  24205588.52348
  22770205.961 6 119658240.496 6  93240207.10747  22770213.32047
  23869500.781 5 125435280.547 5  97741644.92446  23869508.32046
  21773143.430 6 114418640.076 6  89157408.22949  21773153.68449
 20  5 16  5 11 57.0000000  0  9G01G03G07G08G11G17G22G28G30          0.000314034
  20200871.813 7 106156296.411 7  82719194.52749  20200882.56649
  23531168.180 4 123657368.007 4  96356251.73148  23531181.33248
  20974367.453 6 110221041.915 6  85886548.52849  20974375.34449
  23101331.508 5 121398307.726 5  94596135.09149  23101342.95749
  21182217.711 6 111313302.269 6  86737659.51948  21182225.18048
  24205339.375 3 127199893.946 3  99116852.46748  24205348.77748
  22769946.102 6 119656875.575 6  93239143.53247  22769953.36747
  23869060.695 5 125432969.301 5  97739843.94246  23869067.84846
  21772998.016 6 114417874.523 6  89156811.69349  21773007.92249
 20  5 16  5 11 58.0000000  0  9G01G03G07G08G11G17G22G28G30          0.000314161
  20201001.953 7 106156980.329 7  82719727.45249  20201012.60949
  23530685.758 5 123654832.133 5  96354275.73148  23530698.78548
  20974598.727 6 110222258.846 6  85887496.78449  20974606.58649
  23101725.625 5 121400377.840 5  94597748.16749  23101736.85549
  21182625.328 6 111315447.288 6  86739330.95848  21182633.06648
  24205099.883 4 127198634.748 4  99115871.28048  24205109.23048
  22769686.672 6 119655511.257 6  93238080.42848  22769694.04748
  23868621.023 5 125430658.203 5  97738043.08746  23868628.00046
  21772852.445 6 114417109.835 6  89156215.83749  21772862.34849
 20  5 16  5 11 59.0000000  0  9G01G03G07G08G11G17G22G28G30          0.000314287
  20201132.305 7 106157665.230 7  82720261.14449  20201142.71549
  23530203.031 4 123652296.603 4  96352299.99648  23530216.09448
  20974830.422 6 110223476.699 6  85888445.76249  20974838.52049
  23102119.008 5 121402448.183 5  94599361.41849  23102130.58249
  21183033.430 6 111317592.912 6  86741002.87548  21183041.27348
  24204860.469 4 127197376.026 4  99114890.46148  24204869.41848
  22769427.102 5 119654147.593 5  93237017.83748  22769434.49648
  23868181.727 5 125428347.355 5  97736242.42946  23868188.91446
  21772707.109 6 114416346.026 6  89155620.65949  21772717.24249
 20  5 16  5 12  0.0000000  0  9G01G03G07G08G11G17G22G28G30          0.000314413
  20201262.945 7 106158350.938 7  82720795.45549  20201273.88749
  23529720.859 5 123649761.287 5  96350324.42948  23529733.20748
  20975062.516 6 110224695.322 6  85889395.33649  20975070.27049
  23102513.117 5 121404518.672 5  94600974.77949  23102524.82449
  21183442.258 6 111319738.960 6  86742675.11848  21183449.33648
  24204621.227 4 127196117.513 4  99113909.79948  24204630.01648
  22769167.672 6 119652784.431 6  93235955.62848  22769175.10248
  23867740.992 5 125426036.567 5  97734441.81547  23867748.60947
  21772561.641 6 114415583.022 6  89155026.10549  21772572.11749
 20  5 16  5 12  1.0000000  0  9G01G03G07G08G11G17G22G28G30          0.000314541
  20201393.359 7 106159037.582 7  82721330.50349  20201404.13749
  23529239.063 5 123647226.330 5  96348349.13748  23529251.20348
  20975294.414 6 110225914.853 6  85890345.61149  20975302.45349
  23102907.273 5 121406589.376 5  94602588.31349  23102918.89149
  21183850.742 6 111321885.573 6  86744347.80148  21183858.01248
  24204381.250 4 127194859.479 4  99112929.51648  24204390.72748
  22768908.750 6 119651421.926 6  93234893.94148  22768915.27348
  23867301.766 5 125423725.958 5  97732641.34846  23867308.87546
  21772416.656 6 114414820.885 6  89154432.23349  21772427.13349
 20  5 16  5 12  2.0000000  0  9G01G03G07G08G11G17G22G28G30          0.000314669
  20201524.359 7 106159725.084 7  82721866.22249  20201534.89549
  23528755.742 4 123644691.596 4  96346374.02348  23528768.92648
  20975526.531 6 110227135.181 6  85891296.51949  20975534.77349
  23103301.305 5 121408660.260 5  94604201.98549  23103312.85549
  21184259.008 6 111324032.664 6  86746020.86348  21184266.67248
  24204141.477 4 127193601.697 4  99111949.42948  24204151.41048
  22768649.547 6 119650059.973 6  93233832.67948  22768656.39148
  23866861.836 5 125421415.444 5  97730840.95046  23866869.30946
  21772272.320 6 114414059.550 6  89153838.99049  21772282.17249
 20  5 16  5 12  3.0000000  0  9G01G03G07G08G11G17G22G28G30          0.000314795
  20201655.742 7 106160413.652 7  82722402.76849  20201666.05549
  23528273.688 5 123642157.377 5  96344399.31148  23528286.96148
  20975759.023 6 110228356.544 6  85892248.23149  20975767.34449
  23103695.602 5 121410731.525 5  94605815.96049  23103707.01649
  21184668.297 6 111326180.439 6  86747694.44748  21184675.37148
  24203903.039 3 127192344.510 3  99110969.80648  24203912.34048
  22768390.086 6 119648698.774 6  93232772.00248  22768397.37148
  23866422.172 5 125419105.278 5  97729040.81447  23866429.55147
  21772127.203 6 114413299.239 6  89153246.53749  21772137.08249
 20  5 16  5 12  4.0000000  0  9G01G03G07G08G11G17G22G28G30          0.000314922
  20201786.781 7 106161103.292 7  82722940.14849  20201797.50849
  23527791.227 4 123639623.570 4  96342424.92048  23527804.72348
  20975991.727 6 110229578.906 6  85893200.72049  20975999.30149
  23104089.953 5 121412803.153 5  94607430.21249  23104101.21949
  21185076.344 6 111328328.895 6  86749368.56848  21185084.31648
  24203663.805 4 127191087.802 4  99109990.55148  24203672.80948
  22768131.398 6 119647338.358 6  93231711.93548  22768138.43048
  23865982.539 5 125416795.422 5  97727240.90547  23865990.09447
  21771982.867 6 114412539.962 6  89152654.89149  21771992.69549
 20  5 16  5 12  5.0000000  0  9G01G03G07G08G11G17G22G28G30          0.000315050
  20201918.477 7 106161793.932 7  82723478.31249  20201928.93449
  23527309.625 4 123637090.144 4  96340450.82048  23527322.44948
  20976224.453 6 110230802.244 6  85894153.96749  20976232.45349
  23104484.711 5 121414875.077 5  94609044.69249  23104495.50849
  21185485.695 6 111330478.003 6  86751043.19448  21185492.96148
  24203424.555 4 127189831.682 4  99109011.75248  24203433.84048
  22767872.523 5 119645978.610 5  93230652.39448  22767879.92648
  23865543.398 5 125414485.837 5  97725441.22347  23865550.60947
  21771838.344 6 114411781.599 6  89152063.95849  21771848.55549
 20  5 16  5 12  6.0000000  0  9G01G03G07G08G11G17G22G28G30          0.000315178
  20202049.188 7 106162485.502 7  82724017.19649  20202060.60249
  23526827.156 4 123634557.112 4  96338477.03748  23526840.53548
  20976457.523 6 110232026.506 6  85895107.93749  20976465.45749
  23104878.742 5 121416947.231 5  94610659.35849  23104889.58249
  21185894.898 6 111332627.649 6  86752718.24848  21185902.25048
  24203184.977 4 127188575.859 4  99108033.18648  24203194.50048
  22767613.961 5 119644619.565 5  93229593.39448  22767621.22348
  23865104.344 5 125412176.360 5  97723641.63746  23865111.04746
  21771694.297 6 114411024.182 6  89151473.76349  21771704.25049
 20  5 16  5 12  7.0000000  0  9G01G03G07G08G11G17G22G28G30          0.000315308
  20202181.188 7 106163178.264 7  82724557.01349  20202191.96549
  23526345.273 4 123632024.606 4  96336503.65648  23526358.35548
  20976690.672 6 110233251.870 6  85896062.77149  20976698.25849
  23105272.875 5 121419019.855 5  94612274.38749  23105284.17249
  21186303.922 6 111334778.100 6  86754393.91848  21186311.51648
  24202946.813 3 127187320.709 3  99107055.14948  24202956.06348
  22767355.688 5 119643261.353 5  93228535.05248  22767362.94548
  23864664.625 5 125409867.422 5  97721842.47847  23864671.50047
  21771550.703 6 114410267.831 6  89150884.39649  21771560.45349
 20  5 16  5 12  8.0000000  0  9G01G03G07G08G11G17G22G28G30          0.000315435
  20202313.328 7 106163872.003 7  82725097.59049  20202323.81349
  23525863.539 4 123629492.521 4  96334530.61048  23525876.73448
  20976923.961 6 110234478.188 6  85897018.33649  20976932.03549
  23105667.969 5 121421092.776 5  94613889.64849  23105678.66449
  21186713.516 6 111336929.177 6  86756070.08748  21186720.92248
  24202707.922 4 127186065.988 4  99106077.44848  24202717.39848
  22767097.703 5 119641903.830 5  93227477.24448  22767104.19548
  23864225.641 5 125407558.731 5  97720043.50346  23864232.30546
  21771406.773 6 114409512.463 6  89150295.79649  21771416.94549
 20  5 16  5 12  9.0000000  0  9G01G03G07G08G11G17G22G28G30          0.000315565
  20202446.078 7 106164566.934 7  82725639.09049  20202456.13749
  23525381.148 4 123626961.006 4  96332558.00148  23525394.99248
  20977157.695 6 110235705.668 6  85897974.81649  20977165.13349
  23106062.039 5 121423166.216 5  94615505.31749  23106073.50449
  21187122.586 6 111339081.072 6  86757746.88348  21187130.61748
  24202469.109 4 127184811.937 4  99105100.27248  24202478.49248
  22766839.148 5 119640547.206 5  93226420.12948  22766846.39148
  23863786.508 5 125405250.428 5  97718244.82746  23863793.12146
  21771263.125 6 114408758.235 6  89149708.08849  21771273.21549
 20  5 16  5 12 10.0000000  0  9G01G03G07G08G11G17G22G28G30          0.000315693
  20202578.273 7 106165262.967 7  82726181.45549  20202589.08649
  23524900.406 4 123624429.976 4  96330585.77948  23524913.19948
  20977391.594 6 110236934.191 6  85898932.10949  20977399.18449
  23106457.031 5 121425240.018 5  94617121.26749  23106467.84849
  21187532.750 6 111341233.662 6  86759424.22448  21187540.34048
  24202230.875 4 127183558.499 4  99104123.56948  24202240.14148
  22766581.102 5 119639191.365 5  93225363.63848  22766588.00048
  23863347.188 5 125402942.478 5  97716446.41946  23863354.18046
  21771119.656 6 114408005.043 6  89149121.18649  21771129.81349
 20  5 16  5 12 11.0000000  0  9G01G03G07G08G11G17G22G28G30          0.000315823
  20202711.094 7 106165960.260 7  82726724.79749  20202721.80949
  23524418.820 4 123621899.619 4  96328614.07148  23524431.50048
  20977625.586 6 110238163.929 6  85899890.34049  20977633.24249
  23106852.000 5 121427314.423 5  94618737.68149  23106862.69549
  21187942.516 6 111343387.151 6  86761102.26948  21187949.62548
  24201992.516 4 127182305.737 4  99103147.39648  24202001.80148
  22766323.914 6 119637836.512 6  93224307.90648  22766330.30148
  23862907.258 5 125400635.072 5  97714648.44347  23862914.50047
  21770976.563 6 114407253.064 6  89148535.22549  21770986.80549
 20  5 16  5 12 12.0000000  0  9G01G03G07G08G11G17G22G28G30          0.000315952
  20202843.781 7 106166658.796 7  82727269.11349  20202854.60949
  23523937.734 4 123619369.904 4  96326642.86248  23523950.63348
  20977859.477 6 110239394.866 6  85900849.51249  20977867.53549
  23107246.492 5 121429389.341 5  94620354.49749  23107258.09849
  21188352.266 6 111345541.498 6  86762780.97948  21188359.50848
  24201753.773 4 127181053.739 4  99102171.81448  24201763.23448
  22766065.570 6 119636482.588 6  93223252.90247  22766072.90647
  23862468.594 5 125398328.136 5  97712850.83346  23862475.55146
  21770833.586 6 114406502.315 6  89147950.22949  21770844.07049
 20  5 16  5 12 13.0000000  0  9G01G03G07G08G11G17G22G28G30          0.000316082
  20202976.953 7 106167358.413 7  82727814.27249  20202987.66849
  23523455.453 4 123616840.643 4  96324672.01148  23523469.00048
  20978093.727 6 110240626.840 6  85901809.49449  20978101.89849
  23107640.938 5 121431464.641 5  94621971.61149  23107652.09849
  21188762.617 6 111347696.524 6  86764460.21848  21188770.07048
  24201516.352 4 127179802.229 4  99101196.60948  24201524.99648
  22765808.195 6 119635129.427 6  93222198.48747  22765814.76647
  23862029.336 5 125396021.561 5  97711053.49846  23862036.65246
  21770691.227 6 114405752.528 6  89147365.97349  21770701.03149
 20  5 16  5 12 14.0000000  0  9G01G03G07G08G11G17G22G28G30          0.000316214
  20203110.281 7 106168059.289 7  82728360.40749  20203121.13349
  23522974.289 4 123614312.066 4  96322701.69648  23522987.86748
  20978328.773 6 110241860.035 6  85902770.42349  20978337.00849
  23108036.734 5 121433540.494 5  94623589.16048  23108047.85948
  21189172.680 6 111349852.488 6  86766140.18848  21189179.90248
  24201277.664 4 127178551.515 4  99100222.02648  24201287.12148
  22765550.617 5 119633777.246 5  93221144.83947  22765557.61747
  23861591.305 5 125393715.492 5  97709256.56246  23861598.01646
  21770548.859 6 114405003.986 6  89146782.69349  21770559.06349
 20  5 16  5 12 15.0000000  0  9G01G03G07G08G11G17G22G28G30          0.000316343
  20203244.102 7 106168761.192 7  82728907.34749  20203254.49249
  23522493.508 4 123611783.911 4  96320731.70948  23522506.70748
  20978563.820 6 110243094.198 6  85903732.10449  20978571.32849
  23108431.508 5 121435616.705 5  94625206.98248  23108442.90248
  21189583.094 6 111352009.041 6  86767820.61948  21189590.80148
  24201040.125 4 127177301.231 4  99099247.77948  24201049.39548
  22765293.711 5 119632425.796 5  93220091.76347  22765300.44547
  23861152.266 5 125391409.681 5  97707459.83046  23861159.13346
  21770406.789 6 114404256.433 6  89146200.18649  21770416.44549
 20  5 16  5 12 16.0000000  0  9G01G03G07G08G11G17G22G28G30          0.000316475
  20203377.711 7 106169464.223 7  82729455.15849  20203388.28549
  23522012.945 4 123609256.319 4  96318762.16648  23522026.07448
  20978798.594 6 110244329.486 6  85904694.67249  20978806.22349
  23108826.758 5 121437693.323 5  94626825.12248  23108837.84848
  21189993.133 6 111354166.391 6  86769501.67648  21190001.06348
  24200802.266 4 127176051.564 4  99098274.01648  24200811.54748
  22765036.539 5 119631075.159 5  93219039.31647  22765043.24247
  23860713.523 5 125389104.265 5  97705663.40047  23860720.25047
  21770264.430 6 114403509.947 6  89145618.50749  21770274.51649
 20  5 16  5 12 17.0000000  0  9G01G03G07G08G11G17G22G28G30          0.000316607
  20203511.602 7 106170168.399 7  82730003.87049  20203522.00449
  23521531.688 5 123606729.229 5  96316793.00648  23521544.64148
  20979033.648 6 110245565.862 6  85905658.08249  20979041.80149
  23109221.828 5 121439770.361 5  94628443.59248  23109233.25048
  21190404.563 6 111356324.493 6  86771183.30748  21190411.76648
  24200564.797 4 127174802.509 4  99097300.72948  24200573.76648
  22764780.000 6 119629725.405 6  93217987.55947  22764786.50447
  23860275.094 5 125386799.298 5  97703867.31646  23860281.83246
  21770122.695 6 114402764.584 6  89145037.70049  21770132.64849
 20  5 16  5 12 18.0000000  0  9G01G03G07G08G11G17G22G28G30          0.000316738
  20203645.867 7 106170873.843 7  82730553.56649  20203656.53949
  23521051.203 5 123604202.781 5  96314824.34948  23521064.37948
  20979269.414 6 110246803.476 6  85906622.45349  20979277.55549
  23109617.406 5 121441847.962 5  94630062.49748  23109628.34048
  21190815.148 6 111358483.474 6  86772865.63048  21190822.51648
  24200326.922 4 127173554.217 4  99096328.03448  24200336.21948
  22764522.773 5 119628376.598 5  93216936.54147  22764529.65647
  23859836.406 5 125384494.791 5  97702071.60646  23859843.24246
  21769980.922 6 114402020.398 6  89144457.81649  21769990.77749
 20  5 16  5 12 19.0000000  0  9G01G03G07G08G11G17G22G28G30          0.000316870
  20203780.492 7 106171580.411 7  82731104.13649  20203790.96949
  23520570.469 4 123601676.895 4  96312856.12448  23520583.57048
  20979505.188 6 110248042.162 6  85907587.66649  20979513.05149
  23110012.250 5 121443926.037 5  94631681.77648  23110023.92648
  21191226.188 6 111360643.223 6  86774548.55048  21191233.57048
  24200089.469 4 127172306.535 4  99095355.82048  24200098.80548
  22764266.492 5 119627028.632 5  93215886.17647  22764273.22347
  23859398.125 5 125382190.696 5  97700276.21246  23859404.55146
  21769839.828 6 114401277.333 6  89143878.80549  21769849.32049
 20  5 16  5 12 20.0000000  0  9G01G03G07G08G11G17G22G28G30          0.000317001
  20203914.859 7 106172288.135 7  82731655.61249  20203925.85549
  23520090.000 4 123599151.564 4  96310888.33948  23520103.07848
  20979740.813 6 110249281.943 6  85908553.72949  20979748.96549
  23110408.086 5 121446004.519 5  94633301.37548  23110419.10248
  21191637.414 6 111362803.754 6  86776232.08148  21191644.50048
  24199852.016 4 127171059.421 4  99094384.04648  24199861.64548
  22764010.336 5 119625681.505 5  93214836.47247  22764016.64147
  23858959.930 5 125379886.998 5  97698481.11946  23858966.63346
  21769698.648 6 114400535.360 6  89143300.64449  21769708.35949
 20  5 16  5 12 21.0000000  0  9G01G03G07G08G11G17G22G28G30          0.000317135
  20204049.938 7 106172997.095 7  82732208.05149  20204060.56349
  23519609.375 4 123596626.862 4  96308921.03848  23519622.59848
  20979977.375 6 110250522.924 6  85909520.72249  20979985.09449
  23110803.695 5 121448083.569 5  94634921.41348  23110814.89148
  21192048.742 6 111364965.126 6  86777916.26748  21192055.86348
  24199614.773 4 127169812.999 4  99093412.81248  24199624.12948
  22763754.453 5 119624335.313 5  93213787.48647  22763760.72347
  23858521.125 5 125377583.809 5  97696686.42646  23858528.20346
  21769557.094 6 114399794.558 6  89142723.39649  21769567.43849
 20  5 16  5 12 22.0000000  0  9G01G03G07G08G11G17G22G28G30          0.000317266
  20204185.531 7 106173707.352 7  82732761.49549  20204195.82849
  23519128.891 4 123594102.828 4  96306954.26348  23519142.02048
  20980213.617 6 110251765.148 6  85910488.68449  20980221.51649
  23111199.852 5 121450163.201 5  94636541.90348  23111210.71548
  21192459.633 6 111367127.431 6  86779601.18348  21192467.16048
  24199378.375 4 127168567.408 4  99092442.21948  24199387.69948
  22763498.102 5 119622990.107 5  93212739.27047  22763504.45747
  23858082.992 5 125375281.138 5  97694892.13046  23858089.90246
  21769416.844 6 114399055.016 6  89142147.12949  21769426.91849
 20  5 16  5 12 23.0000000  0  9G01G03G07G08G11G17G22G28G30          0.000317400
  20204320.453 7 106174418.883 7  82733315.93049  20204330.96149
  23518648.867 4 123591579.482 4  96304988.02248  23518662.29348
  20980450.164 6 110253008.609 6  85911457.61449  20980457.73849
  23111595.406 5 121452243.436 5  94638162.86248  23111606.62548
  21192871.430 6 111369290.613 6  86781286.77748  21192878.83248
  24199141.211 5 127167322.515 5  99091472.17448  24199150.23848
  22763242.500 5 119621645.895 5  93211691.83047  22763248.64547
  23857644.953 5 125372978.992 5  97693098.25347  23857651.72347
  21769276.477 6 114398316.700 6  89141571.81649  21769286.19949
 20  5 16  5 12 24.0000000  0  9G01G03G07G08G11G17G22G28G30          0.000317535
  20204456.156 7 106175131.672 7  82733871.35549  20204466.89149
  23518168.984 4 123589056.818 4  96303022.31348  23518182.14548
  20980687.242 6 110254253.309 6  85912427.50649  20980694.94149
  23111991.016 5 121454324.216 5  94639784.24548  23112002.47348
  21193283.516 6 111371454.700 6  86782973.07348  21193290.64148
  24198904.211 4 127166078.401 4  99090502.73448  24198913.65648
  22762986.672 6 119620302.652 6  93210645.15847  22762993.05947
  23857206.883 5 125370677.379 5  97691304.78447  23857213.93047
  21769136.141 6 114397579.587 6  89140997.44049  21769145.80549
 20  5 16  5 12 25.0000000  0  9G01G03G07G08G11G17G22G28G30          0.000317669
  20204592.164 7 106175845.646 7  82734427.69849  20204602.91849
  23517689.453 4 123586534.717 4  96301057.04248  23517702.09048
  20980924.469 6 110255499.095 6  85913398.25549  20980932.16049
  23112387.164 5 121456405.468 5  94641405.99848  23112399.09448
  21193695.414 6 111373619.566 6  86784659.97948  21193702.94548
  24198667.898 4 127164834.879 4  99089533.75948  24198676.85248
  22762731.273 6 119618960.264 6  93209599.13548  22762737.48048
  23856768.938 5 125368376.201 5  97689511.64746  23856775.97346
  21768995.922 6 114396843.634 6  89140423.96549  21769005.71949
 20  5 16  5 12 26.0000000  0  9G01G03G07G08G11G17G22G28G30          0.000317802
  20204727.938 7 106176560.820 7  82734984.97249  20204738.89849
  23517209.383 4 123584013.264 4  96299092.27348  23517222.53148
  20981161.734 6 110256746.089 6  85914369.93649  20981169.37149
  23112783.992 5 121458487.248 5  94643028.16748  23112794.96948
  21194107.266 6 111375785.269 6  86786347.54048  21194114.50048
  24198431.039 4 127163592.071 4  99088565.34148  24198440.47748
  22762476.117 6 119617618.822 6  93208553.85447  22762482.11747
  23856330.891 5 125366075.509 5  97687718.90946  23856337.79746
  21768856.031 6 114396108.822 6  89139851.38949  21768866.09849
 20  5 16  5 12 27.0000000  0  9G01G03G07G08G11G17G22G28G30          0.000317938
  20204864.391 7 106177277.209 7  82735543.19949  20204875.16449
  23516729.828 4 123581492.370 4  96297127.94648  23516742.52348
  20981398.969 6 110257994.214 6  85915342.50949  20981406.54349
  23113179.867 5 121460569.524 5  94644650.72148  23113191.50448
  21194519.625 6 111377951.827 6  86788035.77148  21194527.04348
  24198195.438 4 127162349.930 4  99087597.43848  24198204.30948
  22762220.781 5 119616278.292 5  93207509.28348  22762227.21948
  23855893.234 5 125363775.293 5  97685926.54046  23855900.47346
  21768716.750 6 114395375.180 6  89139279.71849  21768726.42649
 20  5 16  5 12 28.0000000  0  9G01G03G07G08G11G17G22G28G30          0.000318073
  20205000.953 7 106177994.789 7  82736102.35149  20205011.40249
  23516249.930 4 123578972.105 4  96295164.10348  23516262.99648
  20981636.891 6 110259243.509 6  85916315.99249  20981644.62149
  23113576.766 5 121462652.280 5  94646273.64948  23113587.27048
  21194932.344 6 111380119.183 6  86789724.61448  21194939.36348
  24197958.211 4 127161108.455 4  99086630.04948  24197967.73448
  22761966.086 5 119614938.628 5  93206465.38947  22761972.38747
  23855455.750 5 125361475.497 5  97684134.49546  23855462.91046
  21768576.766 6 114394642.661 6  89138708.92249  21768587.17249
 20  5 16  5 12 29.0000000  0  9G01G03G07G08G11G17G22G28G30          0.000318209
  20205137.922 7 106178713.517 7  82736662.40249  20205148.53949
  23515770.852 4 123576452.385 4  96293200.68748  23515783.62148
  20981875.047 6 110260493.907 6  85917290.33249  20981882.71949
  23113972.242 5 121464735.504 5  94647896.93748  23113983.90248
  21195345.148 6 111382287.300 6  86791414.05448  21195351.94948
  24197722.445 5 127159867.609 5  99085663.14948  24197731.72348
  22761711.305 5 119613599.839 5  93205422.17448  22761717.53148
  23855018.539 5 125359176.119 5  97682342.77346  23855025.27346
  21768437.734 6 114393911.285 6  89138139.01749  21768447.81649
 20  5 16  5 12 30.0000000  0  9G01G03G07G08G11G17G22G28G30          0.000318344
  20205274.422 7 106179433.467 7  82737223.40149  20205285.33249
  23515291.891 4 123573933.286 4  96291237.75548  23515304.14848
  20982112.664 6 110261745.505 6  85918265.60449  20982120.59849
  23114369.297 5 121466819.247 5  94649520.63048  23114380.50848
  21195757.539 6 111384456.271 6  86793104.16348  21195764.71548
  24197486.164 4 127158627.429 4  99084696.77848  24197495.49248
  22761456.594 5 119612261.958 5  93204379.68048  22761463.23448
  23854580.930 5 125356877.215 5  97680551.41046  23854588.08246
  21768298.945 6 114393181.047 6  89137569.99549  21768308.91449
 20  5 16  5 12 31.0000000  0  9G01G03G07G08G11G17G22G28G30          0.000318481
  20205412.016 7 106180154.646 7  82737785.36149  20205422.68849
  23514811.859 4 123571414.806 4  96289275.30548  23514824.89548
  20982351.414 6 110262998.280 6  85919241.79149  20982358.81649
  23114765.641 5 121468903.510 5  94651144.72648  23114777.07048
  21196171.070 6 111386626.093 6  86794794.92948  21196177.50848
  24197251.219 4 127157387.987 4  99083730.98648  24197260.03948
  22761202.328 5 119610925.026 5  93203337.91847  22761208.62147
  23854143.750 5 125354578.798 5  97678760.43546  23854151.02346
  21768160.422 6 114392452.009 6  89137001.91349  21768170.18849
 20  5 16  5 12 32.0000000  0  9G01G03G07G08G11G17G22G28G30          0.000318617
  20205549.375 7 106180877.024 7  82738348.25449  20205560.18449
  23514332.430 4 123568896.933 4  96287313.32748  23514345.78948
  20982590.305 6 110264252.203 6  85920218.87249  20982597.46549
  23115162.297 5 121470988.292 5  94652769.23048  23115173.84448
  21196583.602 6 111388796.742 6  86796486.34248  21196590.58248
  24197015.523 5 127156149.173 5  99082765.67648  24197024.03548
  22760948.156 5 119609588.959 5  93202296.82947  22760954.34047
  23853706.109 5 125352280.817 5  97676969.79846  23853713.34446
  21768021.383 6 114391724.134 6  89136434.74149  21768031.25849
 20  5 16  5 12 33.0000000  0  9G01G03G07G08G11G17G22G28G30          0.000318754
  20205687.359 7 106181600.715 7  82738912.16649  20205697.94549
  23513853.664 4 123566379.742 4  96285351.88348  23513866.71148
  20982828.680 6 110265507.421 6  85921196.96049  20982836.50449
  23115559.547 5 121473073.664 5  94654394.19048  23115570.75448
  21196996.805 6 111390968.307 6  86798178.46948  21197003.55948
  24196779.367 5 127154911.093 5  99081800.94748  24196788.58648
  22760693.891 5 119608253.939 5  93201256.55047  22760700.01647
  23853269.188 5 125349983.406 5  97675179.60846  23853276.06346
  21767883.438 6 114390997.495 6  89135868.52849  21767893.35949
 20  5 16  5 12 34.0000000  0  9G01G03G07G08G11G17G22G28G30          0.000318892
  20205825.023 7 106182325.716 7  82739477.09949  20205835.80549
  23513374.703 4 123563863.303 4  96283391.02248  23513387.76248
  20983067.906 6 110266763.884 6  85922176.01649  20983075.41049
  23115955.891 5 121475159.627 5  94656019.61348  23115967.65248
  21197409.945 6 111393140.796 6  86799871.32148  21197417.08248
  24196543.898 5 127153673.855 5  99080836.86448  24196552.75848
  22760440.328 5 119606919.919 5  93200217.05447  22760446.49247
  23852832.023 5 125347686.572 5  97673389.85746  23852838.85246
  21767745.641 6 114390272.122 6  89135303.30049  21767755.66449
 20  5 16  5 12 35.0000000  0  9G01G03G07G08G11G17G22G28G30          0.000319029
  20205963.602 7 106183051.990 7  82740043.02949  20205974.14149
  23512895.859 5 123561347.527 5  96281430.68148  23512909.38348
  20983307.227 6 110268021.569 6  85923156.03349  20983314.62549
  23116353.602 5 121477246.208 5  94657645.52148  23116364.75448
  21197823.953 6 111395314.203 6  86801564.88148  21197830.62548
  24196308.320 5 127152437.362 5  99079873.35648  24196317.57048
  22760186.445 5 119605586.891 5  93199178.32947  22760193.02747
  23852394.773 5 125345390.261 5  97671600.52746  23852402.14846
  21767607.773 6 114389548.003 6  89134739.04949  21767617.46149
 20  5 16  5 12 36.0000000  0  9G01G03G07G08G11G17G22G28G30          0.000319168
  20206101.656 7 106183779.287 7  82740609.75149  20206112.61749
  23512417.578 4 123558832.214 4  96279470.70048  23512430.87948
  20983546.656 6 110269280.289 6  85924136.85449  20983554.29749
  23116750.906 5 121479333.135 5  94659271.69648  23116761.36348
  21198238.031 6 111397488.278 6  86803258.96848  21198244.75048
  24196073.086 5 127151201.378 5  99078910.25048  24196082.01248
  22759933.336 6 119604254.596 6  93198140.17447  22759939.60247
  23851957.922 5 125343094.276 5  97669811.45547  23851965.13747
  21767470.008 6 114388824.852 6  89134175.55849  21767479.65249
 20  5 16  5 12 37.0000000  0  9G01G03G07G08G11G17G22G28G30          0.000319305
  20206240.547 7 106184508.022 7  82741177.59849  20206251.33649
  23511939.258 4 123556317.709 4  96277511.34548  23511952.18448
  20983786.539 6 110270540.351 6  85925118.71249  20983794.31349
  23117147.898 5 121481420.760 5  94660898.41448  23117158.71548
  21198651.383 6 111399663.375 6  86804953.84648  21198658.65648
  24195837.914 4 127149966.232 4  99077947.80448  24195847.12148
  22759679.672 6 119602923.431 6  93197102.90747  22759686.27047
  23851521.531 5 125340798.937 5  97668022.88346  23851528.20346
  21767333.234 6 114388103.083 6  89133613.13749  21767342.83249
 20  5 16  5 12 38.0000000  0  9G01G03G07G08G11G17G22G28G30          0.000319445
  20206379.453 7 106185237.999 7  82741746.41149  20206390.22749
  23511460.789 4 123553803.821 4  96275552.47848  23511473.56648
  20984026.586 6 110271801.649 6  85926101.54649  20984034.35249
  23117545.508 5 121483508.944 5  94662525.56848  23117556.17248
  21199065.930 6 111401839.352 6  86806649.41748  21199072.69948
  24195603.391 4 127148731.860 4  99076985.95948  24195612.25848
  22759426.820 6 119601593.228 6  93196066.38347  22759432.88347
  23851084.883 5 125338504.097 5  97666234.69646  23851091.68446
  21767195.742 6 114387382.525 6  89133051.66449  21767205.27049
 20  5 16  5 12 39.0000000  0  9G01G03G07G08G11G17G22G28G30          0.000319584
  20206518.648 7 106185969.125 7  82742316.12049  20206528.99249
  23510982.797 4 123551290.486 4  96273594.04048  23510995.24648
  20984266.883 6 110273064.021 6  85927085.20649  20984274.28549
  23117942.906 5 121485597.575 5  94664153.07248  23117953.58648
  21199479.938 6 111404016.080 6  86808345.56848  21199486.96948
  24195368.742 5 127147498.063 5  99076024.55648  24195377.53148
  22759173.289 5 119600263.855 5  93195030.50747  22759179.92247
  23850648.320 5 125336209.646 5  97664446.81346  23850654.93446
  21767058.656 6 114386663.035 6  89132491.02349  21767068.67649
 20  5 16  5 12 40.0000000  0  9G01G03G07G08G11G17G22G28G30          0.000319723
  20206657.500 7 106186701.450 7  82742886.76749  20206668.56649
  23510503.383 4 123548777.790 4  96271636.09748  23510517.58248
  20984507.609 6 110274327.569 6  85928069.79149  20984514.69149
  23118339.852 5 121487686.717 5  94665780.97048  23118351.39548
  21199894.484 6 111406193.644 6  86810042.36848  21199901.29748
  24195133.867 5 127146264.943 5  99075063.68548  24195143.12548
  22758920.641 5 119598935.399 5  93193995.35247  22758927.30947
  23850211.688 5 125333915.697 5  97662659.32346  23850218.43446
  21766921.828 6 114385944.715 6  89131931.29549  21766932.01249
 20  5 16  5 12 41.0000000  0  9G01G03G07G08G11G17G22G28G30          0.000319864
  20206797.695 7 106187434.849 7  82743458.24249  20206808.06649
  23510025.727 4 123546265.569 4  96269678.52248  23510038.95748
  20984747.945 6 110275592.161 6  85929055.18049  20984755.43449
  23118737.852 5 121489776.254 5  94667409.18348  23118748.74248
  21200308.859 6 111408371.922 6  86811739.72848  21200315.66848
  24194899.813 5 127145032.392 5  99074103.25148  24194908.23848
  22758667.711 6 119597607.727 6  93192960.81047  22758674.56347
  23849775.391 5 125331622.093 5  97660872.09946  23849782.18446
  21766785.820 6 114385227.434 6  89131372.37149  21766795.16849
 20  5 16  5 12 42.0000000  0  9G01G03G07G08G11G17G22G28G30          0.000320004
  20206937.320 7 106188169.557 7  82744030.74349  20206947.76649
  23509548.281 4 123543754.014 4  96267721.47048  23509561.00848
  20984988.477 6 110276857.997 6  85930041.54649  20984996.28149
  23119135.438 5 121491866.335 5  94669037.82348  23119146.40248
  21200723.383 6 111410551.109 6  86813437.79548  21200730.48448
  24194665.156 5 127143800.576 5  99073143.39548  24194673.81648
  22758415.461 6 119596281.037 6  93191927.02547  22758422.16447
  23849338.266 5 125329329.011 5  97659085.27246  23849345.57046
  21766649.445 6 114384511.385 6  89130814.40949  21766659.04349
 20  5 16  5 12 43.0000000  0  9G01G03G07G08G11G17G22G28G30          0.000320145
  20207077.094 7 106188905.339 7  82744604.08149  20207087.67649
  23509070.234 4 123541243.000 4  96265764.84248  23509083.32448
  20985229.633 6 110278124.897 6  85931028.74449  20985236.98849
  23119533.344 5 121493956.849 5  94670666.79648  23119544.13748
  21201138.633 6 111412731.004 6  86815136.41248  21201145.09048
  24194430.703 4 127142569.328 4  99072183.97848  24194439.94948
  22758163.203 5 119594955.180 5  93190893.89447  22758169.55947
  23848902.156 5 125327036.294 5  97657298.73747  23848909.18847
  21766512.938 6 114383796.414 6  89130257.28849  21766523.02049
 20  5 16  5 12 44.0000000  0  9G01G03G07G08G11G17G22G28G30          0.000320284
  20207217.172 7 106189642.329 7  82745178.35749  20207228.05149
  23508592.945 4 123538732.540 4  96263808.64248  23508605.41848
  20985471.125 6 110279392.895 6  85932016.79349  20985479.08649
  23119931.781 5 121496047.837 5  94672296.13248  23119942.30548
  21201553.109 6 111414911.696 6  86816835.65648  21201560.40248
  24194196.984 5 127141338.764 5  99071225.09548  24194205.53548
  22757911.000 5 119593630.181 5  93189861.43048  22757917.75048
  23848466.000 5 125324744.005 5  97655512.53346  23848472.95746
  21766377.031 6 114383082.565 6  89129701.04249  21766387.48049
 20  5 16  5 12 45.0000000  0  9G01G03G07G08G11G17G22G28G30          0.000320425
  20207357.859 7 106190380.458 7  82745753.52149  20207368.71149
  23508115.234 4 123536222.632 4  96261852.87548  23508127.74248
  20985712.930 6 110280662.045 6  85933005.73649  20985720.15649
  23120329.180 5 121498139.282 5  94673925.82748  23120340.21548
  21201968.148 6 111417093.193 6  86818535.52548  21201975.55148
  24193962.766 5 127140108.771 5  99070266.65848  24193971.65248
  22757659.648 5 119592306.018 5  93188829.61247  22757665.62547
  23848030.227 5 125322452.127 5  97653726.65747  23848037.27747
  21766241.922 6 114382369.815 6  89129145.65049  21766252.19549
 20  5 16  5 12 46.0000000  0  9G01G03G07G08G11G17G22G28G30          0.000320568
  20207498.539 7 106191119.668 7  82746329.53249  20207509.19149
  23507637.594 4 123533713.226 4  96259897.49848  23507650.45348
  20985954.289 6 110281932.248 6  85933995.50749  20985962.11349
  23120727.461 5 121500231.114 5  94675555.82348  23120738.45748
  21202383.664 6 111419275.375 6  86820235.92448  21202390.59048
  24193728.633 5 127138879.386 5  99069308.69448  24193737.64848
  22757407.797 5 119590982.703 5  93187798.45347  22757414.25047
  23847593.719 5 125320160.627 5  97651941.08346  23847601.89846
  21766106.375 6 114381658.128 6  89128591.08949  21766116.56649
 20  5 16  5 12 47.0000000  0  9G01G03G07G08G11G17G22G28G30          0.000320709
  20207639.359 7 106191860.054 7  82746906.45249  20207650.27349
  23507160.211 4 123531204.416 4  96257942.58748  23507173.04348
  20986196.328 6 110283203.545 6  85934986.12649  20986203.96549
  23121125.594 5 121502323.405 5  94677186.18348  23121136.56648
  21202798.727 6 111421458.342 6  86821936.93648  21202806.14548
  24193494.266 5 127137650.612 5  99068351.21148  24193503.64148
  22757155.898 5 119589660.216 5  93186767.93948  22757162.06348
  23847158.070 5 125317869.517 5  97650155.80046  23847164.99246
  21765971.336 6 114380947.542 6  89128037.38349  21765981.07049
 20  5 16  5 12 48.0000000  0  9G01G03G07G08G11G17G22G28G30          0.000320850
  20207780.633 7 106192601.559 7  82747484.25349  20207791.48849
  23506682.633 4 123528696.077 4  96255988.03848  23506695.47748
  20986438.141 6 110284475.937 6  85935977.59549  20986446.06349
  23121523.867 5 121504416.099 5  94678816.84748  23121534.32448
  21203214.578 6 111423642.058 6  86823638.53248  21203221.67248
  24193260.563 5 127136422.401 5  99067394.17048  24193269.82848
  22756904.250 6 119588338.579 6  93185738.09448  22756910.80148
  23846721.727 5 125315578.825 5  97648370.84746  23846729.32846
  21765836.109 6 114380238.021 6  89127484.51349  21765846.04349
 20  5 16  5 12 49.0000000  0  9G01G03G07G08G11G17G22G28G30          0.000320993
  20207921.992 7 106193344.345 7  82748063.04449  20207932.25049
  23506205.469 4 123526188.463 4  96254034.06048  23506218.30948
  20986681.008 6 110285749.544 6  85936970.01749  20986688.46949
  23121921.789 5 121506509.421 5  94680448.00548  23121932.89548
  21203630.438 6 111425826.677 6  86825340.83248  21203637.44148
  24193027.789 4 127135194.987 4  99066437.74348  24193036.30548
  22756653.000 5 119587017.928 5  93184709.01548  22756659.25048
  23846286.180 5 125313288.616 5  97646586.26846  23846293.16846
  21765701.203 6 114379529.752 6  89126932.60949  21765711.21149
 20  5 16  5 12 50.0000000  0  9G01G03G07G08G11G17G22G28G30          0.000321136
  20208063.352 7 106194088.337 7  82748642.78049  20208074.68449
  23505728.273 4 123523681.441 4  96252080.53848  23505741.28148
  20986923.258 6 110287024.336 6  85937963.36349  20986930.97349
  23122320.188 5 121508603.228 5  94682079.54848  23122331.24248
  21204046.063 6 111428012.123 6  86827043.77148  21204053.64148
  24192794.047 4 127133968.275 4  99065481.87348  24192803.21548
  22756401.422 5 119585698.182 5  93183680.64647  22756408.60247
  23845850.656 5 125310998.897 5  97644802.07946  23845857.55946
  21765566.695 6 114378822.648 6  89126381.61949  21765576.91049
 20  5 16  5 12 51.0000000  0  9G01G03G07G08G11G17G22G28G30          0.000321280
  20208205.320 7 106194833.447 7  82749223.38949  20208216.13749
  23505251.195 4 123521174.972 4  96250127.44948  23505264.31348
  20987166.055 6 110288300.222 6  85938957.55249  20987173.70349
  23122719.344 5 121510697.449 5  94683711.41048  23122729.66848
  21204462.398 6 111430198.327 6  86828747.31348  21204469.11748
  24192560.531 4 127132742.131 4  99064526.43848  24192570.01248
  22756150.391 5 119584379.275 5  93182652.93347  22756157.07047
  23845415.156 5 125308709.601 5  97643018.20046  23845422.24246
  21765432.422 6 114378116.609 6  89125831.46349  21765442.61749
 20  5 16  5 12 52.0000000  0  9G01G03G07G08G11G17G22G28G30          0.000321423
  20208347.320 7 106195579.697 7  82749804.87749  20208357.89549
  23504774.648 4 123518669.020 4  96248174.76248  23504787.43048
  20987409.172 6 110289577.174 6  85939952.58249  20987416.65649
  23123117.656 5 121512792.135 5  94685343.63448  23123128.28548
  21204878.172 6 111432385.271 6  86830451.43048  21204885.18048
  24192327.367 4 127131516.558 4  99063571.45248  24192336.62148
  22755900.016 6 119583061.177 6  93181625.84147  22755906.48447
  23844979.195 5 125306420.627 5  97641234.58146  23844986.92646
  21765298.563 6 114377411.659 6  89125282.14949  21765308.62549
 20  5 16  5 12 53.0000000  0  9G01G03G07G08G11G17G22G28G30          0.000321566
  20208489.438 7 106196327.222 7  82750387.37049  20208499.96949
  23504297.375 4 123516163.765 4  96246222.61948  23504310.73448
  20987652.234 6 110290855.371 6  85940948.58049  20987659.99649
  23123516.492 5 121514887.412 5  94686976.31348  23123526.92648
  21205294.805 6 111434573.131 6  86832156.25448  21205301.37948
  24192094.219 4 127130291.763 4  99062617.06548  24192103.49648
  22755649.484 6 119581744.101 6  93180599.54947  22755655.74647
  23844543.797 5 125304132.224 5  97639451.41746  23844551.07046
  21765163.938 6 114376707.961 6  89124733.81849  21765174.21149
 20  5 16  5 12 54.0000000  0  9G01G03G07G08G11G17G22G28G30          0.000321711
  20208631.898 7 106197075.924 7  82750970.77449  20208642.54749
  23503820.703 4 123513659.061 4  96244270.90148  23503834.09848
  20987895.883 6 110292134.721 6  85941945.47349  20987903.61349
  23123915.398 5 121516983.134 5  94688609.33148  23123925.89848
  21205711.109 6 111436761.759 6  86833861.67548  21205718.36748
  24191861.852 4 127129067.589 4  99061663.16148  24191870.58248
  22755398.742 6 119580427.882 6  93179573.91847  22755404.90647
  23844108.211 5 125301844.230 5  97637668.56646  23844115.40646
  21765030.734 6 114376005.387 6  89124186.35249  21765041.05149
 20  5 16  5 12 55.0000000  0  9G01G03G07G08G11G17G22G28G30          0.000321854
  20208774.648 7 106197825.615 7  82751554.94449  20208785.46949
  23503344.281 4 123511154.791 4  96242319.52548  23503357.50048
  20988139.273 6 110293414.989 6  85942943.08949  20988147.52749
  23124314.141 5 121519079.106 5  94690242.55748  23124324.91848
  21206127.961 6 111438951.005 6  86835567.58048  21206135.07848
  24191629.008 4 127127843.908 4  99060709.64448  24191638.03548
  22755148.617 6 119579112.362 6  93178548.84647  22755154.70747
  23843673.258 5 125299556.505 5  97635885.92046  23843680.64846
  21764897.227 6 114375303.745 6  89123639.61649  21764907.32049
 20  5 16  5 12 56.0000000  0  9G01G03G07G08G11G17G22G28G30          0.000321999
  20208917.469 7 106198576.402 7  82752139.97149  20208928.04349
  23502868.508 4 123508650.970 4  96240368.49748  23502881.19148
  20988383.234 6 110294696.352 6  85943941.55349  20988391.37549
  23124712.750 5 121521175.554 5  94691876.15148  23124723.48048
  21206544.477 6 111441140.996 6  86837274.06648  21206551.91448
  24191396.180 4 127126620.771 4  99059756.55048  24191404.93048
  22754898.609 6 119577797.698 6  93177524.42947  22754904.79347
  23843237.820 5 125297269.146 5  97634103.55746  23843244.75446
  21764763.531 6 114374603.177 6  89123093.71749  21764773.80149
 20  5 16  5 12 57.0000000  0  9G01G03G07G08G11G17G22G28G30          0.000322144
  20209060.695 7 106199328.360 7  82752725.91449  20209071.61749
  23502391.859 4 123506147.813 4  96238417.98648  23502404.79348
  20988627.102 6 110295978.811 6  85944940.86849  20988635.17649
  23125111.734 5 121523272.470 5  94693510.11448  23125122.52748
  21206961.695 6 111443331.769 6  86838981.16248  21206968.35248
  24191163.914 4 127125398.300 4  99058803.97248  24191173.04748
  22754648.188 6 119576483.852 6  93176500.65547  22754654.83247
  23842802.656 5 125294982.218 5  97632321.53746  23842809.77046
  21764630.719 6 114373903.702 6  89122548.67049  21764640.65649
 20  5 16  5 12 58.0000000  0  9G01G03G07G08G11G17G22G28G30          0.000322289
  20209204.000 7 106200081.450 7  82753312.73649  20209214.58649
  23501915.555 4 123503645.109 4  96236467.82948  23501928.30548
  20988871.352 6 110297262.364 6  85945941.03949  20988879.28949
  23125510.922 5 121525369.812 5  94695144.40148  23125522.05548
  21207378.992 6 111445523.280 6  86840688.83348  21207385.71548
  24190930.867 4 127124176.404 4  99057851.84848  24190939.84848
  22754398.789 5 119575170.891 5  93175477.57247  22754405.18447
  23842367.414 5 125292695.662 5  97630539.81147  23842374.57047
  21764497.711 6 114373205.331 6  89122004.48349  21764507.98049
 20  5 16  5 12 59.0000000  0  9G01G03G07G08G11G17G22G28G30          0.000322435
  20209347.391 7 106200835.702 7  82753900.46849  20209358.05549
  23501439.664 4 123501143.023 4  96234518.15948  23501452.43848
  20989115.664 6 110298547.005 6  85946942.05249  20989123.69149
  23125910.219 5 121527467.597 5  94696779.03748  23125920.99248
  21207795.742 6 111447715.595 6  86842397.12948  21207802.87948
  24190698.344 4 127122955.148 4  99056900.22148  24190707.66048
  22754148.883 5 119573858.762 5  93174455.13547  22754155.07847
  23841932.922 4 125290409.531 4  97628758.41646  23841939.73446
  21764365.016 6 114372508.088 6  89121461.17749  21764375.00849
 20  5 16  5 13  0.0000000  0  9G01G03G07G08G11G17G22G28G30          0.000322580
  20209491.070 7 106201591.020 7  82754489.02649  20209502.17649
  23500963.281 4 123498641.382 4  96232568.82948  23500976.33648
  20989360.414 6 110299832.719 6  85947943.90649  20989368.42249
  23126309.430 5 121529565.762 5  94698413.96548  23126320.06648
  21208213.258 6 111449908.589 6  86844105.95548  21208219.96548
  24190465.539 4 127121734.429 4  99055949.00848  24190474.81348
  22753899.352 5 119572547.408 5  93173433.29847  22753905.56647
  23841497.109 5 125288123.732 5  97626977.27846  23841504.60946
  21764232.742 6 114371811.831 6  89120918.64149  21764242.82849
 20  5 16  5 13  1.0000000  0  9G01G03G07G08G11G17G22G28G30          0.000322727
  20209635.141 7 106202347.528 7  82755078.50949  20209645.94149
  23500487.500 4 123496140.344 4  96230619.97348  23500499.99248
  20989605.180 6 110301119.543 6  85948946.62649  20989613.23049
  23126708.828 5 121531664.429 5  94700049.28948  23126719.28948
  21208630.711 6 111452102.364 6  86845815.38548  21208637.88348
  24190234.352 4 127120514.336 4  99054998.28448  24190243.44148
  22753650.234 5 119571236.950 5  93172412.16547  22753656.12947
  23841062.234 5 125285838.377 5  97625196.48846  23841069.55546
  21764100.203 6 114371116.746 6  89120377.01749  21764110.38749
 20  5 16  5 13  2.0000000  0  9G01G03G07G08G11G17G22G28G30          0.000322872
  20209779.328 7 106203105.282 7  82755668.96849  20209790.23049
  23500012.031 5 123493639.931 5  96228671.60048  23500024.48848
  20989850.617 6 110302407.581 6  85949950.29149  20989858.43049
  23127108.656 5 121533763.657 5  94701685.05548  23127119.09448
  21209048.273 6 111454297.048 6  86847525.52848  21209055.55148
  24190001.750 4 127119294.967 4  99054048.13248  24190010.99248
  22753400.539 6 119569927.435 6  93171391.76947  22753406.78147
  23840627.766 5 125283553.513 5  97623416.07647  23840635.07447
  21763968.367 6 114370422.838 6  89119836.30949  21763978.42249
 20  5 16  5 13  3.0000000  0  9G01G03G07G08G11G17G22G28G30          0.000323019
  20209923.414 7 106203864.064 7  82756260.23049  20209934.45349
  23499536.125 5 123491140.018 5  96226723.62248  23499548.75848
  20990095.734 6 110303696.611 6  85950954.73149  20990103.82449
  23127508.469 5 121535863.182 5  94703321.04148  23127518.58248
  21209466.195 6 111456492.382 6  86849236.18048  21209472.75448
  24189770.273 4 127118076.126 4  99053098.38748  24189779.23448
  22753151.570 6 119568618.644 6  93170371.93547  22753157.73447
  23840193.102 5 125281268.954 5  97621635.90447  23840200.30947
  21763836.016 6 114369729.937 6  89119296.38449  21763846.64549
 20  5 16  5 13  4.0000000  0  9G01G03G07G08G11G17G22G28G30          0.000323166
  20210068.555 7 106204624.024 7  82756852.40249  20210079.07049
  23499060.664 5 123488640.614 5  96224776.03148  23499073.39148
  20990341.344 6 110304986.735 6  85951960.02149  20990349.14849
  23127907.867 5 121537963.190 5  94704957.41548  23127918.14848
  21209883.938 6 111458688.496 6  86850947.43448  21209891.18048
  24189538.047 4 127116857.911 4  99052149.12848  24189547.64148
  22752903.070 6 119567310.754 6  93169352.79747  22752908.94947
  23839758.484 5 125278984.820 5  97619856.06047  23839765.62947
  21763704.539 6 114369038.143 6  89118757.32149  21763714.58649
 20  5 16  5 13  5.0000000  0  9G01G03G07G08G11G17G22G28G30          0.000323315
  20210213.203 7 106205385.071 7  82757445.43249  20210223.82049
  23498585.281 5 123486141.755 5  96222828.86948  23498597.84448
  20990587.250 6 110306277.926 6  85952966.14549  20990594.99249
  23128307.734 5 121540063.608 5  94706594.10548  23128317.73048
  21210302.094 6 111460885.318 6  86852659.24548  21210309.10548
  24189306.539 4 127115640.268 4  99051200.32048  24189315.72348
  22752654.289 6 119566003.649 6  93168334.27647  22752660.17647
  23839324.352 5 125276701.044 5  97618076.49047  23839331.25847
  21763573.734 6 114368347.416 6  89118219.09549  21763583.56349
 20  5 16  5 13  6.0000000  0  9G01G03G07G08G11G17G22G28G30          0.000323462
  20210358.406 7 106206147.444 7  82758039.48849  20210369.05949
  23498109.742 5 123483643.619 5  96220882.27348  23498122.33248
  20990832.781 6 110307570.441 6  85953973.29749  20990840.52349
  23128707.188 5 121542164.653 5  94708231.27748  23128717.61748
  21210719.820 6 111463083.080 6  86854371.78948  21210727.07848
  24189075.578 4 127114423.436 4  99050252.14248  24189084.38748
  22752405.938 6 119564697.613 6  93167316.58847  22752411.56647
  23838889.492 4 125274417.886 4  97616297.39747  23838896.33647
  21763442.305 6 114367657.964 6  89117681.85249  21763452.57449
 20  5 16  5 13  7.0000000  0  9G01G03G07G08G11G17G22G28G30          0.000323608
  20210503.594 7 106206910.861 7  82758634.35749  20210514.07449
  23497634.688 5 123481145.926 5  96218936.02848  23497646.97348
  20991079.180 6 110308863.904 6  85954981.19449  20991087.12949
  23129107.109 5 121544266.039 5  94709868.71648  23129117.41848
  21211138.109 6 111465281.506 6  86856084.84748  21211145.45748
  24188844.156 4 127113207.048 4  99049304.30348  24188852.71948
  22752157.063 5 119563392.292 5  93166299.46047  22752163.14847
  23838455.367 5 125272134.955 5  97614518.49247  23838462.13347
  21763311.273 6 114366969.495 6  89117145.38349  21763321.43849
 20  5 16  5 13  8.0000000  0  9G01G03G07G08G11G17G22G28G30          0.000323757
  20210648.992 7 106207675.491 7  82759230.17349  20210660.16049
  23497159.547 5 123478648.873 5  96216990.27448  23497171.91048
  20991325.617 6 110310158.581 6  85955990.03049  20991333.35249
  23129507.047 5 121546367.941 5  94711506.55948  23129517.44548
  21211556.859 6 111467480.824 6  86857798.59848  21211564.09848
  24188611.828 4 127111991.407 4  99048357.05348  24188621.21948
  22751909.047 5 119562087.922 5  93165283.06547  22751915.07447
  23838020.344 5 125269852.546 5  97612739.99146  23838028.06646
  21763180.328 6 114366282.247 6  89116609.86749  21763190.61349
 20  5 16  5 13  9.0000000  0  9G01G03G07G08G11G17G22G28G30          0.000323906
  20210794.961 7 106208441.158 7  82759826.79449  20210805.51649
  23496684.492 5 123476152.245 5  96215044.84148  23496696.87548
  20991572.156 6 110311454.264 6  85956999.64849  20991579.81349
  23129907.117 5 121548470.222 5  94713144.70148  23129917.74248
  21211975.492 6 111469680.770 6  86859512.83948  21211982.96948
  24188380.813 4 127110776.297 4  99047410.21548  24188389.40248
  22751660.719 5 119560784.279 5  93164267.24147  22751666.59847
  23837586.695 5 125267570.457 5  97610961.74547  23837593.72747
  21763049.648 6 114365595.971 6  89116075.10649  21763059.69549
 20  5 16  5 13 10.0000000  0  9G01G03G07G08G11G17G22G28G30          0.000324055
  20210940.617 7 106209208.039 7  82760424.36049  20210951.36349
  23496209.398 5 123473656.233 5  96213099.89948  23496221.80948
  20991819.008 6 110312751.051 6  85958010.13249  20991826.46949
  23130307.406 5 121550572.923 5  94714783.17248  23130318.07448
  21212394.383 6 111471881.504 6  86861227.69948  21212401.08248
  24188149.750 4 127109561.819 4  99046463.87448  24188158.54748
  22751412.914 6 119559481.551 6  93163252.12847  22751418.81647
  23837151.734 4 125265288.797 4  97609183.82347  23837159.88347
  21762919.141 6 114364910.829 6  89115541.22949  21762929.48849
 20  5 16  5 13 11.0000000  0  9G01G03G07G08G11G17G22G28G30          0.000324203
  20211086.844 7 106209976.074 7  82761022.83449  20211097.34849
  23495734.148 5 123471160.823 5  96211155.42348  23495747.09848
  20992065.953 6 110314048.998 6  85959021.51649  20992073.85249
  23130707.414 5 121552676.125 5  94716422.03148  23130717.89148
  21212813.156 6 111474083.073 6  86862943.20148  21212820.19548
  24187918.344 4 127108347.953 4  99045518.00548  24187927.98848
  22751165.328 6 119558179.729 6  93162237.72047  22751171.09447
  23836717.969 5 125263007.595 5  97607406.26247  23836725.40647
  21762789.141 6 114364226.816 6  89115008.23149  21762799.18049
 20  5 16  5 13 12.0000000  0  9G01G03G07G08G11G17G22G28G30          0.000324354
  20211233.305 7 106210745.176 7  82761622.13049  20211244.09449
  23495259.563 5 123468665.809 5  96209211.26448  23495271.71548
  20992313.078 6 110315347.959 6  85960033.69649  20992320.89149
  23131107.820 5 121554779.703 5  94718061.18248  23131118.24248
  21213232.406 6 111476285.290 6  86864659.21648  21213239.55948
  24187687.406 4 127107134.632 4  99044572.56448  24187697.00848
  22750917.492 6 119556878.651 6  93161223.89147  22750923.33647
  23836283.633 4 125260726.687 4  97605628.93547  23836291.53947
  21762659.383 6 114363543.845 6  89114476.04849  21762669.36749
 20  5 16  5 13 13.0000000  0  9G01G03G07G08G11G17G22G28G30          0.000324503
  20211379.609 7 106211515.477 7  82762222.36349  20211390.62149
  23494784.633 5 123466171.446 5  96207267.60748  23494797.05948
  20992560.719 6 110316648.060 6  85961046.75749  20992568.39549
  23131508.461 5 121556883.767 5  94719700.70948  23131518.48448
  21213651.727 6 111478488.341 6  86866375.87948  21213659.00048
  24187456.922 4 127105921.990 4  99043627.64648  24187466.12148
  22750669.898 6 119555578.477 6  93160210.76947  22750676.00447
  23835850.289 4 125258446.256 4  97603851.98147  23835857.60947
  21762529.500 6 114362861.993 6  89113944.73549  21762539.83649
 20  5 16  5 13 14.0000000  0  9G01G03G07G08G11G17G22G28G30          0.000324654
  20211526.547 7 106212286.790 7  82762823.38749  20211537.42249
  23494309.805 5 123463677.504 5  96205324.28148  23494322.66848
  20992807.867 6 110317949.138 6  85962060.58649  20992815.84849
  23131908.250 5 121558988.160 5  94721340.49247  23131918.96147
  21214070.680 6 111480692.004 6  86868093.02048  21214078.01248
  24187226.102 4 127104709.823 4  99042683.10148  24187235.13348
  22750422.836 6 119554279.021 6  93159198.20847  22750428.44947
  23835416.023 4 125256166.048 4  97602075.20247  23835423.84447
  21762399.906 6 114362181.131 6  89113414.18949  21762410.34049
 20  5 16  5 13 15.0000000  0  9G01G03G07G08G11G17G22G28G30          0.000324804
  20211673.195 7 106213058.997 7  82763425.10949  20211684.28949
  23493835.531 5 123461183.868 5  96203381.18448  23493847.91848
  20993055.914 6 110319251.086 6  85963075.09149  20993064.01249
  23132308.883 5 121561092.732 5  94722980.41247  23132319.28547
  21214490.133 6 111482896.211 6  86869810.58548  21214497.71148
  24186995.492 4 127103498.046 4  99041738.85648  24187004.59448
  22750176.047 6 119552980.191 6  93158186.13347  22750181.51247
  23834981.891 5 125253886.016 5  97600298.55447  23834989.90647
  21762270.438 6 114361501.111 6  89112884.30249  21762280.70749
 20  5 16  5 13 16.0000000  0  9G01G03G07G08G11G17G22G28G30          0.000324955
  20211820.609 7 106213832.442 7  82764027.78849  20211831.52349
  23493361.688 5 123458690.872 5  96201438.59748  23493373.86348
  20993303.820 6 110320554.227 6  85964090.52149  20993311.48849
  23132709.500 5 121563197.867 5  94724620.77247  23132720.22347
  21214909.969 6 111485101.273 6  86871528.81348  21214917.19548
  24186765.742 4 127102286.937 4  99040795.13848  24186774.14148
  22749928.875 6 119551682.288 6  93157174.78147  22749934.66047
  23834548.328 5 125251606.554 5  97598522.35647  23834555.92247
  21762141.289 6 114360822.290 6  89112355.34949  21762151.27049
 20  5 16  5 13 17.0000000  0  9G01G03G07G08G11G17G22G28G30          0.000325106
  20211967.906 7 106214607.058 7  82764631.38249  20211978.74249
  23492887.039 5 123456198.454 5  96199496.44948  23492899.12548
  20993552.273 6 110321858.463 6  85965106.80849  20993559.93049
  23133110.555 5 121565303.448 5  94726261.48247  23133121.06647
  21215329.883 6 111487307.104 6  86873247.64448  21215337.37948
  24186535.078 4 127101076.491 4  99039851.93848  24186543.52748
  22749681.742 5 119550385.267 5  93156164.11347  22749687.69947
  23834114.586 5 125249327.438 5  97596746.41946  23834122.37546
  21762012.133 6 114360144.593 6  89111827.27549  21762022.24649
 20  5 16  5 13 18.0000000  0  9G01G03G07G08G11G17G22G28G30          0.000325256
  20212115.703 7 106215382.685 7  82765235.77149  20212126.34049
  23492412.961 5 123453706.486 5  96197554.66248  23492425.21948
  20993800.227 6 110323163.690 6  85966123.87049  20993808.37549
  23133511.250 5 121567409.365 5  94727902.45347  23133521.64147
  21215749.531 6 111489513.606 6  86874966.99748  21215756.73448
  24186304.703 4 127099866.533 4  99038909.11248  24186313.45748
  22749435.609 6 119549088.990 6  93155154.02448  22749441.45348
  23833681.008 5 125247048.635 5  97594970.72547  23833688.78947
  21761883.516 6 114359467.885 6  89111299.96749  21761893.79349
 20  5 16  5 13 19.0000000  0  9G01G03G07G08G11G17G22G28G30          0.000325407
  20212263.508 7 106216159.199 7  82765840.84849  20212274.21949
  23491939.148 5 123451214.724 5  96195613.02848  23491951.04748
  20994048.898 6 110324469.737 6  85967141.57149  20994056.78549
  23133912.188 5 121569515.449 5  94729543.55447  23133922.41447
  21216169.289 6 111491720.562 6  86876686.70048  21216177.25448
  24186075.063 4 127098656.901 4  99037966.54448  24186083.46548
  22749189.039 6 119547793.248 6  93154144.36247  22749194.49247
  23833246.875 4 125244769.929 4  97593195.11147  23833255.41047
  21761754.625 6 114358791.977 6  89110773.28749  21761765.06649
 20  5 16  5 13 20.0000000  0  9G01G03G07G08G11G17G22G28G30          0.000325560
  20212411.313 7 106216936.823 7  82766446.78949  20212421.98049
  23491465.070 5 123448723.599 5  96193671.89448  23491477.12548
  20994297.625 6 110325776.894 6  85968160.13149  20994305.63749
  23134312.703 5 121571622.008 5  94731185.03647  23134322.93847
  21216589.656 6 111493928.308 6  86878407.01648  21216597.18048
  24185844.945 5 127097447.901 5  99037024.46548  24185853.53548
  22748942.273 6 119546498.417 6  93153135.40547  22748948.32847
  23832813.805 4 125242491.640 4  97591419.81947  23832821.37147
  21761626.461 6 114358117.208 6  89110247.48849  21761636.92249
 20  5 16  5 13 21.0000000  0  9G01G03G07G08G11G17G22G28G30          0.000325710
  20212559.719 7 106217715.513 7  82767053.55749  20212570.33249
  23490990.906 5 123446232.875 5  96191731.06848  23491002.79348
  20994546.461 6 110327085.042 6  85969179.46549  20994554.49249
  23134714.094 5 121573728.887 5  94732826.75847  23134724.14547
  21217009.953 6 111496136.710 6  86880127.85148  21217017.30148
  24185614.297 5 127096239.406 5  99036082.78048  24185623.80548
  22748695.867 6 119545204.326 6  93152127.02947  22748701.80147
  23832380.453 5 125240213.694 5  97589644.79947  23832388.00847
  21761497.969 6 114357443.396 6  89109722.44249  21761508.53549
 20  5 16  5 13 22.0000000  0  9G01G03G07G08G11G17G22G28G30          0.000325863
  20212708.094 7 106218495.291 7  82767661.18149  20212718.87149
  23490517.281 5 123443742.663 5  96189790.64348  23490529.19948
  20994795.797 6 110328394.232 6  85970199.61049  20994803.47749
  23135115.234 5 121575836.194 5  94734468.81647  23135125.43447
  21217430.297 6 111498345.826 6  86881849.23848  21217437.55548
  24185383.984 5 127095031.460 5  99035141.52048  24185393.26248
  22748450.055 6 119543911.003 6  93151119.24547  22748455.66047
  23831946.695 4 125237936.057 4  97587870.01347  23831954.50847
  21761369.727 6 114356770.661 6  89109198.22949  21761380.57049
 20  5 16  5 13 23.0000000  0  9G01G03G07G08G11G17G22G28G30          0.000326015
  20212856.773 7 106219276.202 7  82768269.67849  20212867.26649
  23490043.063 5 123441253.031 5  96187850.67448  23490055.62148
  20995045.164 6 110329704.519 6  85971220.61349  20995052.98049
  23135516.016 6 121577943.918 6  94736111.20047  23135526.50047
  21217850.750 6 111500555.701 6  86883571.22148  21217858.17648
  24185155.328 5 127093824.106 5  99034200.72748  24185163.82848
  22748204.188 6 119542618.557 6  93150112.14447  22748209.87547
  23831513.438 4 125235658.833 4  97586095.55947  23831521.27747
  21761242.281 6 114356099.021 6  89108674.87349  21761252.59449
 20  5 16  5 13 24.0000000  0  9G01G03G07G08G11G17G22G28G30          0.000326168
  20213005.367 7 106220058.267 7  82768879.08249  20213016.14549
  23489569.094 5 123438763.925 5  96185911.11448  23489581.62148
  20995294.516 6 110331015.914 6  85972242.48049  20995302.72349
  23135917.219 5 121580052.111 5  94737753.94447  23135927.78147
  21218271.484 6 111502766.337 6  86885293.79248  21218278.97348
  24184925.484 5 127092617.395 5  99033260.42948  24184934.40648
  22747958.039 6 119541326.969 6  93149105.71347  22747964.12147
  23831080.188 5 125233382.026 5  97584321.42146  23831088.14546
  21761114.688 6 114355428.467 6  89108152.36049  21761125.15649
 20  5 16  5 13 25.0000000  0  9G01G03G07G08G11G17G22G28G30          0.000326321
  20213154.352 7 106220841.352 7  82769489.27749  20213165.32049
  23489095.563 5 123436275.247 5  96183971.88448  23489108.10948
  20995544.453 6 110332328.302 6  85973265.11549  20995552.07449
  23136318.336 6 121582160.635 6  94739396.94547  23136328.83247
  21218692.367 6 111504977.607 6  86887016.85648  21218699.71948
  24184695.633 5 127091411.151 5  99032320.50748  24184704.65648
  22747712.703 6 119540036.124 6  93148099.85347  22747718.58647
  23830646.938 4 125231105.489 4  97582547.50047  23830654.57447
  21760987.148 6 114354758.900 6  89107630.62249  21760997.70749
 20  5 16  5 13 26.0000000  0  9G01G03G07G08G11G17G22G28G30          0.000326473
  20213303.664 7 106221625.525 7  82770100.32249  20213314.15249
  23488622.609 5 123433787.083 5  96182033.05648  23488634.62148
  20995794.367 6 110333641.709 6  85974288.54749  20995802.05149
  23136719.281 6 121584269.551 6  94741040.25647  23136730.21147
  21219113.008 6 111507189.600 6  86888740.48548  21219120.60248
  24184466.086 5 127090205.514 5  99031381.04648  24184475.42248
  22747467.109 6 119538746.062 6  93147094.61147  22747473.22347
  23830213.828 5 125228829.315 5  97580773.86947  23830221.65647
  21760859.984 6 114354090.389 6  89107109.70249  21760869.70349
 20  5 16  5 13 27.0000000  0  9G01G03G07G08G11G17G22G28G30          0.000326628
  20213452.930 7 106222410.914 7  82770712.31349  20213463.57449
  23488149.242 5 123431299.575 5  96180094.74148  23488161.25048
  20996044.305 6 110334956.310 6  85975312.91049  20996051.86749
  23137120.750 6 121586378.977 6  94742683.96447  23137131.62547
  21219534.063 6 111509402.441 6  86890464.77848  21219541.88748
  24184237.164 5 127089000.547 5  99030442.11448  24184245.91448
  22747221.820 6 119537456.953 6  93146090.11047  22747227.80147
  23829780.734 5 125226553.619 5  97579000.59947  23829788.53547
  21760733.328 6 114353423.042 6  89106589.69049  21760743.72749
 20  5 16  5 13 28.0000000  0  9G01G03G07G08G11G17G22G28G30          0.000326780
  20213602.602 7 106223197.382 7  82771325.14549  20213613.56349
  23487675.531 5 123428812.488 5  96178156.75548  23487688.34048
  20996294.813 6 110336271.931 6  85976338.07149  20996302.55549
  23137522.547 5 121588488.764 5  94744327.95247  23137532.89147
  21219955.305 6 111511615.961 6  86892189.60148  21219962.36748
  24184008.211 5 127087796.118 5  99029503.59748  24184016.80148
  22746976.680 6 119536168.594 6  93145086.20048  22746982.35548
  23829347.719 5 125224278.226 5  97577227.56847  23829355.66047
  21760606.203 6 114352756.720 6  89106070.48049  21760616.75849
 20  5 16  5 13 29.0000000  0  9G01G03G07G08G11G17G22G28G30          0.000326935
  20213752.602 7 106223984.751 7  82771938.67849  20213763.46149
  23487202.039 5 123426325.739 5  96176219.03148  23487214.85948
  20996545.133 6 110337588.415 6  85977363.90249  20996553.31649
  23137923.703 5 121590598.803 5  94745972.13847  23137934.63747
  21220376.078 6 111513829.996 6  86893914.81848  21220383.77748
  24183778.398 5 127086592.038 5  99028565.35448  24183787.64148
  22746731.828 6 119534880.863 6  93144082.77147  22746737.39547
  23828915.141 5 125222003.058 5  97575454.71247  23828922.86347
  21760480.063 6 114352091.294 6  89105551.96749  21760490.11349
 20  5 16  5 13 30.0000000  0  9G01G03G07G08G11G17G22G28G30          0.000327089
  20213902.484 7 106224773.082 7  82772552.96349  20213913.50049
  23486728.727 5 123423839.386 5  96174281.61448  23486741.66048
  20996795.961 6 110338905.816 6  85978390.44749  20996803.87949
  23138325.477 5 121592709.071 5  94747616.50147  23138336.18447
  21220797.984 6 111516044.634 6  86895640.51248  21220805.42248
  24183549.297 5 127085388.405 5  99027627.45448  24183558.91848
  22746486.750 6 119533593.809 6  93143079.87047  22746492.80147
  23828482.609 5 125219728.089 5  97573682.00947  23828489.96547
  21760353.586 6 114351426.750 6  89105034.14049  21760363.21949
 20  5 16  5 13 31.0000000  0  9G01G03G07G08G11G17G22G28G30          0.000327244
  20214053.023 7 106225562.522 7  82773168.11249  20214063.54349
  23486256.039 5 123421353.521 5  96172344.58248  23486268.60248
  20997046.555 6 110340224.291 6  85979417.82949  20997054.84449
  23138727.055 5 121594819.765 5  94749261.19947  23138738.00847
  21221219.383 6 111518259.979 6  86897366.75648  21221227.15648
  24183320.516 5 127084185.354 5  99026690.01748  24183329.59448
  22746241.617 6 119532307.583 6  93142077.61647  22746247.86747
  23828049.180 5 125217453.458 5  97571909.57047  23828057.03947
  21760227.086 6 114350763.285 6  89104517.14749  21760237.15249
 20  5 16  5 13 32.0000000  0  9G01G03G07G08G11G17G22G28G30          0.000327398
  20214203.086 7 106226353.030 7  82773784.09049  20214214.04349
  23485783.328 5 123418868.144 5  96170407.92648  23485795.59048
  20997297.844 6 110341543.778 6  85980445.99949  20997305.60949
  23139129.055 5 121596930.856 5  94750906.20547  23139139.37147
  21221641.250 6 111520476.009 6  86899093.52948  21221648.62948
  24183091.914 5 127082982.831 5  99025752.98548  24183101.13348
  22745997.391 6 119531022.128 6  93141075.96347  22746003.50047
  23827615.906 4 125215179.188 4  97570137.41047  23827624.40247
  21760100.867 6 114350100.833 6  89104000.95249  21760111.17649
 20  5 16  5 13 33.0000000  0  9G01G03G07G08G11G17G22G28G30          0.000327553
  20214353.914 7 106227144.669 7  82774400.95249  20214364.61749
  23485310.641 5 123416383.313 5  96168471.69748  23485322.91048
  20997549.305 6 110342864.354 6  85981475.01949  20997557.03549
  23139530.938 5 121599042.342 5  94752551.51947  23139541.20747
  21222062.602 6 111522692.807 6  86900820.89948  21222070.37548
  24182862.688 4 127081780.924 4  99024816.43648  24182871.92648
  22745752.844 6 119529737.506 6  93140074.95648  22745758.83248
  23827183.055 5 125212905.303 5  97568365.55247  23827191.53547
  21759975.188 6 114349439.468 6  89103485.60449  21759985.50049
 20  5 16  5 13 34.0000000  0  9G01G03G07G08G11G17G22G28G30          0.000327707
  20214504.867 7 106227937.508 7  82775018.74749  20214515.67649
  23484837.602 5 123413899.080 5  96166535.93148  23484850.35948
  20997800.938 6 110344186.113 6  85982504.96249  20997808.46149
  23139933.125 5 121601154.383 5  94754197.25847  23139943.32047
  21222485.438 6 111524910.424 6  86902548.91748  21222492.69948
  24182634.664 4 127080579.730 4  99023880.44048  24182643.44948
  22745508.875 6 119528453.802 6  93139074.67247  22745514.47347
  23826751.383 5 125210631.897 5  97566594.06747  23826759.02047
  21759849.813 6 114348779.266 6  89102971.16049  21759859.44949
 20  5 16  5 13 35.0000000  0  9G01G03G07G08G11G17G22G28G30          0.000327864
  20214656.125 7 106228731.374 7  82775637.34649  20214666.60549
  23484364.992 5 123411415.315 5  96164600.53748  23484377.28148
  20998052.602 6 110345508.856 6  85983535.67349  20998060.51249
  23140334.656 5 121603266.721 5  94755843.23447  23140345.44947
  21222907.406 6 111527128.683 6  86904277.42848  21222914.98448
  24182406.039 4 127079379.011 4  99022944.82048  24182415.29348
  22745264.305 6 119527170.859 6  93138074.97447  22745270.32847
  23826318.258 5 125208358.772 5  97564822.79846  23826326.56646
  21759724.250 6 114348120.071 6  89102457.50649  21759734.25049
 20  5 16  5 13 36.0000000  0  9G01G03G07G08G11G17G22G28G30          0.000328020
  20214807.156 7 106229526.193 7  82776256.68249  20214817.57049
  23483892.563 5 123408931.887 5  96162665.40448  23483904.91048
  20998304.719 6 110346832.479 6  85984567.06349  20998312.34049
  23140736.813 5 121605379.328 5  94757489.42147  23140747.39547
  21223329.242 6 111529347.508 6  86906006.37848  21223336.89148
  24182177.555 5 127078178.705 5  99022009.51848  24182186.94548
  22745020.555 6 119525888.561 6  93137075.79047  22745026.87147
  23825886.508 5 125206085.859 5  97563051.70447  23825894.29747
  21759599.063 6 114347461.765 6  89101944.53849  21759608.77349
 20  5 16  5 13 37.0000000  0  9G01G03G07G08G11G17G22G28G30          0.000328175
  20214958.789 7 106230321.945 7  82776876.74949  20214969.57449
  23483420.234 5 123406448.823 5  96160730.55448  23483432.13348
  20998556.758 6 110348157.019 6  85985599.17349  20998564.46549
  23141138.852 5 121607492.163 5  94759135.78247  23141149.44147
  21223751.781 6 111531566.892 6  86907735.76848  21223759.72348
  24181950.141 5 127076978.764 5  99021074.49348  24181958.22748
  22744776.555 6 119524606.910 6  93136077.10447  22744782.60547
  23825453.602 5 125203813.136 5  97561280.74847  23825461.55147
  21759473.844 6 114346804.350 6  89101432.26249  21759484.08249
 20  5 16  5 13 38.0000000  0  9G01G03G07G08G11G17G22G28G30          0.000328331
  20215110.102 7 106231118.688 7  82777497.59149  20215121.21949
  23482947.656 5 123403966.146 5  96158795.99848  23482959.99248
  20998808.906 6 110349482.497 6  85986632.00949  20998816.99249
  23141541.094 5 121609605.300 5  94760782.38247  23141551.23047
  21224174.422 6 111533786.900 6  86909465.64748  21224181.78548
  24181721.516 5 127075779.340 5  99020139.88648  24181729.93448
  22744532.766 6 119523325.991 6  93135078.99147  22744538.66047
  23825021.109 5 125201540.669 5  97559510.00046  23825029.08646
  21759348.875 6 114346147.887 6  89100920.73549  21759359.22349
 20  5 16  5 13 39.0000000  0  9G01G03G07G08G11G17G22G28G30          0.000328487
  20215262.094 7 106231916.519 7  82778119.27449  20215272.98849
  23482475.563 5 123401483.987 5  96156861.85348  23482487.76648
  20999060.883 6 110350809.011 6  85987665.65549  20999068.85949
  23141943.492 5 121611718.809 5  94762429.26947  23141953.70747
  21224596.742 6 111536007.625 6  86911196.08048  21224604.06348
  24181493.078 5 127074580.421 5  99019205.66848  24181501.44148
  22744289.383 6 119522045.843 6  93134081.47448  22744295.14548
  23824588.898 5 125199268.550 5  97557739.51846  23824596.80946
  21759224.133 6 114345492.477 6  89100410.02449  21759234.24249
 20  5 16  5 13 40.0000000  0  9G01G03G07G08G11G17G22G28G30          0.000328644
  20215414.063 7 106232715.333 7  82778741.72749  20215424.84449
  23482002.406 5 123399002.213 5  96154928.00148  23482015.55148
  20999313.422 6 110352136.499 6  85988700.06249  20999321.53549
  23142345.133 5 121613832.645 5  94764076.41647  23142356.12947
  21225019.742 6 111538228.946 6  86912926.97548  21225027.08248
  24181264.461 5 127073382.036 5  99018271.86148  24181273.52748
  22744045.828 6 119520766.407 6  93133084.51547  22744051.89147
  23824156.109 5 125196996.713 5  97555969.25846  23824164.22346
  21759099.617 6 114344838.020 6  89099900.05849  21759109.63349
 20  5 16  5 13 41.0000000  0  9G01G03G07G08G11G17G22G28G30          0.000328800
  20215566.164 7 106233515.197 7  82779365.00449  20215577.24249
  23481530.609 5 123396520.922 5  96152994.52948  23481543.10948
  20999566.578 6 110353464.957 6  85989735.22049  20999574.48049
  23142747.867 6 121615946.798 6  94765723.81047  23142758.34847
  21225442.156 6 111540450.929 6  86914658.39648  21225450.00448
  24181037.297 5 127072184.121 5  99017338.42048  24181045.88348
  22743802.727 6 119519487.732 6  93132088.14248  22743808.62948
  23823724.047 5 125194725.145 5  97554199.19546  23823732.32846
  21758975.461 6 114344184.553 6  89099390.86549  21758985.53549
 20  5 16  5 13 42.0000000  0  9G01G03G07G08G11G17G22G28G30          0.000328959
  20215718.688 7 106234316.275 7  82779989.21449  20215729.57849
  23481058.727 5 123394040.246 5  96151061.54148  23481071.47748
  20999819.570 6 110354794.577 6  85990771.28849  20999827.32049
  23143150.313 6 121618061.478 6  94767371.60947  23143161.01647
  21225865.344 6 111542673.754 6  86916390.46148  21225872.71148
  24180808.711 5 127070986.894 5  99016405.51748  24180818.05948
  22743559.438 6 119518209.978 6  93131092.48447  22743565.35947
  23823292.250 5 125192454.053 5  97552429.51447  23823299.99247
  21758851.141 6 114343532.250 6  89098882.57549  21758861.44549
 20  5 16  5 13 43.0000000  0  9G01G03G07G08G11G17G22G28G30          0.000329115
  20215871.297 7 106235118.167 7  82780614.06349  20215882.11349
  23480586.688 5 123391559.782 5  96149128.71048  23480599.05148
  21000072.664 6 110356124.980 6  85991807.96849  21000080.40249
  23143552.406 6 121620176.293 6  94769019.51647  23143562.80947
  21226288.609 6 111544897.013 6  86918122.87448  21226296.09448
  24180581.695 5 127069789.968 5  99015472.84748  24180590.28948
  22743316.188 6 119516932.758 6  93130097.24747  22743322.44547
  23822860.125 5 125190183.080 5  97550659.93647  23822867.96947
  21758727.156 6 114342880.751 6  89098374.91049  21758737.52349
 20  5 16  5 13 44.0000000  0  9G01G03G07G08G11G17G22G28G30          0.000329273
  20216023.992 7 106235921.063 7  82781239.70349  20216034.89849
  23480114.641 5 123389079.743 5  96147196.22348  23480126.97748
  21000326.289 6 110357456.337 6  85992845.39249  21000334.02749
  23143955.000 6 121622291.394 6  94770667.65047  23143965.84047
  21226711.727 6 111547120.873 6  86919855.75048  21226719.00448
  24180353.820 5 127068593.451 5  99014540.49348  24180362.78548
  22743073.391 6 119515656.240 6  93129102.55847  22743079.07047
  23822427.422 5 125187912.332 5  97548890.52247  23822435.71147
  21758603.063 6 114342230.160 6  89097867.95449  21758613.16849
 20  5 16  5 13 45.0000000  0  9G01G03G07G08G11G17G22G28G30          0.000329432
  20216176.758 7 106236725.033 7  82781866.17049  20216188.09849
  23479643.039 5 123386600.203 5  96145264.11448  23479655.32448
  21000579.617 6 110358788.722 6  85993883.60549  21000587.65249
  23144357.641 6 121624406.887 6  94772316.08347  23144368.34447
  21227134.844 6 111549345.442 6  86921589.17848  21227142.25048
  24180126.227 5 127067397.501 5  99013608.58848  24180134.85548
  22742830.617 6 119514380.516 6  93128108.49247  22742836.71147
  23821995.148 5 125185641.937 5  97547121.38847  23822003.55147
  21758479.617 6 114341580.624 6  89097361.81949  21758490.01649
 20  5 16  5 13 46.0000000  0  9G01G03G07G08G11G17G22G28G30          0.000329588
  20216330.461 7 106237529.949 7  82782493.37549  20216341.09849
  23479170.984 5 123384121.028 5  96143332.28948  23479183.60948
  21000833.359 6 110360122.037 6  85994922.55749  21000841.32849
  23144760.188 6 121626522.619 6  94773964.70147  23144770.37547
  21227558.234 6 111551570.579 6  86923323.05448  21227566.04348
  24179898.664 4 127066201.999 4  99012677.02748  24179907.61348
  22742587.906 6 119513105.483 6  93127114.96347  22742594.24247
  23821563.609 5 125183371.754 5  97545352.40947  23821571.51247
  21758356.367 6 114340932.007 6  89096856.41149  21758366.07049
 20  5 16  5 13 47.0000000  0  9G01G03G07G08G11G17G22G28G30          0.000329746
  20216483.563 7 106238335.975 7  82783121.44349  20216494.50049
  23478699.703 5 123381642.335 5  96141400.84548  23478712.03148
  21001087.070 6 110361456.381 6  85995962.29849  21001094.91049
  23145162.914 6 121628638.769 6  94775613.65447  23145173.42647
  21227982.000 6 111553796.466 6  86925057.50848  21227989.55548
  24179671.117 4 127065007.062 4  99011745.90048  24179679.93448
  22742345.234 6 119511831.226 6  93126122.03547  22742351.46147
  23821131.820 4 125181101.933 4  97543583.69946  23821139.73046
  21758233.188 6 114340284.434 6  89096351.81549  21758243.22749
 20  5 16  5 13 48.0000000  0  9G01G03G07G08G11G17G22G28G30          0.000329905
  20216637.297 7 106239143.015 7  82783750.31049  20216648.21949
  23478227.781 5 123379164.106 5  96139469.75748  23478240.02748
  21001341.367 6 110362791.709 6  85997002.81349  21001349.09849
  23145565.336 6 121630755.270 6  94777262.87347  23145576.49247
  21228405.688 6 111556022.964 6  86926792.44048  21228413.34048
  24179443.844 4 127063812.632 4  99010815.17748  24179453.04748
  22742102.820 6 119510557.708 6  93125129.68847  22742109.05547
  23820699.766 5 125178832.409 5  97541815.24347  23820707.40647
  21758109.773 6 114339637.888 6  89095848.00949  21758120.36749
 20  5 16  5 13 49.0000000  0  9G01G03G07G08G11G17G22G28G30          0.000330065
  20216790.781 7 106239951.148 7  82784380.02449  20216801.50449
  23477756.727 5 123376686.358 5  96137539.04648  23477768.79348
  21001595.844 6 110364128.117 6  85998044.17249  21001603.13349
  23145968.867 5 121632872.134 5  94778912.37847  23145979.02347
  21228829.570 6 111558250.172 6  86928527.92548  21228836.83248
  24179216.633 4 127062618.718 4  99009884.85048  24179225.73448
  22741861.172 6 119509285.030 6  93124137.98747  22741867.32047
  23820267.891 4 125176563.263 4  97540047.08046  23820275.60246
  21757986.820 6 114338992.352 6  89095344.99549  21757997.54749
 20  5 16  5 13 50.0000000  0  9G01G03G07G08G11G17G22G28G30          0.000330223
  20216944.891 7 106240760.154 7  82785010.41849  20216955.49249
  23477284.852 5 123374208.912 5  96135608.57348  23477297.42248
  21001850.109 6 110365465.358 6  85999086.17049  21001858.07449
  23146371.023 5 121634989.200 5  94780562.03947  23146381.84847
  21229253.539 6 111560477.885 6  86930263.80348  21229261.06648
  24178988.859 4 127061425.161 4  99008954.80648  24178998.45348
  22741618.672 6 119508012.924 6  93123146.73847  22741624.85247
  23819836.578 4 125174294.208 4  97538278.98947  23819844.17247
  21757864.266 6 114338347.654 6  89094842.62849  21757874.58649
 20  5 16  5 13 51.0000000  0  9G01G03G07G08G11G17G22G28G30          0.000330381
  20217099.227 7 106241570.107 7  82785641.54949  20217110.16849
  23476813.195 5 123371731.831 5  96133678.37948  23476826.05548
  21002104.523 6 110366803.518 6  86000128.89249  21002112.82049
  23146774.578 6 121637106.502 6  94782211.88647  23146784.83647
  21229677.094 6 111562706.201 6  86932000.15848  21229684.82048
  24178762.563 4 127060232.022 4  99008025.09848  24178770.80548
  22741376.672 5 119506741.498 5  93122156.01648  22741383.07048
  23819404.648 5 125172025.382 5  97536511.06547  23819412.30147
  21757741.836 6 114337703.875 6  89094340.97849  21757752.23449
 20  5 16  5 13 52.0000000  0  9G01G03G07G08G11G17G22G28G30          0.000330542
  20217253.336 7 106242380.977 7  82786273.38849  20217264.08649
  23476342.281 5 123369255.066 5  96131748.43649  23476354.85249
  21002359.484 6 110368142.526 6  86001172.27649  21002367.57849
  23147177.508 5 121639224.093 5  94783861.95247  23147188.14147
  21230101.461 6 111564934.974 6  86933736.86448  21230109.00848
  24178535.000 4 127059039.339 4  99007095.73748  24178544.46948
  22741134.648 5 119505470.686 5  93121165.77448  22741140.95748
  23818973.195 5 125169756.715 5  97534743.27247  23818981.11347
  21757619.250 6 114337060.965 6  89093840.00949  21757629.66449
 20  5 16  5 13 53.0000000  0  9G01G03G07G08G11G17G22G28G30          0.000330700
  20217407.828 7 106243192.880 7  82786906.03849  20217418.67249
  23475870.797 5 123366778.782 5  96129818.85648  23475883.47748
  21002614.719 6 110369482.533 6  86002216.43749  21002622.10949
  23147580.164 5 121641341.895 5  94785512.19347  23147591.14147
  21230526.055 6 111567164.488 6  86935474.14448  21230533.30148
  24178308.492 4 127057847.095 4  99006166.72648  24178318.15648
  22740893.313 5 119504200.628 5  93120176.12247  22740899.74247
  23818541.148 5 125167488.384 5  97532975.72946  23818548.61346
  21757497.695 6 114336419.050 6  89093339.81849  21757507.60549
 20  5 16  5 13 54.0000000  0  9G01G03G07G08G11G17G22G28G30          0.000330860
  20217562.320 7 106244005.821 7  82787539.49549  20217573.39849
  23475400.273 5 123364302.968 5  96127889.65048  23475412.82048
  21002869.688 6 110370823.545 6  86003261.38549  21002877.49649
  23147983.469 5 121643460.134 5  94787162.76847  23147993.94547
  21230950.211 6 111569394.638 6  86937211.92148  21230957.69948
  24178081.516 4 127056655.380 4  99005238.12448  24178091.22348
  22740651.813 6 119502931.298 6  93119187.04147  22740658.05147
  23818109.398 4 125165220.354 4  97531208.43847  23818117.71147
  21757375.617 6 114335778.144 6  89092840.40949  21757385.92649
 20  5 16  5 13 55.0000000  0  9G01G03G07G08G11G17G22G28G30          0.000331020
  20217717.383 7 106244819.804 7  82788173.77149  20217728.41049
  23474928.594 5 123361827.511 5  96125960.72848  23474941.21148
  21003125.359 6 110372165.503 6  86004307.06349  21003132.97349
  23148386.633 5 121645578.646 5  94788813.54747  23148396.96947
  21231374.656 6 111571625.392 6  86938950.17048  21231382.35248
  24177855.047 4 127055464.127 4  99004309.87448  24177863.91448
  22740410.656 6 119501662.718 6  93118198.53648  22740416.70348
  23817677.891 5 125162952.582 5  97529441.34547  23817686.15247
  21757253.758 6 114335138.174 6  89092341.73149  21757263.52349
 20  5 16  5 13 56.0000000  0  9G01G03G07G08G11G17G22G28G30          0.000331181
  20217872.578 7 106245634.800 7  82788808.83449  20217883.07849
  23474458.023 5 123359352.557 5  96124032.19548  23474470.42248
  21003380.844 6 110373508.468 6  86005353.52549  21003388.46949
  23148789.188 5 121647697.510 5  94790464.60447  23148800.52047
  21231799.172 6 111573856.837 6  86940688.96148  21231806.59448
  24177628.555 4 127054273.390 4  99003382.01748  24177637.68048
  22740169.148 6 119500394.885 6  93117210.61048  22740175.37948
  23817246.492 5 125160685.126 5  97527674.50947  23817254.20747
  21757132.227 6 114334499.235 6  89091843.85649  21757142.26649
 20  5 16  5 13 57.0000000  0  9G01G03G07G08G11G17G22G28G30          0.000331341
  20218027.836 7 106246450.862 7  82789444.72749  20218038.85249
  23473987.492 5 123356878.095 5  96122104.04848  23473999.64148
  21003636.703 6 110374852.468 6  86006400.79949  21003644.51249
  23149192.695 6 121649816.748 6  94792115.95747  23149203.76647
  21232224.180 6 111576088.977 6  86942428.29048  21232231.29348
  24177402.477 4 127053083.203 4  99002454.60248  24177411.46548
  22739927.695 5 119499127.887 5  93116223.34547  22739934.19547
  23816815.055 5 125158417.995 5  97525907.92347  23816822.64147
  21757010.961 6 114333861.348 6  89091346.79549  21757020.80549
 20  5 16  5 13 58.0000000  0  9G01G03G07G08G11G17G22G28G30          0.000331501
  20218183.180 7 106247267.975 7  82790081.43849  20218194.28149
  23473515.703 5 123354404.039 5  96120176.22448  23473528.68048
  21003892.508 6 110376197.436 6  86007448.82549  21003900.10549
  23149596.164 5 121651936.330 5  94793767.57947  23149607.39847
  21232649.188 6 111578321.770 6  86944168.12448  21232656.30548
  24177175.656 4 127051893.526 4  99001527.58848  24177185.02048
  22739687.094 6 119497861.574 6  93115236.61048  22739693.03548
  23816384.109 4 125156151.190 4  97524141.57847  23816391.71947
  21756889.422 6 114333224.397 6  89090850.47649  21756899.97749
 20  5 16  5 13 59.0000000  0  9G01G03G07G08G11G17G22G28G30          0.000331661
  20218339.094 7 106248086.025 7  82790718.87949  20218350.05949
  23473045.688 5 123351930.377 5  96118248.69748  23473058.46548
  21004148.422 6 110377543.313 6  86008497.55949  21004156.55949
  23149999.430 5 121654056.197 5  94795419.42147  23150010.43047
  21233074.398 6 111580555.101 6  86945908.38348  21233081.76648
  24176949.703 4 127050704.249 4  99000600.87648  24176958.59848
  22739446.211 6 119496595.950 6  93114250.41247  22739452.73047
  23815952.414 5 125153884.563 5  97522375.37647  23815960.50047
  21756768.602 6 114332588.393 6  89090354.88549  21756778.24649
 20  5 16  5 14  0.0000000  0  9G01G03G07G08G11G17G22G28G30          0.000331823
  20218494.711 7 106248905.104 7  82791357.12649  20218505.50049
  23472574.484 5 123349457.166 5  96116321.51848  23472587.42248
  21004404.797 6 110378890.182 6  86009547.06749  21004412.86749
  23150403.430 5 121656176.370 5  94797071.51147  23150413.98047
  21233499.117 6 111582789.103 6  86947649.15848  21233506.28148
  24176723.258 5 127049515.484 5  98999674.55948  24176732.36348
  22739205.859 6 119495331.051 6  93113264.76947  22739211.59447
  23815521.125 4 125151618.235 4  97520609.39347  23815529.64147
  21756647.891 6 114331953.372 6  89089860.06349  21756657.62149
 20  5 16  5 14  1.0000000  0  9G01G03G07G08G11G17G22G28G30          0.000331984
  20218650.641 7 106249725.102 7  82791996.08749  20218661.92249
  23472104.273 5 123346984.288 5  96114394.59948  23472116.82448
  21004661.328 6 110380237.922 6  86010597.25549  21004668.96149
  23150806.313 5 121658296.745 5  94798723.75147  23150817.42247
  21233924.156 6 111585023.642 6  86949390.36348  21233931.47748
  24176498.172 5 127048327.080 5  98998748.53148  24176506.37148
  22738965.063 6 119494066.829 6  93112279.66448  22738971.04748
  23815090.242 4 125149352.113 4  97518843.57747  23815098.31347
  21756526.875 6 114331319.225 6  89089365.92049  21756537.11349
 20  5 16  5 14  2.0000000  0  9G01G03G07G08G11G17G22G28G30          0.000332146
  20218807.156 7 106250546.177 7  82792635.88349  20218818.08649
  23471634.227 5 123344511.886 5  96112468.05348  23471646.41848
  21004918.016 6 110381586.683 6  86011648.23849  21004925.94149
  23151210.172 5 121660417.563 5  94800376.33347  23151220.94147
  21234349.813 6 111587258.851 6  86951132.08448  21234357.26648
  24176270.844 5 127047139.233 5  98997822.93448  24176279.82848
  22738724.656 6 119492803.355 6  93111295.14047  22738730.75447
  23814659.016 4 125147086.297 4  97517078.02247  23814666.81647
  21756406.664 6 114330686.094 6  89088872.57149  21756416.59449
 20  5 16  5 14  3.0000000  0  9G01G03G07G08G11G17G22G28G30          0.000332308
  20218963.594 7 106251368.177 7  82793276.40149  20218974.21949
  23471163.477 5 123342039.863 5  96110541.80548  23471175.69148
  21005174.844 6 110382936.353 6  86012699.92449  21005182.79749
  23151613.664 5 121662538.585 5  94802029.07947  23151624.42647
  21234774.977 6 111589494.624 6  86952874.24348  21234782.39148
  24176045.109 5 127045951.789 5  98996897.65848  24176054.23448
  22738484.344 6 119491540.535 6  93110311.12048  22738490.35948
  23814227.883 5 125144820.666 5  97515312.60347  23814235.34047
  21756286.328 6 114330053.878 6  89088379.93549  21756296.32849
 20  5 16  5 14  4.0000000  0  9G01G03G07G08G11G17G22G28G30          0.000332470
  20219120.219 7 106252191.220 7  82793917.73949  20219131.39149
  23470693.016 5 123339568.236 5  96108615.86148  23470705.68848
  21005431.602 6 110384286.991 6  86013752.36849  21005439.82049
  23152017.289 5 121664659.955 5  94803682.08647  23152028.32047
  21235200.711 6 111591731.032 6  86954616.90148  21235208.33248
  24175819.180 5 127044764.875 5  98995972.79248  24175827.96548
  22738244.156 6 119490278.477 6  93109327.69648  22738250.04748
  23813797.000 5 125142555.364 5  97513547.43646  23813804.18046
  21756166.109 6 114329422.657 6  89087888.07149  21756176.26649
 20  5 16  5 14  5.0000000  0  9G01G03G07G08G11G17G22G28G30          0.000332632
  20219277.008 7 106253015.254 7  82794559.83949  20219288.16849
  23470222.758 5 123337097.066 5  96106690.27648  23470234.89848
  21005688.602 6 110385638.605 6  86014805.57149  21005696.78149
  23152421.180 5 121666781.614 5  94805335.32047  23152431.86747
  21235625.953 6 111593968.110 6  86956360.07448  21235633.84448
  24175593.875 5 127043578.425 5  98995048.28548  24175602.44948
  22738004.180 6 119489017.126 6  93108344.82748  22738010.48448
  23813365.977 5 125140290.355 5  97511782.49247  23813373.20347
  21756046.125 6 114328792.371 6  89087396.93949  21756056.09849
 20  5 16  5 14  6.0000000  0  9G01G03G07G08G11G17G22G28G30          0.000332794
  20219433.797 7 106253840.175 7  82795202.63749  20219444.77349
  23469752.383 5 123334626.177 5  96104764.91148  23469764.94548
  21005946.133 6 110386991.047 6  86015859.42449  21005954.27349
  23152825.148 5 121668903.471 5  94806988.71247  23152835.89847
  21236051.953 6 111596205.666 6  86958103.62648  21236059.70748
  24175367.500 5 127042392.329 5  98994124.06148  24175376.64548
  22737763.945 6 119487756.409 6  93107362.44948  22737770.32448
  23812934.563 5 125138025.487 5  97510017.66047  23812942.21547
  21755926.297 6 114328162.969 6  89086906.49449  21755936.71549
 20  5 16  5 14  7.0000000  0  9G01G03G07G08G11G17G22G28G30          0.000332956
  20219590.891 7 106254666.212 7  82795846.29949  20219601.78149
  23469282.688 5 123332155.831 5  96102839.97048  23469294.85548
  21006203.906 6 110388344.569 6  86016914.11249  21006211.82049
  23153228.594 5 121671025.744 5  94808642.42947  23153239.77047
  21236477.938 6 111598443.952 6  86959847.73848  21236485.21548
  24175141.414 5 127041206.782 5  98993200.26048  24175150.82848
  22737524.453 6 119486496.483 6  93106380.69148  22737530.55948
  23812503.484 5 125135760.917 5  97508253.05647  23812511.29347
  21755806.836 6 114327534.615 6  89086416.86849  21755816.99249
 20  5 16  5 14  8.0000000  0  9G01G03G07G08G11G17G22G28G30          0.000333118
  20219748.320 7 106255493.220 7  82796490.72349  20219758.97749
  23468812.883 5 123329685.858 5  96100915.32048  23468825.06348
  21006461.578 6 110389699.000 6  86017969.51449  21006469.51249
  23153632.219 5 121673148.303 5  94810296.37647  23153643.85547
  21236904.102 6 111600682.833 6  86961592.31848  21236911.97748
  24174916.477 5 127040021.689 5  98992276.81048  24174925.68048
  22737284.328 6 119485237.244 6  93105399.46647  22737290.79747
  23812072.680 5 125133496.650 5  97506488.68647  23812080.47747
  21755687.609 6 114326907.188 6  89085927.96449  21755697.61749
 20  5 16  5 14  9.0000000  0  9G01G03G07G08G11G17G22G28G30          0.000333282
  20219906.016 7 106256321.194 7  82797135.89749  20219916.80949
  23468342.297 5 123327216.280 5  96098990.97648  23468355.03548
  21006719.867 6 110391054.369 6  86019025.64649  21006727.66049
  23154036.766 5 121675271.113 5  94811950.51547  23154047.57447
  21237330.219 6 111602922.267 6  86963337.33348  21237337.63348
  24174690.609 5 127038837.058 5  98991353.72148  24174700.03548
  22737045.125 6 119483978.690 6  93104418.77447  22737051.44947
  23811642.188 5 125131232.606 5  97504724.49547  23811649.64547
  21755568.063 6 114326280.685 6  89085439.77549  21755577.95749
 20  5 16  5 14 10.0000000  0  9G01G03G07G08G11G17G22G28G30          0.000333445
  20220063.813 7 106257150.049 7  82797781.75849  20220074.61349
  23467873.063 5 123324746.995 5  96097066.85748  23467884.94948
  21006977.570 6 110392410.566 6  86020082.42049  21006985.49249
  23154441.258 5 121677394.121 5  94813604.80847  23154451.62147
  21237756.594 6 111605162.237 6  86965082.77048  21237763.90648
  24174465.734 5 127037652.771 5  98990430.90548  24174474.64148
  22736805.945 6 119482720.768 6  93103438.57947  22736812.18047
  23811211.328 5 125128968.687 5  97502960.40447  23811218.71147
  21755449.211 6 114325655.033 6  89084952.25249  21755458.77749
 20  5 16  5 14 11.0000000  0  9G01G03G07G08G11G17G22G28G30          0.000333609
  20220221.992 7 106257979.871 7  82798428.37049  20220232.21949
  23467402.750 5 123322278.095 5  96095143.03848  23467415.38748
  21007236.023 6 110393767.693 6  86021139.92349  21007243.77049
  23154844.719 5 121679517.391 5  94815259.30147  23154855.96947
  21238182.773 6 111607402.795 6  86966828.65548  21238190.48848
  24174240.773 5 127036468.931 5  98989508.43648  24174249.56648
  22736566.672 6 119481463.492 6  93102458.88647  22736573.00847
  23810780.742 5 125126705.038 5  97501196.52647  23810787.73047
  21755330.281 6 114325030.326 6  89084465.46949  21755340.36749
 20  5 16  5 14 12.0000000  0  9G01G03G07G08G11G17G22G28G30          0.000333771
  20220379.992 7 106258810.545 7  82799075.64749  20220390.42649
  23466932.727 5 123319809.459 5  96093219.43648  23466945.12148
  21007494.344 6 110395125.627 6  86022198.05349  21007502.21149
  23155248.953 5 121681640.823 5  94816913.91747  23155259.71947
  21238609.430 6 111609643.792 6  86968574.89048  21238616.77748
  24174015.547 5 127035285.374 5  98988586.18748  24174024.30148
  22736327.641 6 119480206.796 6  93101479.64547  22736333.86747
  23810349.414 5 125124441.493 5  97499432.72747  23810357.04747
  21755211.664 6 114324406.390 6  89083979.28049  21755221.80549
 20  5 16  5 14 13.0000000  0  9G01G03G07G08G11G17G22G28G30          0.000333935
  20220538.109 7 106259642.177 7  82799723.67649  20220548.89849
  23466463.484 5 123317341.218 5  96091296.13048  23466475.79348
  21007752.547 6 110396484.469 6  86023256.88949  21007760.92649
  23155652.492 6 121683764.532 6  94818568.75447  23155663.94147
  21239035.672 6 111611885.386 6  86970321.58648  21239043.20348
  24173790.375 5 127034102.261 5  98987664.28248  24173799.14848
  22736088.391 5 119478950.788 5  93100500.93948  22736095.05548
  23809919.063 5 125122178.150 5  97497669.07947  23809926.47747
  21755093.117 6 114323783.431 6  89083493.86049  21755103.07449
 20  5 16  5 14 14.0000000  0  9G01G03G07G08G11G17G22G28G30          0.000334099
  20220696.531 7 106260474.697 7  82800372.39149  20220706.98449
  23465993.898 5 123314873.260 5  96089373.04848  23466006.11348
  21008011.648 6 110397844.159 6  86024316.38949  21008019.23849
  23156057.531 6 121685888.423 6  94820223.73447  23156068.36747
  21239462.578 6 111614127.486 6  86972068.67848  21239469.98048
  24173565.086 5 127032919.501 5  98986742.65048  24173573.87548
  22735849.969 6 119477695.375 6  93099522.69747  22735856.06647
  23809488.203 5 125119915.006 5  97495905.58947  23809495.59447
  21754975.008 6 114323161.259 6  89083009.05049  21754984.54749
 20  5 16  5 14 15.0000000  0  9G01G03G07G08G11G17G22G28G30          0.000334263
  20220854.938 7 106261308.216 7  82801021.88849  20220866.10949
  23465524.695 5 123312405.716 5  96087450.29048  23465537.13348
  21008270.805 6 110399204.804 6  86025376.62749  21008278.78949
  23156461.766 6 121688012.606 6  94821878.94247  23156472.34847
  21239889.352 6 111616370.205 6  86973816.24648  21239896.95348
  24173339.766 5 127031737.256 5  98985821.43048  24173348.46548
  22735610.648 6 119476440.686 6  93098545.01648  22735617.02348
  23809057.922 5 125117652.072 5  97494142.26247  23809065.15647
  21754856.383 6 114322540.076 6  89082525.01149  21754867.01649
 20  5 16  5 14 16.0000000  0  9G01G03G07G08G11G17G22G28G30          0.000334427
  20221013.539 7 106262142.568 7  82801672.03149  20221024.47749
  23465054.719 5 123309938.433 5  96085527.73748  23465066.89848
  21008529.820 6 110400566.230 6  86026437.47649  21008537.66849
  23156865.578 5 121690136.953 5  94823534.27547  23156876.35547
  21240316.453 6 111618613.379 6  86975564.16748  21240323.81348
  24173114.859 5 127030555.280 5  98984900.40848  24173123.65648
  22735371.969 6 119475186.535 6  93097567.75147  22735378.36347
  23808626.945 5 125115389.288 5  97492379.06547  23808634.60247
  21754738.391 6 114321919.690 6  89082041.59749  21754748.34049
 20  5 16  5 14 17.0000000  0  9G01G03G07G08G11G17G22G28G30          0.000334591
  20221172.539 7 106262977.868 7  82802322.91449  20221183.51649
  23464585.516 5 123307471.540 5  96083605.49048  23464597.21148
  21008788.867 6 110401928.589 6  86027499.05549  21008796.97349
  23157269.734 5 121692261.548 5  94825189.80847  23157280.84847
  21240743.016 6 111620857.147 6  86977312.56248  21240750.64548
  24172890.336 5 127029373.743 5  98983979.73148  24172898.79748
  22735133.820 6 119473933.080 6  93096591.03247  22735140.21547
  23808197.016 5 125113126.712 5  97490616.02147  23808203.85247
  21754620.352 6 114321300.224 6  89081558.89449  21754630.28549
 20  5 16  5 14 18.0000000  0  9G01G03G07G08G11G17G22G28G30          0.000334755
  20221331.813 7 106263814.225 7  82802974.61649  20221343.11349
  23464116.000 5 123305005.098 5  96081683.58948  23464128.01648
  21009048.539 6 110403291.938 6  86028561.40849  21009056.40649
  23157674.352 5 121694386.512 5  94826845.62347  23157685.38347
  21241170.398 6 111623101.557 6  86979061.44848  21241177.75448
  24172665.813 5 127028192.704 5  98983059.44048  24172674.22348
  22734895.539 6 119472680.399 6  93095614.91347  22734901.80147
  23807765.977 4 125110864.445 4  97488853.21347  23807773.30147
  21754502.727 6 114320681.745 6  89081076.96249  21754512.69549
 20  5 16  5 14 19.0000000  0  9G01G03G07G08G11G17G22G28G30          0.000334921
  20221491.508 7 106264651.446 7  82803627.00349  20221501.97749
  23463646.719 5 123302538.962 5  96079761.92748  23463658.97748
  21009307.859 6 110404656.077 6  86029624.37249  21009315.79349
  23158079.023 5 121696511.669 5  94828501.58847  23158089.63747
  21241597.836 6 111625346.438 6  86980810.70948  21241605.12948
  24172441.242 5 127027012.008 5  98982139.42248  24172449.84848
  22734657.289 6 119471428.250 6  93094639.21948  22734663.48848
  23807336.250 4 125108602.287 4  97487090.49446  23807342.91046
  21754385.297 6 114320064.123 6  89080595.69549  21754394.97749
 20  5 16  5 14 20.0000000  0  9G01G03G07G08G11G17G22G28G30          0.000335085
  20221650.773 7 106265489.563 7  82804280.07749  20221661.38749
  23463177.523 5 123300073.108 5  96077840.48348  23463189.12148
  21009567.805 6 110406021.117 6  86030688.03749  21009576.04349
  23158482.898 6 121698637.036 6  94830157.71747  23158494.19947
  21242024.898 6 111627591.875 6  86982560.40048  21242032.24248
  24172216.563 5 127025831.722 5  98981219.71648  24172224.93048
  22734418.852 6 119470176.739 6  93093664.01648  22734425.21548
  23806905.492 4 125106340.323 4  97485327.92347  23806912.45347
  21754267.992 6 114319447.331 6  89080115.07949  21754278.09849
 20  5 16  5 14 21.0000000  0  9G01G03G07G08G11G17G22G28G30          0.000335249
  20221810.313 7 106266328.729 7  82804933.97649  20221821.59849
  23462708.344 5 123297607.743 5  96075919.42548  23462720.35248
  21009827.531 6 110407387.127 6  86031752.46349  21009835.53949
  23158887.133 6 121700762.736 6  94831814.10647  23158898.12547
  21242452.594 6 111629837.941 6  86984310.57848  21242459.50448
  24171991.594 5 127024651.869 5  98980300.35448  24172000.15248
  22734180.555 6 119468926.017 6  93092689.42648  22734187.18048
  23806475.219 5 125104078.679 5  97483565.59147  23806481.88347
  21754150.430 6 114318831.558 6  89079635.25649  21754160.56649
 20  5 16  5 14 22.0000000  0  9G01G03G07G08G11G17G22G28G30          0.000335415
  20221970.336 7 106267168.870 7  82805588.62849  20221981.18049
  23462239.023 5 123295142.811 5  96073998.70148  23462251.32448
  21010087.469 6 110408754.082 6  86032817.61849  21010095.66049
  23159292.273 6 121702888.740 6  94833470.73147  23159303.05147
  21242879.563 6 111632084.630 6  86986061.24448  21242887.03948
  24171767.508 5 127023472.531 5  98979381.39048  24171775.55148
  22733943.250 6 119467675.974 6  93091715.36748  22733949.93848
  23806044.578 5 125101817.270 5  97481803.44546  23806051.70746
  21754033.602 6 114318216.738 6  89079156.17449  21754044.21149
 20  5 16  5 14 23.0000000  0  9G01G03G07G08G11G17G22G28G30          0.000335581
  20222130.273 7 106268009.974 7  82806244.03449  20222141.02749
  23461770.063 5 123292678.187 5  96072078.21248  23461782.08648
  21010347.914 6 110410121.969 6  86033883.50349  21010355.85949
  23159696.688 5 121705014.970 5  94835127.53047  23159707.77747
  21243307.422 6 111634331.900 6  86987812.36048  21243314.51248
  24171542.914 5 127022293.604 5  98978462.73848  24171551.34048
  22733705.508 6 119466426.608 6  93090741.83848  22733711.38348
  23805614.125 5 125099556.083 5  97480041.48947  23805621.93447
  21753916.961 6 114317602.835 6  89078677.80549  21753927.18449
 20  5 16  5 14 24.0000000  0  9G01G03G07G08G11G17G22G28G30          0.000335747
  20222290.844 7 106268851.948 7  82806900.11649  20222301.51249
  23461301.508 5 123290213.883 5  96070157.97748  23461313.46948
  21010608.336 6 110411490.676 6  86034950.02949  21010616.64849
  23160101.492 5 121707141.388 5  94836784.47247  23160112.28947
  21243734.969 6 111636579.664 6  86989563.86348  21243742.25448
  24171318.875 5 127021115.022 5  98977544.35748  24171326.93848
  22733467.789 6 119465177.845 6  93089768.77848  22733474.34848
  23805184.297 5 125097295.050 5  97478279.65247  23805191.34047
  21753799.852 6 114316989.767 6  89078200.09149  21753810.42649
 20  5 16  5 14 25.0000000  0  9G01G03G07G08G11G17G22G28G30          0.000335913
  20222450.906 7 106269694.862 7  82807556.93749  20222461.84449
  23460832.641 5 123287749.935 5  96068238.01749  23460844.61749
  21010868.961 6 110412860.290 6  86036017.25649  21010877.04749
  23160505.852 5 121709268.038 5  94838441.60247  23160516.93047
  21244162.852 6 111638827.949 6  86991315.77548  21244170.34448
  24171094.438 5 127019936.825 5  98976626.28248  24171102.74648
  22733230.180 6 119463929.719 6  93088796.21348  22733236.51248
  23804753.984 5 125095034.191 5  97476517.95047  23804761.46947
  21753683.938 6 114316377.583 6  89077723.06349  21753693.79349
 20  5 16  5 14 26.0000000  0  9G01G03G07G08G11G17G22G28G30          0.000336079
  20222611.516 7 106270538.699 7  82808214.46549  20222622.21149
  23460363.852 5 123285286.330 5  96066318.32848  23460375.93848
  21011129.938 6 110414230.740 6  86037085.13949  21011137.93449
  23160910.781 6 121711394.936 6  94840098.91947  23160921.88347
  21244590.969 6 111641076.814 6  86993068.14348  21244598.23848
  24170870.039 5 127018759.046 5  98975708.52848  24170879.28148
  22732992.469 6 119462682.259 6  93087824.16648  22732999.10548
  23804323.992 5 125092773.538 5  97474756.40847  23804331.32847
  21753567.633 6 114315766.282 6  89077246.72349  21753577.77049
 20  5 16  5 14 27.0000000  0  9G01G03G07G08G11G17G22G28G30          0.000336245
  20222772.352 7 106271383.431 7  82808872.70149  20222783.18849
  23459894.930 5 123282823.033 5  96064398.88348  23459906.92648
  21011390.656 6 110415602.068 6  86038153.70549  21011398.98849
  23161315.602 6 121713522.031 6  94841756.39447  23161326.48447
  21245018.922 6 111643326.200 6  86994820.91148  21245026.53948
  24170646.016 5 127017581.632 5  98974791.07048  24170654.78548
  22732755.359 6 119461435.420 6  93086852.59948  22732761.43448
  23803893.805 5 125090513.030 5  97472994.96247  23803900.46947
  21753451.344 6 114315155.835 6  89076771.04949  21753461.39849
 20  5 16  5 14 28.0000000  0  9G01G03G07G08G11G17G22G28G30          0.000336411
  20222933.219 7 106272229.124 7  82809531.68349  20222944.15249
  23459426.328 5 123280360.149 5  96062479.75749  23459438.14549
  21011651.852 6 110416974.328 6  86039223.00349  21011659.93849
  23161719.961 6 121715649.405 6  94843414.09147  23161731.35547
  21245447.641 6 111645576.162 6  86996574.12148  21245454.07448
  24170421.992 5 127016404.671 5  98973873.95948  24170430.73048
  22732518.078 6 119460189.271 6  93085881.57548  22732524.72348
  23803463.000 5 125088252.798 5  97471233.74847  23803470.53547
  21753335.305 6 114314546.358 6  89076296.12449  21753345.51649
 20  5 16  5 14 29.0000000  0  9G01G03G07G08G11G17G22G28G30          0.000336576
  20223094.297 7 106273075.785 7  82810191.41649  20223104.70749
  23458957.500 5 123277897.645 5  96060560.92649  23458969.89849
  21011913.133 6 110418347.497 6  86040293.00149  21011921.50049
  23162125.164 5 121717777.024 5  94845071.98047  23162136.70747
  21245875.609 6 111647826.689 6  86998327.77648  21245882.61348
  24170197.734 5 127015228.132 5  98972957.17448  24170207.09448
  22732281.492 6 119458943.772 6  93084911.05948  22732287.97348
  23803033.656 5 125085992.785 5  97469472.69747  23803040.58647
  21753219.492 6 114313937.767 6  89075821.89849  21753229.71549
 20  5 16  5 14 30.0000000  0  9G01G03G07G08G11G17G22G28G30          0.000336742
  20223255.664 7 106273923.333 7  82810851.84349  20223266.50449
  23458489.086 5 123275435.454 5  96058642.33349  23458500.94949
  21012174.805 6 110419721.516 6  86041363.66249  21012182.80949
  23162529.984 6 121719904.863 6  94846730.03947  23162541.02047
  21246304.055 6 111650077.744 6  87000081.84248  21246310.95748
  24169974.398 5 127014051.950 5  98972040.67548  24169983.12148
  22732044.516 6 119457698.918 6  93083941.04448  22732051.14548
  23802603.617 5 125083732.918 5  97467711.75947  23802610.48047
  21753103.828 6 114313330.027 6  89075348.33649  21753114.19949
 20  5 16  5 14 31.0000000  0  9G01G03G07G08G11G17G22G28G30          0.000336910
  20223416.914 7 106274771.761 7  82811512.95649  20223428.01249
  23458020.781 5 123272973.538 5  96056723.95649  23458032.59849
  21012435.969 6 110421096.361 6  86042434.97149  21012444.37949
  23162935.148 6 121722032.872 6  94848388.22547  23162946.06647
  21246732.383 6 111652329.276 6  87001836.28648  21246739.55548
  24169751.070 5 127012876.110 5  98971124.43348  24169759.38348
  22731807.703 6 119456454.629 6  93082971.47448  22731814.43048
  23802173.141 5 125081473.196 5  97465950.94247  23802180.68447
  21752988.648 6 114312723.112 6  89074875.41449  21752998.91049
 20  5 16  5 14 32.0000000  0  9G01G03G07G08G11G17G22G28G30          0.000337076
  20223578.563 7 106275621.200 7  82812174.85649  20223589.45349
  23457551.930 5 123270512.063 5  96054805.93049  23457564.29749
  21012698.383 6 110422472.168 6  86043507.02549  21012706.32449
  23163339.688 6 121724161.180 6  94850046.64447  23163351.23847
  21247161.039 6 111654581.465 6  87003591.23848  21247167.98048
  24169526.836 5 127011700.757 5  98970208.57248  24169535.71148
  22731570.586 6 119455211.089 6  93082002.47947  22731577.24647
  23801743.664 5 125079213.750 5  97464190.33946  23801750.41846
  21752872.938 6 114312117.219 6  89074403.28949  21752883.30149
 20  5 16  5 14 33.0000000  0  9G01G03G07G08G11G17G22G28G30          0.000337244
  20223740.477 7 106276471.549 7  82812837.46549  20223750.98449
  23457084.063 5 123268050.898 5  96052888.14149  23457095.70749
  21012960.219 6 110423848.846 6  86044579.76549  21012968.00049
  23163745.102 5 121726289.740 5  94851705.26247  23163756.04747
  21247589.281 6 111656834.140 6  87005346.57148  21247596.46148
  24169303.305 5 127010525.779 5  98969293.00648  24169312.12948
  22731334.484 6 119453968.166 6  93081033.96948  22731341.16048
  23801313.438 5 125076954.464 5  97462429.85847  23801320.85947
  21752758.031 6 114311512.146 6  89073931.80649  21752768.42649
 20  5 16  5 14 34.0000000  0  9G01G03G07G08G11G17G22G28G30          0.000337412
  20223902.508 7 106277322.785 7  82813500.76849  20223912.89149
  23456615.945 5 123265590.067 5  96050970.61749  23456627.39549
  21013222.477 6 110425226.373 6  86045653.16049  21013230.60249
  23164150.508 5 121728418.432 5  94853363.97647  23164161.45347
  21248018.445 6 111659087.392 6  87007102.35048  21248025.50848
  24169079.977 5 127009351.164 5  98968377.71648  24169088.48848
  22731098.016 6 119452725.882 6  93080065.95848  22731104.69148
  23800883.281 5 125074695.360 5  97460669.52046  23800890.91046
  21752642.711 6 114310907.956 6  89073461.01249  21752653.21949
 20  5 16  5 14 35.0000000  0  9G01G03G07G08G11G17G22G28G30          0.000337578
  20224064.547 7 106278174.983 7  82814164.81649  20224075.46549
  23456147.477 5 123263129.632 5  96049053.39649  23456159.29349
  21013484.773 6 110426604.817 6  86046727.27149  21013492.60549
  23164555.039 5 121730547.446 5  94855022.94447  23164566.65247
  21248447.461 6 111661341.183 6  87008858.54748  21248454.43848
  24168855.609 5 127008176.986 5  98967462.77448  24168865.18848
  22730861.961 6 119451484.265 6  93079098.45947  22730868.56647
  23800453.852 5 125072436.506 5  97458909.36647  23800460.82847
  21752527.859 6 114310304.664 6  89072990.90849  21752538.29749
 20  5 16  5 14 36.0000000  0  9G01G03G07G08G11G17G22G28G30          0.000337746
  20224227.133 7 106279028.148 7  82814829.62349  20224237.81349
  23455679.406 5 123260669.563 5  96047136.46149  23455691.50049
  21013747.172 6 110427984.178 6  86047802.09749  21013755.55149
  23164960.711 5 121732676.697 5  94856682.10147  23164971.25847
  21248876.578 6 111663595.546 6  87010615.19748  21248883.62948
  24168632.719 4 127007003.228 4  98966548.15848  24168641.65248
  22730625.586 6 119450243.334 6  93078131.50748  22730632.27348
  23800023.891 5 125070177.827 5  97457149.36246  23800031.25846
  21752413.602 6 114309702.346 6  89072521.56849  21752423.89149
 20  5 16  5 14 37.0000000  0  9G01G03G07G08G11G17G22G28G30          0.000337914
  20224389.813 7 106279882.357 7  82815495.23549  20224400.42649
  23455211.172 5 123258209.962 5  96045219.89149  23455223.30549
  21014009.758 6 110429364.560 6  86048877.72149  21014018.03549
  23165365.484 5 121734806.321 5  94858341.54947  23165376.62147
  21249305.367 6 111665850.597 6  87012372.37848  21249312.54348
  24168409.609 4 127005830.016 4  98965633.97048  24168418.56348
  22730389.789 6 119449003.148 6  93077165.12548  22730396.37148
  23799594.188 5 125067919.506 5  97455389.63147  23799601.35547
  21752298.992 6 114309101.019 6  89072053.00549  21752309.16849
 20  5 16  5 14 38.0000000  0  9G01G03G07G08G11G17G22G28G30          0.000338081
  20224552.234 7 106280737.498 7  82816161.57849  20224562.96949
  23454743.602 5 123255750.739 5  96043303.61549  23454755.33249
  21014272.383 6 110430745.813 6  86049954.02149  21014280.85249
  23165771.602 6 121736936.207 6  94860001.20247  23165782.46147
  21249734.492 6 111668106.197 6  87014129.98248  21249741.85548
  24168186.125 4 127004657.195 4  98964720.08748  24168195.55548
  22730153.992 6 119447763.636 6  93076199.27248  22730160.72748
  23799164.523 5 125065661.371 5  97453630.04446  23799171.80146
  21752185.219 6 114308500.595 6  89071585.14249  21752195.08649
 20  5 16  5 14 39.0000000  0  9G01G03G07G08G11G17G22G28G30          0.000338251
  20224715.148 7 106281593.479 7  82816828.57649  20224725.76249
  23454275.508 5 123253291.763 5  96041387.52949  23454286.81349
  21014535.547 6 110432127.877 6  86051030.95649  21014543.81349
  23166176.250 5 121739066.219 5  94861660.94847  23166187.06647
  21250163.711 6 111670362.261 6  87015887.96048  21250170.97348
  24167963.266 4 127003484.692 4  98963806.45148  24167972.28548
  22729918.313 6 119446524.694 6  93075233.86648  22729924.70748
  23798734.867 5 125063403.362 5  97451870.56347  23798742.27347
  21752071.219 6 114307900.952 6  89071117.88349  21752080.98049
 20  5 16  5 14 40.0000000  0  9G01G03G07G08G11G17G22G28G30          0.000338419
  20224878.008 7 106282450.347 7  82817496.26749  20224888.64149
  23453807.695 5 123250833.093 5  96039471.68249  23453819.12949
  21014798.656 6 110433510.776 6  86052108.53849  21014807.17249
  23166581.867 6 121741196.415 6  94863320.84247  23166592.83247
  21250593.461 6 111672618.813 6  87017646.30948  21250600.66448
  24167740.305 4 127002312.519 4  98962893.07448  24167749.75848
  22729682.211 6 119445286.349 6  93074268.92848  22729688.82048
  23798305.055 5 125061145.474 5  97450111.16947  23798312.30147
  21751956.430 6 114307302.144 6  89070651.27749  21751967.05949
 20  5 16  5 14 41.0000000  0  9G01G03G07G08G11G17G22G28G30          0.000338587
  20225041.695 7 106283308.058 7  82818164.61249  20225052.14549
  23453340.063 5 123248374.683 5  96037556.04349  23453351.55549
  21015061.773 6 110434894.496 6  86053186.75549  21015070.28149
  23166987.445 6 121743326.792 6  94864980.87647  23166998.36747
  21251023.078 6 111674875.847 6  87019405.03148  21251030.16848
  24167517.109 4 127001140.682 4  98961979.95548  24167526.52348
  22729447.008 6 119444048.584 6  93073304.43248  22729454.01248
  23797875.570 5 125058887.756 5  97448351.90347  23797882.89547
  21751842.711 6 114306704.194 6  89070185.34549  21751853.37149
 20  5 16  5 14 42.0000000  0  9G01G03G07G08G11G17G22G28G30          0.000338757
  20225204.859 7 106284166.626 7  82818833.63049  20225215.57449
  23452871.789 5 123245916.574 5  96035640.64049  23452883.80149
  21015325.461 6 110436279.013 6  86054265.59749  21015333.82049
  23167392.820 5 121745457.322 5  94866641.02447  23167403.65647
  21251452.320 6 111677133.347 6  87021164.12648  21251459.48448
  24167294.016 4 126999969.154 4  98961067.08348  24167303.30948
  22729211.305 6 119442811.394 6  93072340.38748  22729218.10548
  23797445.953 5 125056630.102 5  97446592.69346  23797453.33646
  21751729.313 6 114306107.015 6  89069720.01349  21751739.53949
 20  5 16  5 14 43.0000000  0  9G01G03G07G08G11G17G22G28G30          0.000338924
  20225368.195 7 106285026.213 7  82819503.43749  20225378.80149
  23452404.617 5 123243458.880 5  96033725.55649  23452415.80149
  21015589.031 6 110437664.505 6  86055345.19849  21015597.25049
  23167798.414 5 121747588.146 5  94868301.40347  23167809.13347
  21251882.313 6 111679391.480 6  87022923.71248  21251889.65248
  24167071.742 4 126998798.132 4  98960154.59648  24167080.41448
  22728975.953 6 119441574.931 6  93071376.90648  22728982.80948
  23797016.242 5 125054372.737 5  97444833.71447  23797023.35947
  21751616.281 6 114305510.844 6  89069255.45849  21751626.49649
 20  5 16  5 14 44.0000000  0  9G01G03G07G08G11G17G22G28G30          0.000339094
  20225532.359 7 106285886.740 7  82820173.97449  20225543.35949
  23451936.211 5 123241001.558 5  96031810.76349  23451948.41449
  21015853.016 6 110439050.868 6  86056425.48549  21015861.17649
  23168203.461 5 121749719.226 5  94869961.98747  23168215.25447
  21252312.383 6 111681650.151 6  87024683.70848  21252319.59448
  24166849.602 4 126997627.535 4  98959242.44548  24166857.95748
  22728740.883 6 119440339.126 6  93070413.94448  22728747.69948
  23796586.461 5 125052115.634 5  97443074.94247  23796593.76647
  21751502.531 6 114304915.553 6  89068791.59849  21751512.51649
 20  5 16  5 14 45.0000000  0  9G01G03G07G08G11G17G22G28G30          0.000339262
  20225696.078 7 106286748.168 7  82820845.21849  20225706.57849
  23451469.031 5 123238544.544 5  96029896.20849  23451480.89549
  21016117.023 6 110440438.112 6  86057506.45149  21016125.43449
  23168609.070 5 121751850.538 5  94871622.75147  23168620.81647
  21252742.109 6 111683909.365 6  87026444.13648  21252749.12548
  24166626.109 4 126996457.281 4  98958330.55648  24166635.59848
  22728505.313 6 119439103.967 6  93069451.48448  22728512.46148
  23796157.078 5 125049858.662 5  97441316.25847  23796164.61347
  21751389.266 6 114304321.147 6  89068328.42749  21751400.00849
 20  5 16  5 14 46.0000000  0  9G01G03G07G08G11G17G22G28G30          0.000339432
  20225859.711 7 106287610.454 7  82821517.12749  20225870.96949
  23451001.359 5 123236087.841 5  96027981.89249  23451013.57849
  21016381.031 6 110441826.167 6  86058588.05049  21016389.17249
  23169014.906 5 121753981.983 5  94873283.61847  23169025.89147
  21253171.922 6 111686169.043 6  87028204.93148  21253178.96948
  24166403.000 4 126995287.309 4  98957418.89948  24166413.24648
  22728270.922 6 119437869.358 6  93068489.45648  22728277.19148
  23795727.656 5 125047601.830 5  97439557.69247  23795735.03547
  21751276.320 6 114303727.549 6  89067865.87749  21751286.84849
 20  5 16  5 14 47.0000000  0  9G01G03G07G08G11G17G22G28G30          0.000339602
  20226024.445 7 106288473.565 7  82822189.68249  20226035.25049
  23450534.125 5 123233631.383 5  96026067.77249  23450546.25849
  21016645.445 6 110443215.013 6  86059670.26749  21016653.54349
  23169420.492 5 121756113.585 5  94874944.60747  23169431.57447
  21253601.805 6 111688429.173 6  87029966.06648  21253609.01248
  24166180.656 4 126994117.731 4  98956507.53748  24166190.37148
  22728036.586 6 119436635.305 6  93067527.85748  22728042.61748
  23795298.328 5 125045345.059 5  97437799.16747  23795305.62147
  21751164.086 6 114303134.733 6  89067403.93949  21751174.06649
 20  5 16  5 14 48.0000000  0  9G01G03G07G08G11G17G22G28G30          0.000339771
  20226188.961 7 106289337.594 7  82822862.95349  20226199.62149
  23450066.477 5 123231175.233 5  96024153.89349  23450078.64149
  21016909.602 6 110444604.707 6  86060753.13949  21016917.80149
  23169826.188 5 121758245.367 5  94876605.73647  23169837.07847
  21254032.516 6 111690689.833 6  87031727.62048  21254039.62548
  24165958.250 5 126992948.514 5  98955596.45948  24165967.63748
  22727801.422 6 119435401.895 6  93066566.75948  22727807.98848
  23794869.469 5 125043088.515 5  97436040.81047  23794876.27047
  21751051.367 6 114302542.822 6  89066942.71249  21751061.65649
 20  5 16  5 14 49.0000000  0  9G01G03G07G08G11G17G22G28G30          0.000339941
  20226353.398 7 106290202.583 7  82823536.97049  20226364.05149
  23449599.102 5 123228719.491 5  96022240.33348  23449611.50448
  21017174.523 6 110445995.340 6  86061836.74949  21017182.84849
  23170231.586 5 121760377.479 5  94878267.12147  23170243.23847
  21254462.680 6 111692951.098 6  87033489.64348  21254469.69948
  24165736.672 5 126991779.734 5  98954685.72148  24165745.21948
  22727566.539 6 119434169.206 6  93065606.22148  22727573.65248
  23794439.508 5 125040832.193 5  97434282.63946  23794446.97746
  21750938.719 6 114301951.832 6  89066482.19749  21750948.91049
 20  5 16  5 14 50.0000000  0  9G01G03G07G08G11G17G22G28G30          0.000340111
  20226518.063 7 106291068.362 7  82824211.60449  20226529.22349
  23449132.180 5 123226263.990 5  96020326.95549  23449144.18849
  21017439.320 6 110447386.719 6  86062920.94149  21017447.47749
  23170637.141 5 121762509.691 5  94879928.58147  23170648.27047
  21254892.758 6 111695212.777 6  87035251.98648  21254900.03148
  24165513.992 5 126990611.236 5  98953775.20248  24165522.93848
  22727332.531 6 119432937.013 6  93064646.07048  22727339.41448
  23794010.125 5 125038575.944 5  97432524.53547  23794017.42247
  21750826.070 6 114301361.605 6  89066022.28449  21750836.44549
 20  5 16  5 14 51.0000000  0  9G01G03G07G08G11G17G22G28G30          0.000340281
  20226682.875 7 106291935.021 7  82824886.91849  20226694.03149
  23448664.703 5 123223808.750 5  96018413.78249  23448676.87549
  21017704.313 6 110448778.901 6  86064005.75849  21017712.33649
  23171043.328 5 121764642.058 5  94881590.16347  23171054.34847
  21255323.289 6 111697474.941 6  87037014.71648  21255330.25048
  24165291.430 4 126989443.037 4  98952864.91748  24165300.43848
  22727097.977 6 119431705.409 6  93063686.38448  22727104.56648
  23793580.875 5 125036319.820 5  97430766.51846  23793588.37146
  21750713.992 6 114300772.171 6  89065562.98149  21750724.75049
 20  5 16  5 14 52.0000000  0  9G01G03G07G08G11G17G22G28G30          0.000340450
  20226847.953 7 106292802.589 7  82825562.94549  20226858.60249
  23448197.500 5 123221353.857 5  96016500.88249  23448209.72349
  21017969.367 6 110450171.979 6  86065091.27549  21017977.21549
  23171449.039 5 121766774.633 5  94883251.91447  23171460.03147
  21255754.023 6 111699737.628 6  87038777.85048  21255761.16448
  24165069.594 4 126988275.215 4  98951954.93048  24165078.21948
  22726863.813 6 119430474.420 6  93062727.17348  22726870.36348
  23793151.438 5 125034063.876 5  97429008.64147  23793158.99647
  21750602.031 6 114300183.651 6  89065104.39949  21750612.34049
 20  5 16  5 14 53.0000000  0  9G01G03G07G08G11G17G22G28G30          0.000340620
  20227013.414 7 106293671.043 7  82826239.66649  20227023.99249
  23447730.570 5 123218899.292 5  96014588.23448  23447742.93848
  21018234.617 6 110451565.912 6  86066177.45649  21018242.74249
  23171855.094 5 121768907.427 5  94884913.83147  23171866.24647
  21256184.484 6 111702000.829 6  87040541.37848  21256192.07048
  24164846.703 4 126987107.783 4  98951045.24448  24164856.30148
  22726629.477 6 119429244.077 6  93061768.46348  22726636.25048
  23792722.180 5 125031808.100 5  97427250.88347  23792729.79347
  21750490.531 6 114299595.969 6  89064646.46349  21750500.90649
 20  5 16  5 14 54.0000000  0  9G01G03G07G08G11G17G22G28G30          0.000340792
  20227179.086 7 106294540.519 7  82826917.17749  20227189.63749
  23447263.539 5 123216445.150 5  96012675.92349  23447275.78949
  21018499.828 6 110452960.771 6  86067264.35349  21018507.91849
  23172260.883 5 121771040.575 5  94886576.02147  23172271.75047
  21256615.586 6 111704264.670 6  87042305.41148  21256622.68048
  24164624.672 4 126985940.793 4  98950135.91048  24164634.16448
  22726395.539 6 119428014.466 6  93060810.32148  22726402.19948
  23792292.602 5 125029552.602 5  97425493.35647  23792300.19947
  21750378.508 6 114299009.243 6  89064189.27449  21750389.42649
 20  5 16  5 14 55.0000000  0  9G01G03G07G08G11G17G22G28G30          0.000340961
  20227344.555 7 106295410.946 7  82827595.43349  20227355.44949
  23446796.750 5 123213991.368 5  96010763.89049  23446808.99649
  21018765.523 6 110454356.566 6  86068351.99349  21018773.81349
  23172666.844 5 121773173.973 5  94888238.40847  23172677.59447
  21257046.375 6 111706529.040 6  87044069.85548  21257053.39548
  24164402.719 5 126984774.285 5  98949226.94348  24164412.34448
  22726161.813 6 119426785.518 6  93059852.69648  22726168.41848
  23791864.039 5 125027297.309 5  97423735.99047  23791871.06347
  21750267.133 6 114298423.467 6  89063732.81849  21750277.50449
 20  5 16  5 14 56.0000000  0  9G01G03G07G08G11G17G22G28G30          0.000341133
  20227510.008 7 106296282.165 7  82828274.30749  20227520.73449
  23446329.867 5 123211537.853 5  96008852.06349  23446341.87549
  21019030.992 6 110455753.146 6  86069440.23049  21019039.40249
  23173073.070 6 121775307.449 6  94889900.85447  23173083.85247
  21257477.352 6 111708793.887 6  87045834.67248  21257484.32448
  24164181.375 5 126983607.992 5  98948318.14348  24164190.21148
  22725927.836 6 119425557.094 6  93058895.48948  22725934.62948
  23791434.211 5 125025042.125 5  97421978.69147  23791441.85247
  21750155.398 6 114297838.464 6  89063276.97449  21750166.13349
 20  5 16  5 14 57.0000000  0  9G01G03G07G08G11G17G22G28G30          0.000341303
  20227676.313 7 106297154.337 7  82828953.91949  20227686.85249
  23445862.734 5 123209084.695 5  96006940.51148  23445874.78548
  21019297.344 6 110457150.581 6  86070529.13849  21019305.29749
  23173478.930 6 121777441.208 6  94891563.52147  23173489.68447
  21257908.273 6 111711059.256 6  87047599.89348  21257915.50848
  24163959.656 5 126982442.156 5  98947409.70248  24163968.43848
  22725694.484 6 119424329.355 6  93057938.81348  22725700.95748
  23791005.602 5 125022787.141 5  97420221.57047  23791012.89847
  21750044.586 6 114297254.331 6  89062821.80549  21750054.83649
 20  5 16  5 14 58.0000000  0  9G01G03G07G08G11G17G22G28G30          0.000341475
  20227842.281 7 106298027.344 7  82829634.18649  20227852.95749
  23445396.773 5 123206631.791 5  96005029.15948  23445407.89848
  21019563.367 6 110458548.836 6  86071618.68649  21019571.01649
  23173885.320 6 121779575.117 6  94893226.30847  23173896.00047
  21258339.563 6 111713325.101 6  87049365.48348  21258346.52048
  24163737.641 5 126981276.603 5  98946501.48148  24163746.52348
  22725461.266 6 119423102.187 6  93056982.57748  22725467.36348
  23790577.031 5 125020532.258 5  97418464.51047  23790584.09047
  21749933.586 6 114296671.052 6  89062367.30149  21749944.16849
 20  5 16  5 14 59.0000000  0  9G01G03G07G08G11G17G22G28G30          0.000341646
  20228008.813 7 106298901.259 7  82830315.16149  20228019.69549
  23444929.188 5 123204179.229 5  96003118.07649  23444941.55949
  21019829.563 6 110459947.948 6  86072708.90449  21019837.81649
  23174291.094 6 121781709.248 6  94894889.26947  23174302.06647
  21258771.227 6 111715591.482 6  87051131.49948  21258778.19548
  24163516.297 5 126980111.464 5  98945593.58548  24163524.92248
  22725227.070 6 119421875.652 6  93056026.83548  22725234.15248
  23790148.172 5 125018277.576 5  97416707.61747  23790154.84847
  21749822.844 6 114296088.614 6  89061913.45449  21749833.15649
 20  5 16  5 15  0.0000000  0  9G01G03G07G08G11G17G22G28G30          0.000341818
  20228175.164 7 106299776.038 7  82830996.80749  20228185.92249
  23444463.063 5 123201726.955 5  96001207.21749  23444474.78549
  21020096.156 6 110461347.902 6  86073799.77249  21020104.12149
  23174696.961 6 121783843.551 6  94896552.35547  23174707.96947
  21259202.242 6 111717858.320 6  87052897.85948  21259209.09048
  24163294.219 5 126978946.623 5  98944685.92148  24163303.36348
  22724994.352 6 119420649.700 6  93055071.54748  22725001.05948
  23789718.813 5 125016022.992 5  97414950.79947  23789725.83247
  21749711.891 6 114295507.025 6  89061460.27049  21749722.57049
 20  5 16  5 15  1.0000000  0  9G01G03G07G08G11G17G22G28G30          0.000341990
  20228341.891 7 106300651.675 7  82831679.12349  20228352.86349
  23443996.141 5 123199274.964 5  95999296.57049  23444008.63749
  21020362.492 6 110462748.639 6  86074891.25849  21020370.85949
  23175103.078 5 121785977.988 5  94898215.55247  23175114.41047
  21259633.734 6 111720125.655 6  87054664.61348  21259640.85548
  24163073.086 5 126977782.137 5  98943778.53148  24163081.53948
  22724760.898 6 119419424.306 6  93054116.69448  22724767.56648
  23789289.602 5 125013768.556 5  97413194.10647  23789296.91047
  21749601.609 6 114294926.238 6  89061007.70749  21749612.25049
 20  5 16  5 15  2.0000000  0  9G01G03G07G08G11G17G22G28G30          0.000342161
  20228508.500 7 106301528.176 7  82832362.10949  20228518.90649
  23443529.547 5 123196823.271 5  95997386.15849  23443541.46149
  21020629.383 6 110464150.201 6  86075983.38449  21020637.13349
  23175510.188 6 121788112.615 6  94899878.90047  23175520.61347
  21260065.078 6 111722393.475 6  87056431.74648  21260071.93848
  24162851.500 5 126976617.992 5  98942871.40748  24162860.23848
  22724527.602 6 119418199.538 6  93053162.33048  22724534.28948
  23788860.141 5 125011514.255 5  97411437.49647  23788867.91047
  21749491.328 6 114294346.288 6  89060555.79749  21749501.96949
 20  5 16  5 15  3.0000000  0  9G01G03G07G08G11G17G22G28G30          0.000342333
  20228675.813 7 106302405.615 7  82833045.82749  20228686.56349
  23443063.039 5 123194371.928 5  95995476.02649  23443075.41449
  21020896.211 6 110465552.658 6  86077076.20349  21020904.25449
  23175916.094 6 121790247.484 6  94901542.43247  23175926.60947
  21260496.609 6 111724661.817 6  87058199.29148  21260503.44948
  24162629.406 5 126975454.225 5  98941964.57648  24162638.59048
  22724295.273 6 119416975.408 6  93052208.46348  22724301.14848
  23788431.930 5 125009260.161 5  97409681.06546  23788439.11746
  21749380.945 6 114293767.229 6  89060104.58849  21749391.64549
 20  5 16  5 15  4.0000000  0  9G01G03G07G08G11G17G22G28G30          0.000342505
  20228842.469 7 106303283.814 7  82833730.14049  20228853.58249
  23442597.219 5 123191920.777 5  95993566.03849  23442608.88349
  21021163.094 6 110466955.831 6  86078169.58849  21021171.16449
  23176322.086 6 121792382.417 6  94903206.01147  23176333.05947
  21260928.797 6 111726930.576 6  87059967.15548  21260935.57448
  24162408.508 5 126974290.709 5  98941057.93848  24162416.98448
  22724061.953 6 119415751.758 6  93051254.97448  22724068.49248
  23788002.406 5 125007006.091 5  97407924.64847  23788010.21547
  21749271.172 6 114293188.917 6  89059653.95249  21749281.81349
 20  5 16  5 15  5.0000000  0  9G01G03G07G08G11G17G22G28G30          0.000342676
  20229009.992 7 106304163.109 7  82834415.30349  20229020.69949
  23442130.031 5 123189470.140 5  95991656.45049  23442142.51249
  21021430.672 6 110468360.062 6  86079263.79349  21021438.59049
  23176728.625 6 121794517.730 6  94904869.89247  23176739.62947
  21261360.438 6 111729200.004 6  87061735.54048  21261367.57448
  24162187.063 5 126973127.746 5  98940151.73048  24162195.31648
  22723829.313 6 119414528.929 6  93050302.11748  22723835.92648
  23787574.109 5 125004752.389 5  97406168.51647  23787581.28147
  21749161.484 6 114292611.624 6  89059204.11049  21749171.46549
 20  5 16  5 15  6.0000000  0  9G01G03G07G08G11G17G22G28G30          0.000342848
  20229177.398 7 106305043.372 7  82835101.21849  20229188.40249
  23441664.023 5 123187019.880 5  95989747.15549  23441676.61749
  21021697.953 6 110469765.187 6  86080358.69149  21021705.83649
  23177134.570 5 121796653.341 5  94906534.00447  23177145.72747
  21261792.414 6 111731470.037 6  87063504.39648  21261798.98848
  24161965.406 5 126971965.219 5  98939245.86148  24161974.53548
  22723597.273 6 119413306.799 6  93049349.80548  22723603.22748
  23787144.898 5 125002498.906 5  97404412.56447  23787152.41447
  21749051.719 6 114292035.234 6  89058754.97649  21749061.93849
 20  5 16  5 15  7.0000000  0  9G01G03G07G08G11G17G22G28G30          0.000343021
  20229345.242 7 106305924.285 7  82835787.64649  20229356.09049
  23441198.055 5 123184569.748 5  95987837.96949  23441210.01649
  21021965.547 6 110471170.967 6  86081454.10349  21021973.43449
  23177541.445 6 121798788.911 6  94908198.08747  23177552.18447
  21262224.445 6 111733740.346 6  87065273.46748  21262231.33648
  24161744.102 5 126970802.839 5  98938340.11348  24161753.37948
  22723364.617 6 119412085.046 6  93048397.79348  22723370.65248
  23786716.164 5 125000245.357 5  97402656.55547  23786723.62547
  21748942.164 6 114291459.549 6  89058306.38449  21748952.32449
 20  5 16  5 15  8.0000000  0  9G01G03G07G08G11G17G22G28G30          0.000343193
  20229512.906 7 106306806.074 7  82836474.75349  20229523.62549
  23440731.438 5 123182119.884 5  95985928.98749  23440744.07449
  21022233.008 6 110472577.560 6  86082550.14849  21022240.89149
  23177947.391 5 121800924.609 5  94909862.27147  23177958.40247
  21262656.492 6 111736011.167 6  87067042.93948  21262663.28948
  24161522.945 5 126969640.792 5  98937434.62448  24161532.32448
  22723132.328 6 119410863.916 6  93047446.27148  22723138.66448
  23786287.336 5 124997991.987 5  97400900.68347  23786294.52047
  21748832.477 6 114290884.663 6  89057858.42749  21748843.22749
 20  5 16  5 15  9.0000000  0  9G01G03G07G08G11G17G22G28G30          0.000343367
  20229680.836 7 106307688.759 7  82837162.56149  20229691.67649
  23440265.719 5 123179670.354 5  95984020.27049  23440277.93049
  21022500.664 6 110473985.001 6  86083646.85649  21022508.66449
  23178354.516 5 121803060.563 5  94911526.64847  23178365.06347
  21263088.805 6 111738282.489 6  87068812.80048  21263095.43448
  24161302.078 5 126968479.115 5  98936529.42348  24161311.27048
  22722899.766 6 119409643.402 6  93046495.21748  22722906.20348
  23785858.734 5 124995738.770 5  97399144.93347  23785866.09847
  21748723.477 6 114290310.649 6  89057411.14349  21748733.84449
 20  5 16  5 15 10.0000000  0  9G01G03G07G08G11G17G22G28G30          0.000343538
  20229849.133 7 106308572.234 7  82837850.97949  20229859.85249
  23439799.320 5 123177221.050 5  95982111.72549  23439811.98049
  21022768.398 6 110475393.188 6  86084744.14649  21022776.80549
  23178760.594 5 121805196.621 5  94913191.10647  23178771.66447
  21263520.789 6 111740554.243 6  87070582.99748  21263528.01648
  24161080.625 5 126967317.712 5  98935624.43648  24161089.94948
  22722667.563 6 119408423.407 6  93045544.57648  22722674.27048
  23785429.828 4 124993485.593 4  97397389.20246  23785437.14546
  21748613.914 6 114289737.382 6  89056964.44449  21748624.72749
 20  5 16  5 15 11.0000000  0  9G01G03G07G08G11G17G22G28G30          0.000343712
  20230017.477 7 106309456.678 7  82838540.15849  20230027.84849
  23439333.375 5 123174772.120 5  95980203.47349  23439345.80149
  21023036.875 6 110476802.290 6  86085842.14449  21023044.98849
  23179166.875 5 121807332.947 5  94914855.76847  23179177.98047
  21263953.375 6 111742826.548 6  87072353.62548  21263960.58648
  24160860.797 4 126966156.730 4  98934719.77248  24160869.17248
  22722435.648 6 119407204.081 6  93044594.44948  22722442.19148
  23785000.844 5 124991232.696 5  97395633.69446  23785008.53146
  21748505.070 6 114289165.069 6  89056518.48749  21748515.93449
 20  5 16  5 15 12.0000000  0  9G01G03G07G08G11G17G22G28G30          0.000343885
  20230185.969 7 106310342.007 7  82839230.02849  20230196.32849
  23438867.859 5 123172323.511 5  95978295.47148  23438879.81348
  21023305.156 6 110478212.236 6  86086940.80449  21023313.23849
  23179573.625 5 121809469.473 5  94916520.59747  23179584.94147
  21264385.664 6 111745099.360 6  87074124.64748  21264393.12548
  24160639.211 4 126964996.120 4  98933815.40748  24160648.44948
  22722203.844 6 119405985.388 6  93043644.81848  22722210.34848
  23784572.063 5 124988979.896 5  97393878.27046  23784580.00446
  21748396.516 6 114288593.579 6  89056073.16749  21748406.96149
 20  5 16  5 15 13.0000000  0  9G01G03G07G08G11G17G22G28G30          0.000344057
  20230354.594 7 106311228.148 7  82839920.52549  20230365.19549
  23438401.508 5 123169875.155 5  95976387.65949  23438413.87549
  21023573.711 6 110479622.956 6  86088040.06749  21023581.88749
  23179980.336 5 121811606.105 5  94918185.50447  23179991.23047
  21264818.383 6 111747372.612 6  87075896.00748  21264825.43448
  24160417.844 5 126963835.814 5  98932911.27548  24160427.73848
  22721971.961 6 119404767.224 6  93042695.59948  22721978.16048
  23784144.078 4 124986727.229 4  97392122.94446  23784151.31646
  21748287.852 6 114288022.878 6  89055628.46449  21748298.72749
 20  5 16  5 15 14.0000000  0  9G01G03G07G08G11G17G22G28G30          0.000344231
  20230523.273 7 106312115.118 7  82840611.67149  20230533.82449
  23437936.008 5 123167427.027 5  95974480.02949  23437948.31349
  21023842.328 6 110481034.459 6  86089139.93649  21023850.38349
  23180386.672 5 121813742.900 5  94919850.53547  23180397.82847
  21265251.125 6 111749646.317 6  87077667.72348  21265258.34848
  24160198.516 4 126962675.764 4  98932007.33848  24160206.81648
  22721739.883 6 119403549.635 6  93041746.83548  22721746.68448
  23783714.992 4 124984474.663 4  97390367.69846  23783722.75046
  21748179.406 6 114287452.956 6  89055184.36249  21748190.34449
 20  5 16  5 15 15.0000000  0  9G01G03G07G08G11G17G22G28G30          0.000344404
  20230692.289 7 106313003.003 7  82841303.53149  20230702.92649
  23437469.758 5 123164979.231 5  95972572.65749  23437482.11749
  21024111.203 6 110482446.810 6  86090240.46549  21024119.28549
  23180793.570 6 121815879.886 6  94921515.71647  23180804.17247
  21265683.594 6 111751920.529 6  87079439.84048  21265690.80548
  24159977.539 4 126961516.104 4  98931103.70348  24159985.75848
  22721508.695 6 119402332.643 6  93040798.52848  22721515.12548
  23783286.711 4 124982222.239 4  97388612.57047  23783294.04747
  21748071.125 6 114286883.934 6  89054740.97149  21748081.91049
 20  5 16  5 15 16.0000000  0  9G01G03G07G08G11G17G22G28G30          0.000344578
  20230861.328 7 106313891.864 7  82841996.15149  20230872.31349
  23437004.266 5 123162531.922 5  95970665.66549  23437016.80949
  21024379.977 6 110483860.123 6  86091341.74949  21024388.11749
  23181200.438 5 121818017.198 5  94923181.15347  23181211.43847
  21266116.711 6 111754195.384 6  87081212.45148  21266123.73048
  24159756.492 4 126960356.905 4  98930200.43848  24159765.73448
  22721277.109 6 119401116.413 6  93039850.81848  22721283.69548
  23782858.172 5 124979970.132 5  97386857.67846  23782865.47346
  21747963.031 6 114286315.873 6  89054298.32849  21747973.72749
 20  5 16  5 15 17.0000000  0  9G01G03G07G08G11G17G22G28G30          0.000344751
  20231030.555 7 106314781.521 7  82842689.39049  20231041.21149
  23436538.688 5 123160084.743 5  95968758.77649  23436550.96149
  21024648.938 6 110485274.181 6  86092443.61249  21024657.25049
  23181607.273 5 121820154.593 5  94924846.65647  23181617.79347
  21266549.781 6 111756470.609 6  87082985.35248  21266556.56348
  24159535.992 4 126959197.993 4  98929297.39348  24159544.96548
  22721045.539 6 119399900.673 6  93038903.48748  22721052.80148
  23782429.391 5 124977718.017 5  97385102.78946  23782436.71546
  21747855.055 6 114285748.523 6  89053856.23749  21747865.53949
 20  5 16  5 15 18.0000000  0  9G01G03G07G08G11G17G22G28G30          0.000344925
  20231200.102 7 106315672.030 7  82843383.29249  20231210.54749
  23436073.008 5 123157637.908 5  95966852.15749  23436085.02749
  21024918.453 6 110486689.051 6  86093546.10349  21024926.14849
  23182013.734 5 121822292.145 5  94926512.28147  23182024.49247
  21266982.805 6 111758746.325 6  87084758.63948  21266989.60948
  24159315.555 4 126958039.409 4  98928394.60348  24159324.50048
  22720814.352 6 119398685.519 6  93037956.61448  22720821.26648
  23782000.531 5 124975466.077 5  97383348.03046  23782007.96546
  21747747.422 6 114285182.008 6  89053414.79549  21747758.09449
 20  5 16  5 15 19.0000000  0  9G01G03G07G08G11G17G22G28G30          0.000345100
  20231369.930 7 106316563.372 7  82844077.84349  20231380.21949
  23435606.953 5 123155191.311 5  95964945.71648  23435619.44948
  21025187.938 6 110488104.710 6  86094649.21849  21025195.84449
  23182420.891 6 121824429.819 6  94928177.99847  23182431.91047
  21267416.406 6 111761022.482 6  87086532.27048  21267422.61748
  24159094.781 4 126956881.093 4  98927492.01648  24159104.17248
  22720583.477 6 119397470.923 6  93037010.18148  22720590.35548
  23781572.758 5 124973214.204 5  97381593.31646  23781579.82846
  21747639.938 6 114284616.303 6  89052973.98549  21747650.14849
 20  5 16  5 15 20.0000000  0  9G01G03G07G08G11G17G22G28G30          0.000345274
  20231539.578 7 106317455.594 7  82844773.07849  20231550.29749
  23435141.352 5 123152745.026 5  95963039.52448  23435154.32848
  21025457.203 6 110489521.189 6  86095752.96849  21025465.22749
  23182827.516 5 121826567.706 5  94929843.88747  23182838.56347
  21267849.281 6 111763299.124 6  87088306.27348  21267855.94148
  24158874.523 4 126955723.140 4  98926589.71948  24158883.69548
  22720352.266 6 119396256.919 6  93036064.20648  22720358.87948
  23781143.727 5 124970962.529 5  97379838.75946  23781151.02346
  21747532.414 6 114284051.432 6  89052533.82349  21747543.01649
 20  5 16  5 15 21.0000000  0  9G01G03G07G08G11G17G22G28G30          0.000345448
  20231709.430 7 106318348.628 7  82845468.94749  20231720.02049
  23434676.273 5 123150298.978 5  95961133.51349  23434688.84449
  21025726.930 6 110490938.437 6  86096857.32049  21025734.87149
  23183234.242 5 121828705.708 5  94931509.85747  23183244.97347
  21268282.578 6 111765576.205 6  87090080.62048  21268289.37548
  24158654.664 5 126954565.503 5  98925687.66748  24158663.35248
  22720121.297 6 119395043.476 6  93035118.66348  22720128.08248
  23780715.719 5 124968710.932 5  97378084.27646  23780722.66446
  21747425.031 6 114283487.327 6  89052094.26549  21747435.91049
 20  5 16  5 15 22.0000000  0  9G01G03G07G08G11G17G22G28G30          0.000345623
  20231879.875 7 106319242.638 7  82846165.58349  20231890.28149
  23434210.875 5 123147853.353 5  95959227.83148  23434223.43848
  21025996.703 6 110492356.651 6  86097962.41749  21026004.87549
  23183641.141 5 121830844.031 5  94933176.08347  23183652.16047
  21268715.789 6 111767853.897 6  87091855.44248  21268722.54748
  24158434.727 4 126953408.272 4  98924785.92548  24158443.37948
  22719890.609 6 119393830.720 6  93034173.66248  22719897.56348
  23780287.133 5 124966459.581 5  97376329.97746  23780294.46946
  21747317.813 6 114282924.209 6  89051655.46849  21747328.28949
 20  5 16  5 15 23.0000000  0  9G01G03G07G08G11G17G22G28G30          0.000345797
  20232049.656 7 106320137.675 7  82846863.01749  20232060.30549
  23433745.242 5 123145408.179 5  95957322.50849  23433758.19949
  21026267.008 6 110493775.820 6  86099068.26149  21026274.65249
  23184048.180 5 121832982.667 5  94934842.54647  23184059.08247
  21269149.055 6 111770132.223 6  87093630.76548  21269156.57448
  24158215.031 4 126952251.549 4  98923884.58248  24158223.40248
  22719660.117 6 119392618.742 6  93033229.26548  22719666.41448
  23779858.273 5 124964208.516 5  97374575.90247  23779866.02347
  21747210.367 6 114282362.056 6  89051217.42749  21747221.51249
 20  5 16  5 15 24.0000000  0  9G01G03G07G08G11G17G22G28G30          0.000345972
  20232220.375 7 106321033.644 7  82847561.17349  20232230.81349
  23433280.641 5 123142963.336 5  95955417.44148  23433293.05948
  21026537.172 6 110495195.883 6  86100174.80449  21026545.57449
  23184455.141 5 121835121.544 5  94936509.20547  23184465.77747
  21269583.281 6 111772411.099 6  87095406.51148  21269590.27048
  24157995.273 4 126951095.242 4  98922983.56348  24158003.30548
  22719429.227 6 119391407.400 6  93032285.36248  22719436.12148
  23779430.109 5 124961957.635 5  97372821.97246  23779437.82046
  21747104.219 6 114281800.793 6  89050780.07649  21747114.66849
 20  5 16  5 15 25.0000000  0  9G01G03G07G08G11G17G22G28G30          0.000346148
  20232391.227 7 106321930.448 7  82848259.97849  20232401.61749
  23432814.836 5 123140518.796 5  95953512.60649  23432827.49249
  21026807.391 6 110496616.743 6  86101281.96549  21026815.44549
  23184862.250 5 121837260.568 5  94938175.97947  23184873.15647
  21270016.781 6 111774690.408 6  87097182.59448  21270023.60948
  24157774.828 4 126949939.229 4  98922082.77048  24157783.11348
  22719199.555 6 119390196.645 6  93031341.91348  22719205.72348
  23779002.398 5 124959706.897 5  97371068.15146  23779009.71946
  21746997.445 6 114281240.349 6  89050343.36449  21747007.59449
 20  5 16  5 15 26.0000000  0  9G01G03G07G08G11G17G22G28G30          0.000346323
  20232561.883 7 106322828.019 7  82848959.38549  20232572.41449
  23432349.789 5 123138074.414 5  95951607.89449  23432362.77349
  21027078.156 6 110498038.305 6  86102389.67149  21027086.08249
  23185269.094 5 121839399.675 5  94939842.80847  23185280.04347
  21270450.664 6 111776970.104 6  87098958.98148  21270457.66048
  24157554.719 4 126948783.421 4  98921182.14448  24157563.28148
  22718969.172 6 119388986.353 6  93030398.83748  22718975.34848
  23778573.711 5 124957456.147 5  97369314.31246  23778581.16446
  21746891.117 6 114280680.628 6  89049907.21949  21746901.54349
 20  5 16  5 15 27.0000000  0  9G01G03G07G08G11G17G22G28G30          0.000346497
  20232732.805 7 106323726.215 7  82849659.27749  20232743.42649
  23431884.961 5 123135630.104 5  95949703.24049  23431897.50849
  21027348.711 6 110499460.447 6  86103497.83949  21027356.80549
  23185676.133 5 121841538.688 5  94941509.57747  23185687.30147
  21270884.602 6 111779250.078 6  87100735.57948  21270891.54348
  24157335.102 5 126947627.781 5  98920281.64648  24157343.34448
  22718738.547 6 119387776.448 6  93029456.05248  22718745.46148
  23778145.617 5 124955205.396 5  97367560.47946  23778152.52346
  21746784.266 6 114280121.501 6  89049471.53549  21746795.01249
 20  5 16  5 15 28.0000000  0  9G01G03G07G08G11G17G22G28G30          0.000346672
  20232903.758 7 106324625.321 7  82850359.88549  20232914.40249
  23431419.734 5 123133186.143 5  95947798.85648  23431432.54348
  21027619.219 6 110500883.476 6  86104606.69149  21027627.09849
  23186083.805 5 121843677.953 5  94943176.53147  23186094.20747
  21271318.867 6 111781530.562 6  87102512.58348  21271325.62148
  24157115.219 5 126946472.481 5  98919381.41348  24157123.31648
  22718508.680 6 119386567.168 6  93028513.75548  22718515.32848
  23777717.258 4 124952954.744 4  97365806.71946  23777724.51246
  21746678.422 6 114279563.238 6  89049036.52749  21746688.68449
 20  5 16  5 15 29.0000000  0  9G01G03G07G08G11G17G22G28G30          0.000346848
  20233075.141 7 106325525.358 7  82851061.21449  20233085.98049
  23430954.953 5 123130742.524 5  95945894.73949  23430967.33249
  21027890.383 6 110502307.390 6  86105716.23749  21027898.52049
  23186490.875 5 121845817.449 5  94944843.66847  23186501.04347
  21271752.313 6 111783811.615 6  87104290.02248  21271759.73848
  24156894.859 5 126945317.574 5  98918481.48748  24156903.68848
  22718278.391 6 119385358.561 6  93027571.98548  22718285.17248
  23777288.875 4 124950704.313 4  97364053.13746  23777296.41046
  21746572.180 6 114279005.908 6  89048602.23749  21746582.76649
 20  5 16  5 15 30.0000000  0  9G01G03G07G08G11G17G22G28G30          0.000347023
  20233246.531 7 106326426.229 7  82851763.18649  20233257.38749
  23430489.789 5 123128299.217 5  95943990.86549  23430502.07049
  21028161.391 6 110503732.103 6  86106826.40049  21028169.40649
  23186897.750 5 121847957.061 5  94946510.89847  23186908.66047
  21272186.625 6 111786093.077 6  87106067.78848  21272193.69948
  24156675.203 4 126944163.038 4  98917581.85148  24156683.98048
  22718048.750 6 119384150.516 6  93026630.65248  22718055.31348
  23776860.594 4 124948453.994 4  97362299.64246  23776868.37146
  21746465.914 6 114278449.353 6  89048168.56449  21746476.63749
 20  5 16  5 15 31.0000000  0  9G01G03G07G08G11G17G22G28G30          0.000347198
  20233418.125 7 106327327.929 7  82852465.81249  20233428.77749
  23430024.938 5 123125856.133 5  95942087.16649  23430037.17249
  21028432.922 6 110505157.597 6  86107937.16849  21028440.81349
  23187304.938 5 121850096.803 5  94948178.22947  23187315.94547
  21272621.242 6 111788375.001 6  87107845.90548  21272628.01248
  24156455.625 4 126943008.729 4  98916682.39348  24156464.30148
  22717819.141 6 119382943.004 6  93025689.73448  22717825.39848
  23776432.219 5 124946203.786 5  97360546.23546  23776439.73046
  21746360.195 6 114277893.572 6  89047735.48849  21746370.91849
 20  5 16  5 15 32.0000000  0  9G01G03G07G08G11G17G22G28G30          0.000347374
  20233589.867 7 106328230.521 7  82853169.13149  20233600.69549
  23429560.453 5 123123413.377 5  95940183.72149  23429572.77749
  21028704.445 6 110506583.934 6  86109048.60049  21028712.44149
  23187712.227 5 121852236.794 5  94949845.75747  23187723.36747
  21273055.555 6 111790657.462 6  87109624.44648  21273062.62148
  24156235.828 5 126941854.839 5  98915783.25848  24156244.85248
  22717588.641 6 119381736.145 6  93024749.32648  22717595.61348
  23776004.477 5 124943953.762 5  97358792.97846  23776011.97746
  21746255.227 6 114277338.705 6  89047303.11949  21746265.69149
 20  5 16  5 15 33.0000000  0  9G01G03G07G08G11G17G22G28G30          0.000347549
  20233761.844 7 106329133.955 7  82853873.10649  20233772.30949
  23429094.875 5 123120970.889 5  95938280.48748  23429107.53948
  21028975.617 6 110508011.082 6  86110160.66349  21028983.80549
  23188119.664 5 121854376.918 5  94951513.38847  23188130.28547
  21273489.867 6 111792940.375 6  87111403.34348  21273496.77348
  24156016.305 5 126940701.256 5  98914884.37048  24156025.09848
  22717359.781 6 119380529.839 6  93023809.34948  22717366.33648
  23775576.578 4 124941703.800 4  97357039.76246  23775583.77046
  21746149.156 6 114276784.603 6  89046871.35449  21746159.99249
 20  5 16  5 15 34.0000000  0  9G01G03G07G08G11G17G22G28G30          0.000347727
  20233933.805 7 106330038.172 7  82854577.68549  20233944.50849
  23428630.531 5 123118528.613 5  95936377.42648  23428642.85948
  21029247.820 6 110509438.923 6  86111273.26449  21029255.73849
  23188526.695 5 121856517.094 5  94953181.05947  23188537.58247
  21273924.297 6 111795223.641 6  87113182.51048  21273931.14848
  24155796.578 4 126939547.864 4  98913985.62448  24155805.90648
  22717130.375 6 119379324.030 6  93022869.75748  22717136.54748
  23775148.258 4 124939453.916 4  97355286.61646  23775155.73046
  21746044.031 6 114276231.245 6  89046440.16549  21746054.36349
 20  5 16  5 15 35.0000000  0  9G01G03G07G08G11G17G22G28G30          0.000347902
  20234106.297 7 106330943.484 7  82855283.12849  20234116.80949
  23428166.148 5 123116086.881 5  95934474.78049  23428178.38349
  21029519.172 6 110510867.852 6  86112386.71349  21029527.64549
  23188933.906 5 121858657.729 5  94954849.08247  23188945.08247
  21274358.609 6 111797507.695 6  87114962.28848  21274365.94148
  24155577.609 4 126938395.110 4  98913087.38748  24155586.34048
  22716901.141 6 119378119.088 6  93021930.84148  22716907.70348
  23774719.844 4 124937204.409 4  97353533.75446  23774727.29346
  21745938.836 6 114275678.979 6  89046009.82949  21745949.75849
 20  5 16  5 15 36.0000000  0  9G01G03G07G08G11G17G22G28G30          0.000348078
  20234278.531 7 106331849.722 7  82855989.28649  20234289.33249
  23427701.391 5 123113645.511 5  95932572.41548  23427713.62948
  21029791.813 6 110512297.689 6  86113500.87049  21029799.38349
  23189340.984 5 121860798.578 5  94956517.27347  23189352.17247
  21274793.797 6 111799792.249 6  87116742.46048  21274800.82048
  24155358.469 4 126937242.747 4  98912189.43848  24155367.31648
  22716672.266 6 119376914.787 6  93020992.42448  22716678.47748
  23774291.391 4 124934955.110 4  97351781.05246  23774299.52746
  21745834.156 6 114275127.587 6  89045580.17349  21745845.06649
 20  5 16  5 15 37.0000000  0  9G01G03G07G08G11G17G22G28G30          0.000348255
  20234451.000 7 106332756.851 7  82856696.13749  20234461.76649
  23427236.883 5 123111204.441 5  95930670.28449  23427248.91049
  21030064.125 6 110513728.326 6  86114615.65449  21030071.96149
  23189749.148 5 121862939.639 5  94958185.63047  23189760.28547
  21275228.195 6 111802077.294 6  87118523.01348  21275235.58648
  24155139.016 4 126936090.730 4  98911291.76348  24155148.09448
  22716442.891 6 119375711.097 6  93020054.48148  22716449.12548
  23773864.195 4 124932706.010 4  97350028.50046  23773871.21946
  21745729.703 6 114274577.080 6  89045151.20249  21745739.95749
 20  5 16  5 15 38.0000000  0  9G01G03G07G08G11G17G22G28G30          0.000348433
  20234623.930 7 106333664.979 7  82857403.77149  20234634.95749
  23426772.492 5 123108763.812 5  95928768.49648  23426785.01248
  21030336.094 6 110515159.937 6  86115731.19749  21030344.09849
  23190156.664 5 121865081.019 5  94959854.24147  23190167.18447
  21275663.531 6 111804363.017 6  87120304.09348  21275670.77048
  24154919.500 4 126934939.170 4  98910394.44348  24154928.88348
  22716213.859 6 119374508.139 6  93019117.11748  22716220.18048
  23773436.258 4 124930457.113 4  97348276.10546  23773443.41046
  21745625.094 6 114274027.521 6  89044722.97749  21745635.50449
 20  5 16  5 15 39.0000000  0  9G01G03G07G08G11G17G22G28G30          0.000348608
  20234796.805 7 106334573.853 7  82858111.98449  20234807.77049
  23426308.500 5 123106323.354 5  95926866.83948  23426320.07448
  21030608.781 6 110516592.256 6  86116847.28549  21030616.81649
  23190564.328 5 121867222.420 5  94961522.86847  23190574.75847
  21276098.383 6 111806649.039 6  87122085.41348  21276105.80148
  24154700.867 4 126933787.855 4  98909497.31348  24154709.60948
  22715984.750 6 119373305.653 6  93018180.11548  22715991.50448
  23773008.180 4 124928208.250 4  97346523.75046  23773015.82046
  21745520.188 6 114273478.677 6  89044295.30249  21745530.90649
 20  5 16  5 15 40.0000000  0  9G01G03G07G08G11G17G22G28G30          0.000348785
  20234969.828 7 106335483.457 7  82858820.76749  20234980.59449
  23425843.672 5 123103883.068 5  95924965.31848  23425855.61348
  21030881.492 6 110518025.231 6  86117963.88749  21030889.35249
  23190971.164 5 121869363.867 5  94963191.53147  23190982.40647
  21276533.570 6 111808935.433 6  87123867.01648  21276540.84048
  24154482.141 4 126932636.717 4  98908600.32448  24154491.09848
  22715756.070 6 119372103.621 6  93017243.47048  22715762.65248
  23772580.250 4 124925959.391 4  97344771.39046  23772587.78546
  21745416.063 6 114272930.518 6  89043868.16449  21745426.60549
 20  5 16  5 15 41.0000000  0  9G01G03G07G08G11G17G22G28G30          0.000348963
  20235143.328 7 106336393.730 7  82859530.07549  20235154.19949
  23425379.336 5 123101442.878 5  95923063.87348  23425391.70748
  21031154.086 6 110519458.869 6  86119081.01049  21031162.32849
  23191378.898 5 121871505.333 5  94964860.20747  23191389.82047
  21276968.852 6 111811222.111 6  87125648.84348  21276975.54348
  24154262.766 5 126931485.723 5  98907703.45248  24154271.85948
  22715527.367 6 119370902.015 6  93016307.15648  22715534.29748
  23772151.922 5 124923710.491 5  97343019.00146  23772159.75446
  21745311.656 6 114272383.001 6  89043441.52649  21745322.33249
 20  5 16  5 15 42.0000000  0  9G01G03G07G08G11G17G22G28G30          0.000349140
  20235316.648 7 106337304.943 7  82860240.10849  20235327.75049
  23424915.023 5 123099003.051 5  95921162.71548  23424927.31648
  21031427.250 6 110520893.364 6  86120198.79649  21031435.07449
  23191786.664 5 121873646.998 5  94966529.03547  23191796.79747
  21277403.914 6 111813509.348 6  87127431.10248  21277411.09048
  24154043.672 4 126930335.146 4  98906806.90248  24154052.48848
  22715298.961 6 119369701.052 6  93015371.33748  22715305.50848
  23771724.086 5 124921461.785 5  97341266.76146  23771731.97746
  21745207.453 6 114271836.370 6  89043015.58049  21745218.45749
 20  5 16  5 15 43.0000000  0  9G01G03G07G08G11G17G22G28G30          0.000349318
  20235490.445 7 106338217.109 7  82860950.88549  20235501.01249
  23424450.906 5 123096563.631 5  95919261.87648  23424462.94948
  21031700.375 6 110522328.798 6  86121317.31249  21031708.42249
  23192194.055 5 121875788.989 5  94968198.11647  23192204.90647
  21277839.320 6 111815797.158 6  87129213.81548  21277846.54748
  24153824.688 5 126929185.038 5  98905910.71948  24153833.91048
  22715070.461 6 119368500.776 6  93014436.05748  22715076.83648
  23771296.180 4 124919213.317 4  97339514.71846  23771304.07846
  21745103.711 6 114271290.700 6  89042590.38649  21745114.48449
 20  5 16  5 15 44.0000000  0  9G01G03G07G08G11G17G22G28G30          0.000349493
  20235663.492 7 106339129.939 7  82861662.18449  20235674.51649
  23423986.547 5 123094124.324 5  95917361.12048  23423998.77748
  21031973.422 6 110523764.827 6  86122436.29749  21031981.46949
  23192601.438 5 121877930.914 5  94969867.15347  23192612.62947
  21278274.414 6 111818085.279 6  87130996.76648  21278281.71548
  24153605.125 5 126928035.035 5  98905014.61348  24153615.41848
  22714842.477 6 119367300.918 6  93013501.10648  22714848.44948
  23770868.320 5 124916964.790 5  97337762.61946  23770876.00446
  21745000.781 6 114270745.648 6  89042165.67049  21745010.89849
 20  5 16  5 15 45.0000000  0  9G01G03G07G08G11G17G22G28G30          0.000349670
  20235837.781 7 106340043.708 7  82862374.20649  20235848.62149
  23423522.656 5 123091685.313 5  95915460.58748  23423534.95348
  21032247.117 7 110525201.780 7  86123555.99849  21032255.16449
  23193009.016 5 121880073.078 5  94971536.36947  23193020.23847
  21278710.234 6 111820373.909 6  87132780.11248  21278717.39548
  24153386.844 5 126926885.424 5  98904118.80748  24153396.00048
  22714613.672 6 119366101.720 6  93012566.66548  22714620.35948
  23770441.086 4 124914716.482 4  97336010.69246  23770448.34846
  21744896.984 6 114270201.476 6  89041741.64049  21744907.18449
 20  5 16  5 15 46.0000000  0  9G01G03G07G08G11G17G22G28G30          0.000349848
  20236012.031 7 106340958.177 7  82863086.77849  20236023.39149
  23423058.711 5 123089246.505 5  95913560.22348  23423070.52348
  21032520.773 6 110526639.346 6  86124676.17649  21032528.50849
  23193416.727 5 121882215.301 5  94973205.63847  23193427.95747
  21279145.539 6 111822662.866 6  87134563.71348  21279152.70348
  24153169.242 5 126925735.972 5  98903223.12948  24153177.47348
  22714386.539 6 119364902.935 6  93011632.55048  22714392.16048
  23770012.367 4 124912468.126 4  97334258.72446  23770019.74246
  21744793.391 6 114269658.001 6  89041318.15749  21744803.68449
 20  5 16  5 15 47.0000000  0  9G01G03G07G08G11G17G22G28G30          0.000350027
  20236185.539 7 106341873.494 7  82863800.01549  20236196.93449
  23422594.188 5 123086807.984 5  95911660.08148  23422606.35248
  21032794.148 6 110528077.752 6  86125797.01049  21032801.78149
  23193824.617 5 121884357.624 5  94974874.97247  23193835.19947
  21279581.281 6 111824952.310 6  87136347.69348  21279588.50848
  24152950.016 5 126924586.896 5  98902327.74748  24152958.40648
  22714157.984 6 119363704.753 6  93010698.90148  22714164.11348
  23769585.523 4 124910219.930 4  97332506.87846  23769591.93446
  21744689.961 6 114269115.321 6  89040895.28349  21744700.81649
 20  5 16  5 15 48.0000000  0  9G01G03G07G08G11G17G22G28G30          0.000350204
  20236360.109 7 106342789.715 7  82864513.95149  20236371.05949
  23422130.453 5 123084369.765 5  95909760.17848  23422142.17248
  21033068.563 6 110529517.008 6  86126918.50549  21033076.18849
  23194232.211 5 121886500.202 5  94976544.51347  23194242.90647
  21280017.266 6 111827242.242 6  87138132.06048  21280024.34848
  24152730.820 5 126923438.166 5  98901432.63548  24152740.21548
  22713930.008 6 119362507.207 6  93009765.74648  22713936.42648
  23769157.344 4 124907971.880 4  97330755.15646  23769164.67646
  21744587.195 6 114268573.568 6  89040473.14349  21744597.61749
 20  5 16  5 15 49.0000000  0  9G01G03G07G08G11G17G22G28G30          0.000350382
  20236534.883 7 106343706.724 7  82865228.50549  20236545.67249
  23421666.531 5 123081931.784 5  95907860.45748  23421678.61348
  21033342.547 6 110530957.016 6  86128040.59049  21033350.14549
  23194639.586 5 121888642.897 5  94978214.14247  23194651.15247
  21280452.820 6 111829532.569 6  87139916.73148  21280459.86748
  24152513.023 4 126922289.699 4  98900537.72948  24152521.37148
  22713702.563 6 119361310.167 6  93008832.98948  22713708.60948
  23768728.461 4 124905723.926 4  97329003.50846  23768736.70346
  21744483.977 6 114268032.549 6  89040051.56549  21744494.66849
 20  5 16  5 15 50.0000000  0  9G01G03G07G08G11G17G22G28G30          0.000350559
  20236709.602 7 106344624.583 7  82865943.72449  20236720.41849
  23421202.563 5 123079494.084 5  95905960.94948  23421214.59448
  21033616.750 6 110532397.813 6  86129163.28649  21033624.64149
  23195047.516 5 121890785.713 5  94979883.87047  23195058.88747
  21280888.922 6 111831823.389 6  87141701.78448  21280896.05948
  24152293.859 4 126921141.559 4  98899643.07648  24152303.19548
  22713474.906 6 119360113.722 6  93007900.69648  22713480.89548
  23768301.453 4 124903476.062 4  97327251.92046  23768308.93846
  21744381.250 6 114267492.331 6  89039630.61649  21744391.91849
 20  5 16  5 15 51.0000000  0  9G01G03G07G08G11G17G22G28G30          0.000350739
  20236884.219 7 106345543.313 7  82866659.61249  20236895.00049
  23420739.117 5 123077056.673 5  95904061.67248  23420750.93048
  21033891.266 6 110533839.446 6  86130286.63149  21033898.79749
  23195455.844 5 121892928.707 5  94981553.73447  23195466.77047
  21281325.039 6 111834114.678 6  87143487.20148  21281332.11748
  24152075.688 4 126919993.734 4  98898748.67348  24152084.72748
  22713247.109 6 119358917.877 6  93006968.87348  22713253.17248
  23767874.258 4 124901228.350 4  97325500.45846  23767881.19546
  21744278.352 6 114266952.940 6  89039210.31149  21744289.31349
 20  5 16  5 15 52.0000000  0  9G01G03G07G08G11G17G22G28G30          0.000350916
  20237059.547 7 106346462.878 7  82867376.15649  20237070.34849
  23420274.836 5 123074619.557 5  95902162.62248  23420287.24648
  21034165.305 7 110535281.868 7  86131410.60149  21034173.43049
  23195862.930 5 121895071.883 5  94983223.74647  23195874.08647
  21281761.125 6 111836406.430 6  87145272.97848  21281768.45748
  24151857.148 4 126918846.233 4  98897854.51348  24151866.52748
  22713020.000 6 119357722.586 6  93006037.47948  22713026.14548
  23767446.242 4 124898980.739 4  97323749.08246  23767453.41446
  21744176.063 6 114266414.377 6  89038790.65249  21744186.80949
 20  5 16  5 15 53.0000000  0  9G01G03G07G08G11G17G22G28G30          0.000351093
  20237234.359 7 106347383.173 7  82868093.27349  20237245.31349
  23419810.711 5 123072182.589 5  95900263.68348  23419823.03548
  21034440.359 6 110536724.970 6  86132535.09349  21034447.83649
  23196270.984 5 121897215.045 5  94984893.74547  23196282.06647
  21282197.609 6 111838698.510 6  87147059.01448  21282204.57848
  24151638.484 4 126917698.971 4  98896960.54348  24151647.76248
  22712792.281 6 119356527.757 6  93005106.44148  22712798.38748
  23767018.320 4 124896733.177 4  97321997.72946  23767025.63346
  21744073.742 6 114265876.495 6  89038371.52449  21744083.75049
 20  5 16  5 15 54.0000000  0  9G01G03G07G08G11G17G22G28G30          0.000351273
  20237409.594 7 106348304.355 7  82868811.07849  20237420.45349
  23419347.875 5 123069745.938 5  95898364.99948  23419359.85248
  21034714.578 6 110538168.918 6  86133660.24749  21034722.68849
  23196679.164 5 121899358.438 5  94986563.91947  23196689.95347
  21282633.273 6 111840991.116 6  87148845.45948  21282640.52748
  24151419.563 4 126916552.019 4  98896066.81348  24151429.43848
  22712565.203 6 119355333.573 6  93004175.91248  22712571.41848
  23766590.531 4 124894485.740 4  97320246.46846  23766598.07046
  21743971.648 6 114265339.474 6  89037953.06649  21743982.23049
 20  5 16  5 15 55.0000000  0  9G01G03G07G08G11G17G22G28G30          0.000351452
  20237585.250 7 106349226.514 7  82869529.64249  20237596.25849
  23418883.680 5 123067309.714 5  95896466.64248  23418896.10548
  21034990.031 6 110539613.807 6  86134786.13249  21034997.69149
  23197086.844 5 121901502.113 5  94988234.31847  23197098.01647
  21283069.961 6 111843284.299 6  87150632.35348  21283077.05148
  24151202.164 4 126915405.505 4  98895173.43448  24151211.41848
  22712337.891 6 119354140.083 6  93003245.91448  22712344.80948
  23766163.484 4 124892238.535 4  97318495.40946  23766170.20746
  21743869.750 6 114264803.378 6  89037535.32449  21743880.28149
 20  5 16  5 15 56.0000000  0  9G01G03G07G08G11G17G22G28G30          0.000351629
  20237760.648 7 106350149.618 7  82870248.94349  20237771.73849
  23418420.445 5 123064873.849 5  95894568.56748  23418432.30548
  21035264.813 6 110541059.589 6  86135912.70949  21035272.69149
  23197494.625 5 121903646.048 5  94989904.91447  23197506.11347
  21283506.313 6 111845578.061 6  87152419.69948  21283513.51248
  24150984.547 4 126914259.438 4  98894280.40048  24150993.36348
  22712111.008 6 119352947.253 6  93002316.43348  22712117.32848
  23765735.820 5 124889991.587 5  97316744.53946  23765742.56346
  21743767.594 6 114264268.220 6  89037118.31749  21743778.59849
 20  5 16  5 15 57.0000000  0  9G01G03G07G08G11G17G22G28G30          0.000351809
  20237936.492 7 106351073.549 7  82870968.89249  20237947.43049
  23417956.898 5 123062438.286 5  95892670.72248  23417968.93048
  21035540.031 6 110542506.161 6  86137039.91349  21035548.00449
  23197903.195 5 121905790.168 5  94991575.65847  23197914.01247
  21283942.672 6 111847872.271 6  87154207.39748  21283949.94148
  24150766.352 4 126913113.664 4  98893387.59748  24150775.47748
  22711884.203 6 119351755.036 6  93001387.43348  22711890.64148
  23765307.828 5 124887744.767 5  97314993.77446  23765315.07046
  21743666.063 6 114263733.868 6  89036701.93849  21743676.56349
 20  5 16  5 15 58.0000000  0  9G01G03G07G08G11G17G22G28G30          0.000351988
  20238112.500 7 106351998.284 7  82871689.46649  20238123.52049
  23417493.516 5 123060002.936 5  95890773.05048  23417505.31348
  21035815.531 6 110543953.464 6  86138167.67649  21035823.34449
  23198311.086 5 121907934.337 5  94993246.43947  23198321.81347
  21284379.086 6 111850166.890 6  87155995.41448  21284386.77748
  24150547.828 4 126911968.184 4  98892495.01948  24150557.24648
  22711657.461 6 119350563.287 6  93000458.80148  22711664.00848
  23764879.789 5 124885497.975 5  97313243.03546  23764887.26646
  21743564.484 6 114263200.272 6  89036286.15349  21743575.27349
 20  5 16  5 15 59.0000000  0  9G01G03G07G08G11G17G22G28G30          0.000352167
  20238288.875 7 106352923.960 7  82872410.77149  20238299.55549
  23417029.656 5 123057567.939 5  95888875.65448  23417041.98848
  21036091.422 6 110545401.683 6  86139296.16049  21036099.05549
  23198718.883 5 121910078.784 5  94994917.43247  23198730.10947
  21284816.375 6 111852462.090 6  87157783.87948  21284823.52748
  24150330.781 4 126910823.078 4  98891602.72748  24150339.73848
  22711430.742 6 119349372.253 6  92999530.72348  22711437.16048
  23764452.984 5 124883251.433 5  97311492.47946  23764460.23846
  21743462.898 6 114262667.582 6  89035871.07149  21743473.94549
 20  5 16  5 16  0.0000000  0  9G01G03G07G08G11G17G22G28G30          0.000352346
  20238465.070 7 106353850.535 7  82873132.77749  20238475.74249
  23416566.484 5 123055133.292 5  95886978.53348  23416578.78148
  21036366.883 6 110546850.772 6  86140425.32349  21036374.86749
  23199126.680 5 121912223.446 5  94996588.59647  23199138.10547
  21285253.141 6 111854757.769 6  87159572.71848  21285260.27748
  24150112.711 4 126909678.359 4  98890710.73148  24150121.96148
  22711204.430 6 119348181.824 6  92998603.12248  22711210.65648
  23764025.539 4 124881005.059 4  97309742.05747  23764032.51247
  21743362.078 6 114262135.755 6  89035456.65849  21743372.58649
 20  5 16  5 16  1.0000000  0  9G01G03G07G08G11G17G22G28G30          0.000352526
  20238641.750 7 106354777.916 7  82873855.40849  20238652.53949
  23416103.594 5 123052698.914 5  95885081.61748  23416115.44548
  21036642.703 6 110548300.615 6  86141555.06749  21036650.27749
  23199535.063 5 121914368.218 5  94998259.84647  23199546.37147
  21285690.664 6 111857053.887 6  87161361.90448  21285697.34848
  24149894.719 4 126908533.954 4  98889818.98848  24149903.87148
  22710977.414 6 119346991.960 6  92997675.95748  22710984.34848
  23763597.977 5 124878758.736 5  97307991.67247  23763605.21547
  21743261.070 6 114261604.710 6  89035042.85749  21743271.52349
 20  5 16  5 16  2.0000000  0  9G01G03G07G08G11G17G22G28G30          0.000352705
  20238818.242 7 106355706.131 7  82874578.69549  20238829.21949
  23415640.500 5 123050264.808 5  95883184.91548  23415652.53948
  21036918.828 6 110549751.241 6  86142685.42349  21036926.71549
  23199943.508 5 121916513.130 5  94999931.20347  23199954.36747
  21286126.984 6 111859350.473 6  87163151.44348  21286134.43048
  24149677.719 4 126907389.826 4  98888927.46148  24149686.27748
  22710751.141 6 119345802.651 6  92996749.23048  22710757.73448
  23763170.555 5 124876512.567 5  97306241.41346  23763177.54746
  21743159.797 6 114261074.464 6  89034629.68249  21743170.70749
 20  5 16  5 16  3.0000000  0  9G01G03G07G08G11G17G22G28G30          0.000352884
  20238995.117 7 106356635.105 7  82875302.57049  20239005.75049
  23415177.602 5 123047830.873 5  95881288.34648  23415189.01648
  21037194.984 6 110551202.589 6  86143816.33749  21037202.83249
  23200351.445 5 121918658.140 5  95001602.64347  23200362.59047
  21286564.188 6 111861647.425 6  87164941.27848  21286571.59048
  24149459.281 4 126906245.944 4  98888036.12848  24149468.60948
  22710525.047 6 119344613.843 6  92995822.88348  22710531.60248
  23762742.938 4 124874266.417 4  97304491.16646  23762750.39546
  21743059.023 6 114260544.970 6  89034217.08849  21743069.82049
 20  5 16  5 16  4.0000000  0  9G01G03G07G08G11G17G22G28G30          0.000353064
  20239171.734 7 106357564.886 7  82876027.07249  20239183.11349
  23414714.180 5 123045397.169 5  95879391.95248  23414725.86748
  21037471.375 6 110552654.697 6  86144947.85449  21037479.35249
  23200760.141 5 121920803.283 5  95003274.18447  23200770.50047
  21287001.414 6 111863944.815 6  87166731.45048  21287008.84848
  24149241.359 4 126905102.334 4  98887145.00348  24149250.76248
  22710298.961 6 119343425.582 6  92994896.96148  22710305.19148
  23762314.867 4 124872020.352 4  97302740.99346  23762323.00846
  21742958.156 6 114260016.240 6  89033805.08949  21742969.43449
 20  5 16  5 16  5.0000000  0  9G01G03G07G08G11G17G22G28G30          0.000353245
  20239348.945 7 106358495.597 7  82876752.30449  20239360.05149
  23414250.445 5 123042963.841 5  95877495.85948  23414262.70348
  21037747.773 6 110554107.685 6  86146080.05049  21037755.34849
  23201167.625 5 121922948.604 5  95004945.85947  23201178.90247
  21287438.805 6 111866242.729 6  87168522.03148  21287446.34448
  24149024.055 4 126903959.133 4  98886254.19848  24149033.62548
  22710072.867 6 119342237.948 6  92993971.53548  22710079.21148
  23761888.070 4 124869774.477 4  97300990.95546  23761895.37546
  21742858.031 6 114259488.393 6  89033393.77749  21742868.89849
 20  5 16  5 16  6.0000000  0  9G01G03G07G08G11G17G22G28G30          0.000353424
  20239526.352 7 106359427.061 7  82877478.11649  20239537.36749
  23413788.398 5 123040530.748 5  95875599.94348  23413800.23848
  21038024.414 6 110555561.395 6  86147212.81249  21038032.19549
  23201575.805 5 121925093.987 5  95006617.58447  23201587.18047
  21287876.141 6 111868541.043 6  87170312.92548  21287883.07848
  24148806.766 4 126902816.162 4  98885363.57648  24148815.83248
  22709847.180 6 119341050.855 6  92993046.52648  22709853.85948
  23761460.180 5 124867528.665 5  97299240.97246  23761468.43846
  21742757.461 6 114258961.295 6  89032983.05149  21742768.55149
 20  5 16  5 16  7.0000000  0  9G01G03G07G08G11G17G22G28G30          0.000353605
  20239703.867 7 106360359.351 7  82878204.57749  20239714.45349
  23413325.141 5 123038097.880 5  95873704.20148  23413336.92648
  21038301.414 6 110557015.849 6  86148346.15449  21038309.14549
  23201983.945 5 121927239.521 5  95008289.42147  23201995.81647
  21288313.563 6 111870839.755 6  87172104.13248  21288320.86348
  24148589.500 4 126901673.498 4  98884473.18648  24148598.09048
  22709621.359 6 119339864.283 6  92992121.92648  22709627.57048
  23761033.242 4 124865282.928 4  97297491.03446  23761040.91046
  21742657.406 6 114258434.946 6  89032572.90949  21742668.29749
 20  5 16  5 16  8.0000000  0  9G01G03G07G08G11G17G22G28G30          0.000353785
  20239881.180 7 106361292.528 7  82878931.73149  20239892.14849
  23412862.352 5 123035665.349 5  95871808.72448  23412874.11748
  21038578.234 7 110558471.176 7  86149480.17549  21038585.88349
  23202392.750 5 121929385.247 5  95009961.41647  23202404.19947
  21288751.102 6 111873139.016 6  87173895.76348  21288758.64548
  24148371.906 4 126900531.161 4  98883583.05148  24148381.00848
  22709395.633 6 119338678.354 6  92991197.82648  22709402.27048
  23760605.930 4 124863037.311 4  97295741.20446  23760613.48846
  21742557.555 6 114257909.495 6  89032163.47349  21742568.19949
 20  5 16  5 16  9.0000000  0  9G01G03G07G08G11G17G22G28G30          0.000353966
  20240058.914 7 106362226.674 7  82879659.63849  20240069.80149
  23412399.422 5 123033233.202 5  95869913.54948  23412411.27748
  21038855.352 6 110559927.419 6  86150614.90349  21038863.02049
  23202800.781 5 121931531.267 5  95011633.63947  23202812.07047
  21289188.852 6 111875438.828 6  87175687.81948  21289195.95348
  24148154.719 4 126899389.291 4  98882693.28648  24148163.46548
  22709170.250 6 119337493.115 6  92990274.26848  22709176.65248
  23760178.633 4 124860792.038 4  97293991.64946  23760185.94546
  21742457.977 6 114257384.955 6  89031754.73749  21742468.47749
 20  5 16  5 16 10.0000000  0  9G01G03G07G08G11G17G22G28G30          0.000354145
  20240236.648 7 106363161.609 7  82880388.15549  20240247.80149
  23411936.438 5 123030801.316 5  95868018.57348  23411948.48048
  21039132.641 6 110561384.444 6  86151750.25149  21039140.20749
  23203209.078 5 121933677.432 5  95013305.97047  23203220.59847
  21289626.500 6 111877739.116 6  87177480.25548  21289633.38748
  24147937.656 4 126898247.705 4  98881803.74248  24147946.47348
  22708944.633 6 119336308.437 6  92989351.14248  22708951.05948
  23759751.234 4 124858546.826 4  97292242.14146  23759758.96546
  21742358.281 6 114256861.219 6  89031346.62849  21742368.71549
 20  5 16  5 16 11.0000000  0  9G01G03G07G08G11G17G22G28G30          0.000354326
  20240415.211 7 106364097.529 7  82881117.44749  20240425.94549
  23411473.859 5 123028369.803 5  95866123.89448  23411485.62548
  21039410.109 6 110562842.349 6  86152886.28349  21039417.64849
  23203618.023 5 121935823.833 5  95014978.49247  23203629.23447
  21290064.641 6 111880039.950 6  87179273.10848  21290071.51648
  24147720.625 4 126897106.500 4  98880914.49848  24147729.41048
  22708719.109 6 119335124.453 6  92988428.56348  22708725.64148
  23759324.367 4 124856301.797 4  97290492.77246  23759331.63746
  21742258.758 6 114256338.407 6  89030939.24049  21742269.12949
 20  5 16  5 16 12.0000000  0  9G01G03G07G08G11G17G22G28G30          0.000354507
  20240593.391 7 106365034.207 7  82881847.32049  20240604.24249
  23411011.484 5 123025938.535 5  95864229.39648  23411023.10948
  21039687.156 6 110564301.021 6  86154022.90449  21039695.26249
  23204026.523 5 121937970.352 5  95016651.10247  23204037.44147
  21290502.164 6 111882341.179 6  87181066.27448  21290509.30148
  24147503.016 4 126895965.611 4  98880025.49248  24147512.25048
  22708494.086 6 119333941.011 6  92987506.39348  22708500.69948
  23758897.086 4 124854056.850 4  97288743.45646  23758904.56346
  21742159.570 6 114255816.325 6  89030532.42149  21742169.86749
 20  5 16  5 16 13.0000000  0  9G01G03G07G08G11G17G22G28G30          0.000354689
  20240771.727 7 106365971.804 7  82882577.91649  20240782.60249
  23410548.922 5 123023507.596 5  95862335.15848  23410560.32448
  21039964.891 7 110565760.549 7  86155160.19649  21039973.06349
  23204435.047 5 121940117.113 5  95018323.89847  23204446.06347
  21290940.188 6 111884642.942 6  87182859.85648  21290947.62948
  24147286.117 4 126894825.078 4  98879136.76348  24147295.22348
  22708269.039 6 119332758.189 6  92986584.71448  22708275.60548
  23758470.063 4 124851812.092 4  97286994.29346  23758477.28146
  21742060.188 6 114255295.153 6  89030126.31549  21742070.85949
 20  5 16  5 16 14.0000000  0  9G01G03G07G08G11G17G22G28G30          0.000354868
  20240950.336 7 106366910.233 7  82883309.16149  20240961.72749
  23410085.773 5 123021076.928 5  95860441.13448  23410097.62948
  21040243.117 6 110567220.831 6  86156298.07749  21040251.27349
  23204843.094 5 121942263.984 5  95019996.79047  23204854.49247
  21291378.008 6 111886945.104 6  87184653.74848  21291385.09048
  24147069.078 4 126893684.844 4  98878248.26548  24147078.11748
  22708044.141 6 119331575.920 6  92985663.46948  22708050.74648
  23758042.195 4 124849567.472 4  97285245.23046  23758050.26246
  21741961.000 6 114254774.746 6  89029720.80749  21741972.29749
 20  5 16  5 16 15.0000000  0  9G01G03G07G08G11G17G22G28G30          0.000355049
  20241129.023 7 106367849.505 7  82884041.06149  20241140.09849
  23409623.148 5 123018646.547 5  95858547.33348  23409635.36348
  21040521.016 6 110568681.954 6  86157436.61249  21040529.02749
  23205251.836 5 121944411.043 5  95021669.82447  23205263.22747
  21291816.414 6 111889247.820 6  87186448.06748  21291823.61748
  24146852.063 4 126892544.939 4  98877360.03048  24146861.20348
  22707819.305 6 119330394.273 6  92984742.70748  22707825.72348
  23757615.289 4 124847322.976 4  97283496.27946  23757623.00846
  21741861.789 6 114254255.192 6  89029315.96249  21741872.74249
 20  5 16  5 16 16.0000000  0  9G01G03G07G08G11G17G22G28G30          0.000355232
  20241308.016 7 106368789.566 7  82884773.57849  20241319.23849
  23409161.344 5 123016216.396 5  95856653.71148  23409172.80948
  21040799.219 6 110570143.800 6  86158575.71549  21040807.09049
  23205660.266 5 121946558.175 5  95023342.91047  23205672.14147
  21292254.836 6 111891550.891 6  87188242.67348  21292262.22348
  24146635.031 3 126891405.297 3  98876472.00248  24146644.97348
  22707594.422 6 119329213.126 6  92983822.33248  22707600.81348
  23757188.750 4 124845078.520 4  97281747.34446  23757195.95346
  21741763.922 6 114253736.357 6  89028911.67449  21741774.18049
 20  5 16  5 16 17.0000000  0  9G01G03G07G08G11G17G22G28G30          0.000355413
  20241486.734 7 106369730.516 7  82885506.78249  20241497.85249
  23408698.266 5 123013786.563 5  95854760.33448  23408710.79348
  21041077.844 6 110571606.487 6  86159715.47249  21041085.77349
  23206068.961 5 121948705.502 5  95025016.15247  23206080.37547
  21292693.055 6 111893854.436 6  87190037.64248  21292700.26248
  24146419.242 3 126890265.963 3  98875584.21048  24146427.95748
  22707370.156 6 119328032.592 6  92982902.43548  22707376.25048
  23756761.594 5 124842834.180 5  97279998.51646  23756769.03146
  21741665.188 6 114253218.383 6  89028508.05949  21741675.43049
 20  5 16  5 16 18.0000000  0  9G01G03G07G08G11G17G22G28G30          0.000355595
  20241666.180 7 106370672.193 7  82886240.56049  20241677.34049
  23408236.008 5 123011356.912 5  95852867.10748  23408248.11348
  21041355.898 6 110573069.854 6  86160855.75149  21041363.85249
  23206478.000 5 121950852.889 5  95026689.43747  23206488.98447
  21293131.078 6 111896158.339 6  87191832.89448  21293138.71548
  24146201.664 3 126889126.915 3  98874696.63948  24146210.78948
  22707145.672 6 119326852.520 6  92981982.90048  22707151.34448
  23756334.906 5 124840589.906 5  97278249.73646  23756342.06346
  21741566.570 6 114252701.146 6  89028105.01749  21741577.14549
 20  5 16  5 16 19.0000000  0  9G01G03G07G08G11G17G22G28G30          0.000355776
  20241845.633 7 106371614.721 7  82886974.99249  20241856.62949
  23407774.367 5 123008927.534 5  95850974.08548  23407785.91848
  21041634.672 6 110574534.024 6  86161996.66449  21041642.70749
  23206886.984 5 121953000.423 5  95028362.83647  23206897.88347
  21293569.922 6 111898462.675 6  87193628.47548  21293577.45348
  24145984.906 4 126887988.100 4  98873809.25148  24145994.30548
  22706920.883 6 119325673.049 6  92981063.83748  22706927.37548
  23755907.570 5 124838345.730 5  97276501.02146  23755914.85546
  21741468.117 6 114252184.694 6  89027702.58349  21741478.88749
 20  5 16  5 16 20.0000000  0  9G01G03G07G08G11G17G22G28G30          0.000355957
  20242025.195 7 106372557.993 7  82887710.01449  20242035.83649
  23407311.633 5 123006498.338 5  95849081.20448  23407323.85948
  21041913.180 6 110575998.895 6  86163138.12149  21041921.09849
  23207295.391 5 121955147.965 5  95030036.24547  23207306.39147
  21294008.289 6 111900767.404 6  87195424.36748  21294015.87148
  24145768.539 4 126886849.545 4  98872922.07148  24145777.73448
  22706696.828 6 119324494.032 6  92980145.12548  22706703.37148
  23755480.859 5 124836101.562 5  97274752.31946  23755487.70346
  21741370.180 6 114251668.962 6  89027300.71249  21741381.01249
 20  5 16  5 16 21.0000000  0  9G01G03G07G08G11G17G22G28G30          0.000356138
  20242204.734 7 106373502.071 7  82888445.65449  20242215.59049
  23406849.906 5 123004069.383 5  95847188.51748  23406861.65248
  21042192.609 6 110577464.518 6  86164280.16649  21042200.09849
  23207703.773 5 121957295.646 5  95031709.76047  23207715.02347
  21294447.109 6 111903072.535 6  87197220.57248  21294454.61348
  24145551.914 4 126885711.231 4  98872035.07148  24145560.99248
  22706472.234 6 119323315.548 6  92979226.82148  22706478.69148
  23755053.289 5 124833857.489 5  97273003.69246  23755060.55946
  21741272.164 6 114251154.002 6  89026899.44149  21741282.92649
 20  5 16  5 16 22.0000000  0  9G01G03G07G08G11G17G22G28G30          0.000356321
  20242384.297 7 106374446.982 7  82889181.94949  20242395.37949
  23406387.164 5 123001640.716 5  95845296.05348  23406399.49248
  21042471.641 6 110578930.946 6  86165422.83749  21042479.23049
  23208112.203 5 121959443.505 5  95033383.41247  23208123.92247
  21294885.742 6 111905378.116 6  87199017.13048  21294893.78148
  24145335.758 4 126884573.257 4  98871148.33048  24145345.00048
  22706248.398 6 119322137.629 6  92978308.96648  22706254.43848
  23754626.844 5 124831613.536 5  97271255.15546  23754633.80146
  21741174.414 6 114250639.854 6  89026498.81249  21741185.28149
 20  5 16  5 16 23.0000000  0  9G01G03G07G08G11G17G22G28G30          0.000356503
  20242564.445 7 106375392.669 7  82889918.84949  20242575.35549
  23405925.438 5 122999212.272 5  95843403.76548  23405937.53148
  21042750.906 6 110580398.097 6  86166566.07449  21042758.32449
  23208521.422 5 121961591.441 5  95035057.13247  23208532.74247
  21295324.727 6 111907684.143 6  87200814.02948  21295332.28548
  24145118.586 4 126883435.551 4  98870261.80748  24145127.94148
  22706024.250 6 119320960.254 6  92977391.52948  22706030.32048
  23754199.570 5 124829369.654 5  97269506.68546  23754206.59846
  21741076.227 6 114250126.438 6  89026098.74949  21741086.98849
 20  5 16  5 16 24.0000000  0  9G01G03G07G08G11G17G22G28G30          0.000356684
  20242744.391 7 106376338.847 7  82890656.13549  20242755.50849
  23405463.055 5 122996783.724 5  95841511.38648  23405475.12948
  21043029.922 6 110581865.688 6  86167709.64649  21043037.74649
  23208929.844 5 121963739.157 5  95036730.68147  23208941.39147
  21295763.445 6 111909990.237 6  87202610.98848  21295770.93048
  24144902.789 4 126882297.767 4  98869375.22748  24144911.87148
  22705799.867 6 119319783.103 6  92976474.27448  22705806.24248
  23753772.469 5 124827125.538 5  97267758.02846  23753779.92246
  21740978.891 6 114249613.514 6  89025699.06649  21740989.58649
 20  5 16  5 16 25.0000000  0  9G01G03G07G08G11G17G22G28G30          0.000356867
  20242924.789 7 106377285.972 7  82891394.15149  20242935.42649
  23405001.109 5 122994355.586 5  95839619.33248  23405013.02748
  21043309.594 6 110583334.209 6  86168853.94949  21043317.19949
  23209339.164 5 121965887.168 5  95038404.45547  23209349.96147
  21296202.516 6 111912296.911 6  87204408.39448  21296209.76648
  24144686.234 4 126881160.428 4  98868488.98648  24144695.22748
  22705576.359 6 119318606.624 6  92975557.54148  22705582.41448
  23753345.445 5 124824881.615 5  97266009.52146  23753353.22746
  21740881.758 6 114249101.477 6  89025300.07749  21740892.14149
 20  5 16  5 16 26.0000000  0  9G01G03G07G08G11G17G22G28G30          0.000357048
  20243105.414 7 106378233.729 7  82892132.65949  20243115.73849
  23404538.938 5 122991927.532 5  95837727.34548  23404551.62548
  21043589.063 6 110584803.305 6  86169998.69949  21043596.74249
  23209747.203 5 121968035.074 5  95040078.15147  23209758.57447
  21296641.227 6 111914603.826 6  87206205.98748  21296648.95348
  24144469.336 4 126880023.188 4  98867602.82548  24144478.59848
  22705352.438 6 119317430.519 6  92974641.09648  22705358.78148
  23752918.734 5 124822637.636 5  97264260.96146  23752925.58246
  21740784.172 6 114248590.064 6  89024901.57349  21740795.12949
 20  5 16  5 16 27.0000000  0  9G01G03G07G08G11G17G22G28G30          0.000357231
  20243285.734 7 106379182.068 7  82892871.62249  20243296.48849
  23404077.234 5 122989499.450 5  95835835.33648  23404089.40248
  21043868.813 6 110586272.921 6  86171143.85249  21043876.63349
  23210156.195 5 121970182.930 5  95041751.81147  23210167.44547
  21297080.672 6 111916910.925 6  87208003.72148  21297088.34848
  24144253.156 4 126878885.976 4  98866716.68948  24144262.36348
  22705128.742 6 119316254.738 6  92973724.90148  22705135.33648
  23752491.344 5 124820393.482 5  97262512.27146  23752498.53946
  21740687.133 6 114248079.196 6  89024503.49949  21740697.94549
 20  5 16  5 16 28.0000000  0  9G01G03G07G08G11G17G22G28G30          0.000357412
  20243465.930 7 106380131.361 7  82893611.33849  20243476.90649
  23403614.594 5 122987071.838 5  95833943.68848  23403627.75448
  21044148.328 6 110587743.478 6  86172289.74149  21044156.56649
  23210565.094 5 121972331.046 5  95043425.66547  23210575.87547
  21297519.609 6 111919218.650 6  87209801.95248  21297527.31648
  24144036.859 4 126877749.255 4  98865830.93548  24144045.94948
  22704904.852 6 119315079.663 6  92972809.25148  22704910.98848
  23752064.148 4 124818149.601 4  97260763.78646  23752071.67646
  21740590.109 6 114247569.267 6  89024106.14949  21740600.90249
 20  5 16  5 16 29.0000000  0  9G01G03G07G08G11G17G22G28G30          0.000357595
  20243647.289 7 106381081.563 7  82894351.75449  20243657.96549
  23403152.680 5 122984644.504 5  95832052.26048  23403165.39548
  21044428.422 6 110589214.859 6  86173436.27149  21044436.28149
  23210974.422 5 121974479.324 5  95045099.64947  23210985.19947
  21297958.914 6 111921526.858 6  87211600.55748  21297966.48848
  24143820.969 4 126876612.885 4  98864945.44548  24143829.58248
  22704681.461 6 119313905.206 6  92971894.09248  22704687.93448
  23751637.438 5 124815905.875 5  97259015.43246  23751644.48446
  21740493.188 6 114247060.197 6  89023709.47449  21740503.80549
 20  5 16  5 16 30.0000000  0  9G01G03G07G08G11G17G22G28G30          0.000357777
  20243828.133 7 106382032.734 7  82895092.93049  20243839.23849
  23402691.078 5 122982217.636 5  95830161.19348  23402704.04748
  21044708.367 6 110590687.219 6  86174583.56249  21044716.72349
  23211382.797 5 121976627.946 5  95046773.89447  23211393.91047
  21298398.477 6 111923835.665 6  87213399.62548  21298405.62548
  24143603.953 3 126875476.938 3  98864060.28548  24143613.98448
  22704458.250 6 119312731.475 6  92970979.49748  22704464.41848
  23751210.664 4 124813662.451 4  97257267.31246  23751217.93846
  21740396.313 6 114246552.095 6  89023313.54749  21740407.09049
 20  5 16  5 16 31.0000000  0  9G01G03G07G08G11G17G22G28G30          0.000357960
  20244009.281 7 106382984.902 7  82895834.87349  20244020.27049
  23402229.258 5 122979791.208 5  95828270.47848  23402242.12548
  21044989.133 6 110592160.501 6  86175731.57549  21044997.02049
  23211791.898 5 121978776.833 5  95048448.35147  23211802.55947
  21298837.563 6 111926145.082 6  87215199.16948  21298845.32048
  24143388.070 3 126874341.497 3  98863175.52748  24143397.49648
  22704234.906 6 119311558.474 6  92970065.46648  22704240.90648
  23750782.898 5 124811419.277 5  97255519.38546  23750790.90646
  21740299.930 6 114246044.951 6  89022918.37249  21740310.48849
 20  5 16  5 16 32.0000000  0  9G01G03G07G08G11G17G22G28G30          0.000358143
  20244190.594 7 106383937.980 7  82896577.53249  20244201.44949
  23401767.633 5 122977365.104 5  95826380.01048  23401780.41048
  21045269.781 6 110593634.640 6  86176880.25149  21045277.19949
  23212200.633 5 121980925.926 5  95050122.96447  23212212.05147
  21299277.555 6 111928455.047 6  87216999.14348  21299284.97748
  24143172.266 3 126873206.418 3  98862291.05648  24143181.68048
  22704011.750 6 119310386.107 6  92969151.93748  22704017.85248
  23750356.656 4 124809176.263 4  97253771.58246  23750363.94946
  21740203.633 6 114245538.651 6  89022523.84749  21740214.18449
 20  5 16  5 16 33.0000000  0  9G01G03G07G08G11G17G22G28G30          0.000358326
  20244372.133 7 106384891.968 7  82897320.89849  20244383.15649
  23401305.906 5 122974939.335 5  95824489.80548  23401318.76248
  21045550.086 6 110595109.644 6  86178029.60449  21045558.02349
  23212609.797 5 121983075.318 5  95051797.81347  23212620.74247
  21299717.164 6 111930765.500 6  87218799.49348  21299724.53148
  24142956.547 3 126872071.684 3  98861406.85248  24142965.82448
  22703788.414 6 119309214.396 6  92968238.91648  22703794.95348
  23749929.523 4 124806933.461 4  97252023.94246  23749937.50446
  21740107.234 6 114245033.252 6  89022130.02949  21740117.98849
 20  5 16  5 16 34.0000000  0  9G01G03G07G08G11G17G22G28G30          0.000358509
  20244553.531 7 106385846.773 7  82898064.90549  20244564.55549
  23400844.750 5 122972513.848 5  95822599.82148  23400857.36748
  21045830.992 6 110596585.451 6  86179179.58549  21045839.10949
  23213018.352 5 121985224.785 5  95053472.72447  23213029.94947
  21300156.531 6 111933076.414 6  87220600.20648  21300164.08248
  24142740.477 3 126870937.311 3  98860522.92748  24142749.74248
  22703566.094 6 119308043.254 6  92967326.34048  22703572.15648
  23749503.141 5 124804690.734 5  97250276.37046  23749510.68846
  21740011.055 6 114244528.657 6  89021736.84349  21740022.56649
 20  5 16  5 16 35.0000000  0  9G01G03G07G08G11G17G22G28G30          0.000358692
  20244735.625 7 106386802.325 7  82898809.48549  20244746.58649
  23400383.031 5 122970088.545 5  95820709.97748  23400396.34048
  21046111.648 6 110598061.945 6  86180330.09449  21046119.87949
  23213427.547 5 121987374.310 5  95055147.68547  23213438.57447
  21300596.227 6 111935387.717 6  87222401.21948  21300604.01648
  24142525.328 3 126869803.167 3  98859639.17948  24142533.96948
  22703343.070 6 119306872.585 6  92966414.13148  22703349.44548
  23749075.859 5 124802448.078 5  97248528.85046  23749083.70746
  21739915.242 6 114244024.776 6  89021344.20749  21739926.39549
 20  5 16  5 16 36.0000000  0  9G01G03G07G08G11G17G22G28G30          0.000358875
  20244917.516 7 106387758.554 7  82899554.60349  20244928.41449
  23399922.008 5 122967663.346 5  95818820.21748  23399934.27348
  21046393.219 6 110599539.058 6  86181481.08749  21046401.10549
  23213837.156 5 121989523.835 5  95056822.64147  23213847.98047
  21301036.477 6 111937699.271 6  87224202.42548  21301044.02048
  24142308.695 3 126868669.103 3  98858755.49148  24142318.37548
  22703120.281 6 119305702.317 6  92965502.23548  22703126.85548
  23748649.219 5 124800205.351 5  97246781.27746  23748657.01646
  21739819.438 6 114243521.538 6  89020952.07349  21739830.18049
 20  5 16  5 16 37.0000000  0  9G01G03G07G08G11G17G22G28G30          0.000359058
  20245099.672 7 106388715.595 7  82900300.34649  20245110.67649
  23399459.914 5 122965238.426 5  95816930.67148  23399473.04748
  21046674.414 6 110601016.938 6  86182632.68449  21046682.42249
  23214245.867 5 121991673.537 5  95058497.73047  23214257.05547
  21301476.422 6 111940011.273 6  87226003.98748  21301483.75848
  24142093.031 3 126867535.371 3  98857872.07048  24142102.30548
  22702897.711 6 119304532.619 6  92964590.78548  22702903.88748
  23748222.758 4 124797962.702 4  97245033.75346  23748230.23446
  21739723.992 6 114243019.097 6  89020560.55749  21739734.77049
 20  5 16  5 16 38.0000000  0  9G01G03G07G08G11G17G22G28G30          0.000359243
  20245281.859 7 106389673.486 7  82901046.75949  20245293.23049
  23398998.461 5 122962813.783 5  95815041.34148  23399011.71148
  21046955.781 6 110602495.637 6  86183784.91449  21046963.80949
  23214655.102 5 121993823.313 5  95060172.87447  23214666.20747
  21301916.688 6 111942323.738 6  87227805.90848  21301923.57848
  24141877.477 3 126866401.964 3  98856988.89148  24141886.74248
  22702675.781 6 119303363.487 6  92963679.77148  22702681.70748
  23747796.086 4 124795720.190 4  97243286.33746  23747803.70746
  21739628.328 6 114242517.472 6  89020169.67949  21739639.22349
 20  5 16  5 16 39.0000000  0  9G01G03G07G08G11G17G22G28G30          0.000359426
  20245464.273 7 106390632.152 7  82901793.76949  20245475.73049
  23398537.836 5 122960389.377 5  95813152.19548  23398550.39848
  21047237.141 6 110603975.065 6  86184937.71849  21047244.85949
  23215063.688 5 121995973.224 5  95061848.13947  23215075.18847
  21302356.859 6 111944636.604 6  87229608.14348  21302364.07848
  24141661.711 3 126865268.781 3  98856105.89848  24141671.29348
  22702453.359 6 119302194.896 6  92962769.18748  22702459.45748
  23747369.156 5 124793477.754 5  97241538.98446  23747376.64546
  21739533.297 6 114242016.587 6  89019779.37749  21739544.10549
 20  5 16  5 16 40.0000000  0  9G01G03G07G08G11G17G22G28G30          0.000359610
  20245646.930 7 106391591.652 7  82902541.43449  20245658.25849
  23398076.500 5 122957965.228 5  95811263.24848  23398089.08648
  21047518.844 6 110605455.277 6  86186091.12549  21047526.93049
  23215473.125 5 121998123.276 5  95063523.50047  23215484.34447
  21302796.469 6 111946949.931 6  87231410.73248  21302803.84048
  24141446.172 3 126864135.910 3  98855223.14148  24141455.59848
  22702230.563 6 119301026.860 6  92961859.02548  22702237.19548
  23746942.156 4 124791235.433 4  97239791.72546  23746950.09846
  21739437.930 6 114241516.522 6  89019389.71549  21739448.88749
 20  5 16  5 16 41.0000000  0  9G01G03G07G08G11G17G22G28G30          0.000359793
  20245829.711 7 106392551.919 7  82903289.68849  20245840.61349
  23397614.656 5 122955541.296 5  95809374.46948  23397627.66048
  21047800.711 6 110606936.234 6  86187245.12149  21047808.73449
  23215882.109 5 122000273.405 5  95065198.93147  23215893.46947
  21303237.141 6 111949263.633 6  87233213.61548  21303244.64148
  24141230.633 3 126863003.306 3  98854340.59048  24141240.32048
  22702009.008 6 119299859.350 6  92960949.27548  22702015.06348
  23746516.094 5 124788993.134 5  97238044.47347  23746523.76647
  21739343.242 6 114241017.165 6  89019000.60549  21739353.77749
 20  5 16  5 16 42.0000000  0  9G01G03G07G08G11G17G22G28G30          0.000359978
  20246012.313 7 106393512.895 7  82904038.50849  20246023.64549
  23397153.570 5 122953117.546 5  95807485.83948  23397166.96948
  21048082.836 6 110608417.861 6  86188399.63149  21048090.14549
  23216291.000 5 122002423.597 5  95066874.40447  23216302.93847
  21303677.367 6 111951577.668 6  87235016.75848  21303684.77348
  24141015.766 3 126861870.884 3  98853458.18348  24141024.67248
  22701786.688 6 119298692.286 6  92960039.87648  22701793.10248
  23746089.336 5 124786750.851 5  97236297.23547  23746096.34847
  21739248.289 6 114240518.553 6  89018612.08249  21739258.90249
 20  5 16  5 16 43.0000000  0  9G01G03G07G08G11G17G22G28G30          0.000360161
  20246195.531 7 106394474.704 7  82904787.96849  20246206.85549
  23396691.813 5 122950694.021 5  95805597.37748  23396705.47348
  21048364.563 6 110609900.211 6  86189554.70749  21048372.82049
  23216701.047 5 122004573.877 5  95068549.94647  23216711.88747
  21304118.195 6 111953892.084 6  87236820.19948  21304125.35548
  24140799.852 3 126860738.725 3  98852575.98348  24140809.15648
  22701564.914 6 119297525.774 6  92959130.90348  22701570.77748
  23745662.648 5 124784508.645 5  97234550.07746  23745670.38746
  21739153.656 6 114240020.678 6  89018224.12849  21739164.12549
 20  5 16  5 16 44.0000000  0  9G01G03G07G08G11G17G22G28G30          0.000360346
  20246378.766 7 106395437.273 7  82905538.01849  20246390.04349
  23396231.227 5 122948270.742 5  95803709.11148  23396244.35548
  21048646.805 6 110611383.358 6  86190710.40949  21048655.37149
  23217110.781 5 122006724.287 5  95070225.59147  23217121.45747
  21304558.430 6 111956206.954 6  87238623.98948  21304565.86748
  24140583.648 3 126859606.838 3  98851693.99748  24140593.85948
  22701342.430 6 119296359.792 6  92958222.34648  22701349.15248
  23745235.289 5 124782266.491 5  97232802.94746  23745243.25446
  21739059.039 6 114239523.571 6  89017836.77549  21739069.55949
 20  5 16  5 16 45.0000000  0  9G01G03G07G08G11G17G22G28G30          0.000360529
  20246561.953 7 106396400.775 7  82906288.79849  20246573.07449
  23395770.375 5 122945847.824 5  95801821.12648  23395783.53548
  21048929.461 7 110612867.348 7  86191866.76049  21048937.02749
  23217518.938 5 122008874.881 5  95071901.38147  23217530.42247
  21304999.039 6 111958522.348 6  87240428.19748  21305006.30548
  24140368.633 3 126858475.335 3  98850812.31348  24140378.28948
  22701121.172 6 119295194.470 6  92957314.30848  22701127.17248
  23744809.625 4 124780024.580 4  97231055.99747  23744816.62947
  21738964.516 6 114239027.358 6  89017450.11049  21738974.80149
 20  5 16  5 16 46.0000000  0  9G01G03G07G08G11G17G22G28G30          0.000360714
  20246745.680 7 106397364.939 7  82907040.09249  20246756.33249
  23395309.133 5 122943425.023 5  95799933.22948  23395322.70748
  21049212.070 6 110614351.970 6  86193023.60949  21049220.28149
  23217927.836 5 122011025.484 5  95073577.17547  23217939.90647
  21305439.539 6 111960838.015 6  87242232.60748  21305446.88348
  24140153.836 3 126857343.981 3  98849930.74048  24140162.64148
  22700899.469 6 119294029.550 6  92956406.57748  22700905.56348
  23744382.758 4 124777782.579 4  97229308.98046  23744390.07046
  21738870.172 6 114238531.793 6  89017063.95949  21738880.78149
 20  5 16  5 16 47.0000000  0  9G01G03G07G08G11G17G22G28G30          0.000360897
  20246929.172 7 106398329.854 7  82907791.97949  20246940.35549
  23394848.492 5 122941002.350 5  95798045.43348  23394861.18048
  21049494.617 6 110615837.271 6  86194180.98049  21049502.16449
  23218337.234 5 122013176.127 5  95075252.99547  23218348.64847
  21305880.398 6 111963154.047 6  87244037.30748  21305887.88748
  24139939.047 3 126856212.825 3  98849049.32048  24139948.20348
  22700677.992 6 119292865.099 6  92955499.21448  22700684.00448
  23743955.773 4 124775540.597 4  97227561.98546  23743963.75046
  21738775.656 6 114238036.929 6  89016678.35049  21738786.69949
 20  5 16  5 16 48.0000000  0  9G01G03G07G08G11G17G22G28G30          0.000361082
  20247112.727 7 106399295.315 7  82908544.28649  20247123.80149
  23394386.539 5 122938579.729 5  95796157.68148  23394400.39548
  21049777.664 6 110617323.107 6  86195338.77549  21049785.26649
  23218746.828 5 122015326.643 5  95076928.72347  23218757.85947
  21306320.977 6 111965470.267 6  87245842.15648  21306328.34048
  24139723.391 4 126855081.733 4  98848167.95148  24139732.61748
  22700456.070 6 119291700.969 6  92954592.10248  22700462.74648
  23743529.492 4 124773298.503 4  97225814.90047  23743536.59047
  21738681.813 6 114237542.602 6  89016293.15949  21738692.73449
 20  5 16  5 16 49.0000000  0  9G01G03G07G08G11G17G22G28G30          0.000361265
  20247296.984 7 106400261.625 7  82909297.25049  20247307.66049
  23393926.250 5 122936157.391 5  95794270.14648  23393939.00848
  21050060.344 6 110618809.727 6  86196497.18349  21050068.33649
  23219156.367 5 122017477.363 5  95078604.60747  23219167.28547
  21306762.031 6 111967786.934 6  87247647.35448  21306769.17248
  24139508.648 4 126853950.912 4  98847286.78748  24139517.25848
  22700234.930 6 119290537.412 6  92953685.42948  22700241.20748
  23743102.594 5 124771056.499 5  97224067.88346  23743110.17646
  21738587.914 6 114237049.087 6  89015908.60349  21738598.85949
 20  5 16  5 16 50.0000000  0  9G01G03G07G08G11G17G22G28G30          0.000361450
  20247480.820 7 106401228.822 7  82910050.91249  20247491.57849
  23393465.680 5 122933735.381 5  95792382.86848  23393478.55548
  21050343.008 6 110620297.188 6  86197656.23749  21050351.15249
  23219564.859 5 122019628.233 5  95080280.60447  23219576.57047
  21307202.773 6 111970104.089 6  87249452.92648  21307210.48448
  24139292.773 4 126852820.468 4  98846405.92648  24139302.30148
  22700013.594 6 119289374.477 6  92952779.24848  22700020.07048
  23742675.563 5 124768814.677 5  97222321.01946  23742683.66046
  21738494.047 6 114236556.396 6  89015524.68449  21738504.91449
 20  5 16  5 16 51.0000000  0  9G01G03G07G08G11G17G22G28G30          0.000361635
  20247665.086 7 106402196.958 7  82910805.29949  20247676.07849
  23393004.492 5 122931313.776 5  95790495.90348  23393017.72748
  21050626.445 6 110621785.557 6  86198816.00749  21050634.36349
  23219974.539 5 122021779.393 5  95081956.83347  23219986.15247
  21307644.039 6 111972421.835 6  87251258.95948  21307651.35548
  24139078.023 4 126851690.454 4  98845525.39948  24139087.53548
  22699792.359 6 119288212.241 6  92951873.61348  22699798.70348
  23742249.078 5 124766573.071 5  97220574.30747  23742257.28147
  21738400.742 6 114236064.669 6  89015141.52049  21738411.23049
 20  5 16  5 16 52.0000000  0  9G01G03G07G08G11G17G22G28G30          0.000361820
  20247849.477 7 106403166.137 7  82911560.50449  20247860.68049
  23392543.867 5 122928892.615 5  95788609.28448  23392556.68848
  21050909.695 6 110623274.909 6  86199976.54449  21050917.80549
  23220383.633 5 122023930.871 5  95083633.31147  23220395.28547
  21308084.898 6 111974740.223 6  87253065.49148  21308092.33248
  24138863.305 4 126850560.942 4  98844645.26448  24138872.69548
  22699570.789 6 119287050.743 6  92950968.55048  22699577.47748
  23741822.930 5 124764331.804 5  97218827.86346  23741830.60546
  21738307.414 6 114235573.938 6  89014759.13649  21738318.13349
 20  5 16  5 16 53.0000000  0  9G01G03G07G08G11G17G22G28G30          0.000362005
  20248033.867 7 106404136.082 7  82912316.30549  20248045.30549
  23392083.289 5 122926471.700 5  95786722.85948  23392096.24248
  21051193.180 6 110624764.994 6  86201137.64749  21051201.51649
  23220793.273 5 122026082.466 5  95085309.87947  23220804.78547
  21308526.422 6 111977058.982 6  87254872.31548  21308533.89548
  24138648.336 3 126849431.664 3  98843765.30448  24138657.53948
  22699350.523 6 119285889.790 6  92950063.91248  22699356.71948
  23741396.625 5 124762090.567 5  97217081.44947  23741404.18447
  21738214.555 6 114235083.945 6  89014377.32049  21738225.07049
 20  5 16  5 16 54.0000000  0  9G01G03G07G08G11G17G22G28G30          0.000362190
  20248218.867 7 106405106.729 7  82913072.65749  20248229.75849
  23391622.773 5 122924050.901 5  95784836.52348  23391635.14148
  21051477.000 6 110626255.704 6  86202299.23649  21051484.75449
  23221202.852 5 122028234.072 5  95086986.45647  23221214.12947
  21308967.922 6 111979378.076 6  87256679.40648  21308975.02748
  24138432.906 4 126848302.580 4  98842885.50548  24138442.30948
  22699129.320 6 119284729.258 6  92949159.60148  22699135.89848
  23740970.172 5 124759849.315 5  97215335.01346  23740978.03146
  21738121.313 6 114234594.624 6  89013996.03249  21738131.59449
 20  5 16  5 16 55.0000000  0  9G01G03G07G08G11G17G22G28G30          0.000362375
  20248403.766 7 106406078.142 7  82913829.59949  20248414.99249
  23391161.930 5 122921630.355 5  95782950.38648  23391174.59448
  21051760.805 6 110627747.173 6  86203461.42049  21051768.87549
  23221612.031 5 122030385.742 5  95088663.08547  23221623.44947
  21309409.016 6 111981697.545 6  87258486.78948  21309416.68848
  24138218.523 4 126847173.751 4  98842005.90248  24138227.70748
  22698908.609 6 119283569.269 6  92948255.71548  22698915.29748
  23740543.539 5 124757608.082 5  97213588.59647  23740551.45347
  21738028.133 6 114234106.033 6  89013615.30549  21738038.31649
 20  5 16  5 16 56.0000000  0  9G01G03G07G08G11G17G22G28G30          0.000362560
  20248588.719 7 106407050.441 7  82914587.23249  20248599.56349
  23390700.891 5 122919210.085 5  95781064.46548  23390714.35548
  21052044.883 6 110629239.461 6  86204624.23749  21052053.36349
  23222022.063 5 122032537.609 5  95090339.85847  23222032.96947
  21309850.484 6 111984017.525 6  87260294.56448  21309857.62948
  24138004.047 4 126846045.231 4  98841126.53548  24138013.04348
  22698687.945 6 119282409.874 6  92947352.29148  22698694.64548
  23740116.758 5 124755367.050 5  97211842.33447  23740124.68847
  21737934.875 6 114233618.319 6  89013235.27549  21737946.00449
 20  5 16  5 16 57.0000000  0  9G01G03G07G08G11G17G22G28G30          0.000362745
  20248774.172 7 106408023.592 7  82915345.53049  20248784.97749
  23390240.172 5 122916790.161 5  95779178.81348  23390253.60248
  21052329.141 6 110630732.569 6  86205787.69549  21052337.15249
  23222431.266 5 122034689.649 5  95092016.77147  23222442.82847
  21310292.031 6 111986337.954 6  87262102.68548  21310299.53948
  24137788.602 4 126844917.027 4  98840247.41148  24137798.46148
  22698467.625 6 119281251.066 6  92946449.32648  22698474.36348
  23739690.289 5 124753126.118 5  97210096.16246  23739698.62146
  21737842.359 6 114233131.406 6  89012855.85949  21737853.07449
 20  5 16  5 16 58.0000000  0  9G01G03G07G08G11G17G22G28G30          0.000362930
  20248959.250 7 106408997.501 7  82916104.42349  20248970.32449
  23389780.414 5 122914370.415 5  95777293.29748  23389793.41448
  21052612.867 6 110632226.380 6  86206951.70549  21052621.20749
  23222840.938 5 122036841.766 5  95093693.74247  23222852.12947
  21310733.742 6 111988658.785 6  87263911.12548  21310741.30548
  24137574.438 4 126843789.151 4  98839368.54548  24137583.64548
  22698247.000 6 119280092.794 6  92945546.77648  22698253.57448
  23739264.195 4 124750885.265 4  97208350.03946  23739272.01246
  21737749.914 6 114232645.253 6  89012477.03949  21737760.70749
 20  5 16  5 16 59.0000000  0  9G01G03G07G08G11G17G22G28G30          0.000363115
  20249144.359 7 106409972.021 7  82916863.79349  20249155.78149
  23389319.781 5 122911950.748 5  95775407.84148  23389332.83648
  21052897.570 6 110633720.770 6  86208116.16249  21052905.83249
  23223250.586 5 122038993.809 5  95095370.65847  23223261.74647
  21311175.203 6 111990979.855 6  87265719.75248  21311182.69148
  24137359.836 4 126842661.290 4  98838489.69448  24137368.94948
  22698026.633 6 119278934.849 6  92944644.48748  22698033.74648
  23738837.734 4 124748644.311 4  97206603.84947  23738845.56647
  21737657.883 6 114232159.700 6  89012098.68749  21737668.17249
 20  5 16  5 17  0.0000000  0  9G01G03G07G08G11G17G22G28G30          0.000363302
  20249330.406 7 106410947.413 7  82917623.83449  20249341.16049
  23388859.711 5 122909531.391 5  95773522.62748  23388872.48048
  21053182.461 6 110635215.993 6  86209281.27349  21053189.92649
  23223659.305 5 122041146.019 5  95097047.70447  23223671.53947
  21311616.797 6 111993301.394 6  87267528.74248  21311624.73048
  24137144.500 4 126841533.829 4  98837611.15748  24137154.42248
  22697806.336 6 119277777.540 6  92943742.69248  22697813.48048
  23738411.211 5 124746403.510 5  97204857.77346  23738419.50846
  21737565.086 6 114231674.955 6  89011720.96449  21737576.02349
 20  5 16  5 17  1.0000000  0  9G01G03G07G08G11G17G22G28G30          0.000363487
  20249516.195 7 106411923.654 7  82918384.54449  20249526.99249
  23388399.281 5 122907112.315 5  95771637.63248  23388411.88348
  21053467.086 6 110636711.979 6  86210446.97549  21053474.55149
  23224068.773 5 122043298.407 5  95098724.89147  23224080.48047
  21312059.156 6 111995623.388 6  87269338.08548  21312066.85248
  24136930.297 4 126840406.622 4  98836732.81448  24136939.68048
  22697586.820 6 119276620.821 6  92942841.35248  22697593.40248
  23737984.773 4 124744162.851 4  97203111.80446  23737992.91846
  21737473.344 6 114231191.056 6  89011343.89949  21737484.04749
 20  5 16  5 17  2.0000000  0  9G01G03G07G08G11G17G22G28G30          0.000363672
  20249702.031 7 106412900.679 7  82919145.85949  20249712.89549
  23387938.992 5 122904693.476 5  95769752.82348  23387951.50848
  21053752.070 6 110638208.752 6  86211613.28649  21053759.94149
  23224478.992 5 122045450.916 5  95100402.16847  23224490.65647
  21312500.938 6 111997945.790 6  87271147.74748  21312508.51648
  24136716.000 4 126839279.674 4  98835854.67948  24136725.56648
  22697366.375 6 119275464.615 6  92941940.41148  22697373.10548
  23737558.547 4 124741922.217 4  97201365.85946  23737566.21146
  21737381.242 6 114230707.889 6  89010967.40349  21737391.89149
 20  5 16  5 17  3.0000000  0  9G01G03G07G08G11G17G22G28G30          0.000363859
  20249887.813 7 106413878.396 7  82919907.71849  20249899.00449
  23387478.609 5 122902274.788 5  95767868.13948  23387491.54748
  21054036.328 6 110639706.138 6  86212780.08249  21054044.40649
  23224888.195 5 122047603.438 5  95102079.46047  23224899.98447
  21312943.305 6 112000268.505 6  87272957.66148  21312950.53148
  24136501.578 4 126838152.984 4  98834976.74248  24136511.01248
  22697146.781 6 119274308.867 6  92941039.83048  22697153.61748
  23737132.117 4 124739681.550 4  97199619.88146  23737140.22346
  21737289.320 6 114230225.408 6  89010591.44449  21737300.04749
 20  5 16  5 17  4.0000000  0  9G01G03G07G08G11G17G22G28G30          0.000364044
  20250074.297 7 106414856.916 7  82920670.20249  20250085.17249
  23387017.805 5 122899856.317 5  95765983.62148  23387031.01248
  21054321.594 6 110641204.298 6  86213947.47549  21054329.66049
  23225298.055 5 122049756.053 5  95103756.81347  23225309.87947
  21313384.813 6 112002591.639 6  87274767.89148  21313392.54348
  24136287.242 4 126837026.454 4  98834098.92848  24136296.28148
  22696927.023 6 119273153.641 6  92940139.65248  22696933.46548
  23736705.211 5 124737440.998 5  97197873.98846  23736713.68046
  21737197.547 6 114229743.700 6  89010216.08849  21737208.53949
 20  5 16  5 17  5.0000000  0  9G01G03G07G08G11G17G22G28G30          0.000364229
  20250260.281 7 106415836.340 7  82921433.38749  20250271.74249
  23386557.859 5 122897438.208 5  95764099.38048  23386571.15648
  21054607.031 6 110642703.300 6  86215115.52949  21054615.00449
  23225707.680 5 122051908.893 5  95105434.35047  23225719.42647
  21313827.219 6 112004915.278 6  87276578.52048  21313834.69148
  24136073.414 4 126835900.363 4  98833221.45248  24136082.48048
  22696706.992 6 119271999.057 6  92939239.97948  22696713.88348
  23736279.250 5 124735200.610 5  97196128.23446  23736287.04746
  21737105.813 6 114229262.859 6  89009841.41049  21737116.91849
 20  5 16  5 17  6.0000000  0  9G01G03G07G08G11G17G22G28G30          0.000364416
  20250446.961 7 106416816.597 7  82922197.22849  20250458.03949
  23386098.000 5 122895020.406 5  95762215.38348  23386111.17248
  21054892.117 6 110644203.106 6  86216284.21049  21054900.20749
  23226117.906 5 122054061.866 5  95107111.98547  23226128.85247
  21314269.688 6 112007239.401 6  87278389.52248  21314276.85948
  24135858.078 4 126834774.566 4  98832344.20048  24135868.13748
  22696487.414 6 119270845.072 6  92938340.77348  22696494.29748
  23735853.164 4 124732960.383 4  97194382.60946  23735860.91046
  21737014.711 6 114228782.829 6  89009467.35649  21737025.55149
 20  5 16  5 17  7.0000000  0  9G01G03G07G08G11G17G22G28G30          0.000364603
  20250634.000 7 106417797.645 7  82922961.67949  20250644.81349
  23385638.023 5 122892602.814 5  95760331.54448  23385650.71948
  21055178.070 6 110645703.650 6  86217453.46549  21055185.62149
  23226527.180 5 122056214.926 5  95108789.69847  23226538.84047
  21314711.789 6 112009563.898 6  87280200.81548  21314719.35948
  24135644.719 4 126833649.017 4  98831467.14248  24135654.13348
  22696268.078 6 119269691.604 6  92937441.96648  22696275.26248
  23735427.008 5 124730720.178 5  97192636.98946  23735434.71546
  21736923.688 6 114228303.584 6  89009093.92049  21736934.44549
 20  5 16  5 17  8.0000000  0  9G01G03G07G08G11G17G22G28G30          0.000364788
  20250820.836 7 106418779.519 7  82923726.77149  20250831.60249
  23385177.875 5 122890185.518 5  95758447.93948  23385190.69548
  21055463.516 6 110647204.991 6  86218623.33849  21055471.79349
  23226936.938 5 122058368.161 5  95110467.54247  23226948.15247
  21315154.125 6 112011888.849 6  87282012.46048  21315161.63748
  24135430.039 4 126832523.806 4  98830590.35548  24135439.35248
  22696048.609 6 119268538.736 6  92936543.62848  22696055.25448
  23735000.391 5 124728480.110 5  97190891.48446  23735008.52346
  21736832.516 6 114227825.097 6  89008721.07349  21736843.27349
 20  5 16  5 17  9.0000000  0  9G01G03G07G08G11G17G22G28G30          0.000364975
  20251007.656 6 106419762.197 6  82924492.49649  20251018.91449
  23384718.047 5 122887768.450 5  95756564.51348  23384730.59048
  21055749.805 6 110648707.070 6  86219793.78449  21055758.01249
  23227346.695 5 122060521.496 5  95112145.46347  23227358.34047
  21315596.484 6 112014214.225 6  87283824.44648  21315604.09448
  24135216.750 4 126831398.824 4  98829713.75248  24135225.96148
  22695829.164 6 119267386.386 6  92935645.69248  22695835.85248
  23734574.203 5 124726240.114 5  97189146.03946  23734582.18046
  21736741.484 6 114227347.442 6  89008348.87149  21736752.39549
 20  5 16  5 17 10.0000000  0  9G01G03G07G08G11G17G22G28G30          0.000365162
  20251194.852 7 106420745.643 7  82925258.81749  20251205.67649
  23384258.133 5 122885351.611 5  95754681.26248  23384271.18048
  21056035.391 6 110650209.888 6  86220964.81349  21056043.50049
  23227756.563 5 122062674.909 5  95113823.44747  23227768.12947
  21316039.602 6 112016539.958 6  87285636.70848  21316047.18848
  24135002.133 4 126830274.103 4  98828837.34648  24135011.68848
  22695610.055 6 119266234.536 6  92934748.14748  22695616.78548
  23734147.875 5 124724000.173 5  97187400.63146  23734155.69546
  21736651.188 6 114226870.490 6  89007977.21849  21736662.00849
 20  5 16  5 17 11.0000000  0  9G01G03G07G08G11G17G22G28G30          0.000365349
  20251382.328 7 106421729.917 7  82926025.78049  20251393.10549
  23383798.180 5 122882935.047 5  95752798.22748  23383811.16448
  21056321.367 6 110651713.510 6  86222136.46749  21056329.73049
  23228166.445 5 122064828.483 5  95115501.55547  23228177.90647
  21316482.023 6 112018866.176 6  87287449.34348  21316489.36748
  24134788.016 4 126829149.696 4  98827961.19348  24134797.60248
  22695391.109 6 119265083.311 6  92933851.08648  22695397.96148
  23733721.820 4 124721760.333 4  97185655.29446  23733729.46946
  21736560.234 6 114226394.364 6  89007606.21349  21736571.20349
 20  5 16  5 17 12.0000000  0  9G01G03G07G08G11G17G22G28G30          0.000365536
  20251569.648 7 106422715.046 7  82926793.41249  20251580.53149
  23383338.805 5 122880518.792 5  95750915.43048  23383351.45348
  21056607.539 6 110653217.920 6  86223308.73049  21056615.78549
  23228575.711 5 122066982.214 5  95117179.78647  23228587.41447
  21316924.563 6 112021192.840 6  87289262.32848  21316932.23448
  24134575.000 4 126828025.648 4  98827085.31448  24134584.08248
  22695171.813 6 119263932.651 6  92932954.47248  22695179.12948
  23733295.445 4 124719520.649 4  97183910.08347  23733303.39847
  21736470.063 6 114225919.027 6  89007235.81749  21736480.23049
 20  5 16  5 17 13.0000000  0  9G01G03G07G08G11G17G22G28G30          0.000365723
  20251757.180 7 106423701.004 7  82927561.69349  20251768.56649
  23382879.227 5 122878102.817 5  95749032.85748  23382891.75848
  21056894.125 6 110654723.105 6  86224481.60049  21056902.18049
  23228986.039 5 122069136.077 5  95118858.12047  23228997.48047
  21317367.773 6 112023519.938 6  87291075.64848  21317375.44948
  24134360.414 4 126826901.847 4  98826209.62548  24134369.97748
  22694953.391 6 119262782.556 6  92932058.29748  22694959.85248
  23732869.734 5 124717281.081 5  97182164.96647  23732877.06647
  21736379.953 6 114225444.534 6  89006866.08149  21736390.53549
 20  5 16  5 17 14.0000000  0  9G01G03G07G08G11G17G22G28G30          0.000365910
  20251944.742 7 106424687.631 7  82928330.48849  20251955.87549
  23382419.172 5 122875686.942 5  95747150.36248  23382431.68048
  21057180.742 6 110656228.925 6  86225654.96749  21057188.65249
  23229395.680 5 122071289.920 5  95120536.43447  23229407.73847
  21317809.914 6 112025847.354 6  87292889.21548  21317818.00448
  24134146.414 4 126825778.238 4  98825334.08348  24134155.96148
  22694734.867 6 119261632.882 6  92931162.44548  22694741.41448
  23732443.516 4 124715041.450 4  97180419.79646  23732451.08246
  21736289.586 6 114224970.701 6  89006496.86249  21736300.03549
 20  5 16  5 17 15.0000000  0  9G01G03G07G08G11G17G22G28G30          0.000366096
  20252133.000 7 106425675.070 7  82929099.92449  20252143.54349
  23381959.617 5 122873271.332 5  95745268.07648  23381971.78148
  21057467.461 6 110657735.556 6  86226828.96749  21057476.00049
  23229805.563 5 122073443.896 5  95122214.86147  23229817.28547
  21318253.453 6 112028175.168 6  87294703.09448  21318260.98448
  24133932.688 4 126824654.912 4  98824458.76648  24133942.29748
  22694515.586 6 119260483.807 6  92930267.06348  22694522.54348
  23732017.148 4 124712801.957 4  97178674.73447  23732025.02747
  21736199.555 6 114224497.614 6  89006128.22649  21736210.24649
 20  5 16  5 17 16.0000000  0  9G01G03G07G08G11G17G22G28G30          0.000366283
  20252321.023 7 106426663.397 7  82929870.05449  20252331.85249
  23381500.359 5 122870856.062 5  95743386.05148  23381512.55548
  21057754.781 6 110659242.970 6  86228003.57149  21057762.71149
  23230215.320 5 122075598.070 5  95123893.44347  23230227.22347
  21318696.328 6 112030503.521 6  87296517.39648  21318703.80148
  24133719.352 4 126823531.856 4  98823583.65448  24133728.99648
  22694297.273 6 119259335.311 6  92929372.13248  22694303.96148
  23731590.852 5 124710562.608 5  97176929.79647  23731598.84047
  21736109.383 6 114224025.393 6  89005760.26149  21736119.97349
 20  5 16  5 17 17.0000000  0  9G01G03G07G08G11G17G22G28G30          0.000366470
  20252509.180 7 106427652.483 7  82930640.76349  20252519.95349
  23381040.250 5 122868441.006 5  95741504.18948  23381053.01248
  21058041.398 6 110660751.121 6  86229178.74949  21058049.57449
  23230625.391 5 122077752.340 5  95125572.09147  23230637.22347
  21319139.563 6 112032832.221 6  87298331.96948  21319147.22348
  24133506.055 4 126822409.143 4  98822708.81448  24133515.32448
  22694079.008 6 119258187.333 6  92928477.60448  22694085.75048
  23731164.594 5 124708323.297 5  97175184.88047  23731172.81647
  21736020.141 6 114223553.943 6  89005392.89049  21736030.70749
 20  5 16  5 17 18.0000000  0  9G01G03G07G08G11G17G22G28G30          0.000366657
  20252697.625 7 106428642.353 7  82931412.09149  20252708.47349
  23380580.930 5 122866026.175 5  95739622.49948  23380593.30948
  21058328.359 6 110662259.966 6  86230354.47249  21058336.85949
  23231035.570 5 122079906.646 5  95127250.77447  23231047.13747
  21319582.805 6 112035161.313 6  87300146.84648  21319590.28548
  24133292.531 4 126821286.636 4  98821834.13748  24133301.66048
  22693860.688 6 119257039.880 6  92927583.48548  22693867.27348
  23730738.172 5 124706084.034 5  97173440.00146  23730746.63746
  21735930.336 6 114223083.196 6  89005026.07249  21735940.95749
 20  5 16  5 17 19.0000000  0  9G01G03G07G08G11G17G22G28G30          0.000366844
  20252885.992 7 106429632.974 7  82932184.00149  20252897.07849
  23380121.219 5 122863611.549 5  95737740.97048  23380134.29748
  21058615.680 6 110663769.562 6  86231530.78149  21058623.68849
  23231445.805 5 122082061.105 5  95128929.57347  23231456.93447
  21320026.141 6 112037490.774 6  87301962.00748  21320033.36348
  24133078.367 4 126820164.394 4  98820959.66348  24133087.98848
  22693642.781 6 119255892.918 6  92926689.74748  22693649.11748
  23730312.742 5 124703844.847 5  97171695.18247  23730320.37547
  21735840.992 6 114222613.226 6  89004659.85849  21735852.00849
 20  5 16  5 17 20.0000000  0  9G01G03G07G08G11G17G22G28G30          0.000367031
  20253074.789 7 106430624.354 7  82932956.50649  20253085.89849
  23379661.414 5 122861197.129 5  95735859.61048  23379674.74248
  21058903.031 6 110665279.866 6  86232707.63649  21058911.71149
  23231855.570 5 122084215.583 5  95130608.38247  23231867.08247
  21320469.367 6 112039820.642 6  87303777.48748  21320476.75848
  24132865.016 4 126819042.342 4  98820085.33648  24132874.71548
  22693423.961 6 119254746.493 6  92925796.43448  22693430.69948
  23729886.516 5 124701605.703 5  97169950.38846  23729894.34046
  21735751.523 6 114222143.962 6  89004294.20449  21735761.83649
 20  5 16  5 17 21.0000000  0  9G01G03G07G08G11G17G22G28G30          0.000367220
  20253263.594 7 106431616.383 7  82933729.51749  20253274.39549
  23379202.172 5 122858782.786 5  95733978.30448  23379215.42248
  21059190.625 6 110666790.753 6  86233884.95249  21059198.62149
  23232265.664 5 122086370.078 5  95132287.20447  23232276.78547
  21320912.867 6 112042150.728 6  87305593.13348  21320920.34048
  24132651.094 4 126817920.421 4  98819211.11348  24132661.12948
  22693206.172 6 119253600.436 6  92924903.40048  22693212.73448
  23729460.508 5 124699366.467 5  97168205.53147  23729468.21547
  21735662.328 6 114221675.314 6  89003929.02349  21735673.25449
 20  5 16  5 17 22.0000000  0  9G01G03G07G08G11G17G22G28G30          0.000367407
  20253452.430 7 106432609.105 7  82934503.06649  20253463.42649
  23378742.813 5 122856368.646 5  95732097.16548  23378755.67648
  21059478.125 6 110668302.330 6  86235062.80549  21059486.63749
  23232675.156 5 122088524.534 5  95133966.00147  23232686.97347
  21321356.063 6 112044481.177 6  87307409.06848  21321363.83248
  24132438.195 3 126816798.680 3  98818337.03148  24132447.55548
  22692988.711 6 119252454.825 6  92924010.71848  22692994.66448
  23729034.375 5 124697127.211 5  97166460.66746  23729042.12546
  21735573.422 6 114221207.349 6  89003564.37549  21735584.20349
 20  5 16  5 17 23.0000000  0  9G01G03G07G08G11G17G22G28G30          0.000367594
  20253641.500 7 106433602.625 7  82935277.24149  20253652.23449
  23378283.656 5 122853954.725 5  95730216.18348  23378296.50448
  21059766.242 6 110669814.625 6  86236241.21649  21059774.41449
  23233085.898 5 122090679.113 5  95135644.89547  23233097.16847
  21321799.852 6 112046812.013 6  87309225.30848  21321807.07448
  24132225.016 4 126815677.235 4  98817463.17348  24132234.35948
  22692770.008 6 119251309.771 6  92923118.46748  22692777.02048
  23728607.859 4 124694888.061 4  97164715.87047  23728616.42647
  21735484.750 6 114220740.168 6  89003200.33549  21735495.66849
 20  5 16  5 17 24.0000000  0  9G01G03G07G08G11G17G22G28G30          0.000367783
  20253830.547 7 106434597.061 7  82936052.12249  20253841.73049
  23377823.906 5 122851541.187 5  95728335.50648  23377837.37148
  21060053.688 6 110671327.790 6  86237420.30649  21060061.69949
  23233495.820 5 122092833.970 5  95137324.00547  23233507.02047
  21322243.156 6 112049143.394 6  87311041.96748  21322251.07448
  24132012.016 3 126814556.144 3  98816589.59548  24132020.64148
  22692552.359 6 119250165.367 6  92922226.72348  22692558.87148
  23728181.781 5 124692649.104 5  97162971.22646  23728189.92246
  21735395.938 6 114220273.862 6  89002836.98249  21735406.26649
 20  5 16  5 17 25.0000000  0  9G01G03G07G08G11G17G22G28G30          0.000367970
  20254020.078 7 106435592.315 7  82936827.64649  20254031.22749
  23377364.578 5 122849127.871 5  95726455.00548  23377377.86748
  21060342.070 6 110672841.723 6  86238599.99049  21060350.23049
  23233905.719 5 122094988.896 5  95139003.16847  23233917.30547
  21322687.109 6 112051475.170 6  87312858.93048  21322694.69148
  24131798.094 4 126813435.361 4  98815716.26248  24131807.65648
  22692334.820 6 119249021.513 6  92921335.40848  22692341.36748
  23727756.242 4 124690410.235 4  97161226.65646  23727763.94546
  21735306.742 6 114219808.367 6  89002474.26049  21735317.87149
 20  5 16  5 17 26.0000000  0  9G01G03G07G08G11G17G22G28G30          0.000368158
  20254209.633 7 106436588.368 7  82937603.79449  20254220.56349
  23376905.992 5 122846714.824 5  95724574.71248  23376918.62948
  21060630.578 6 110674356.416 6  86239780.26649  21060638.54349
  23234316.305 5 122097143.982 5  95140682.45347  23234327.13347
  21323131.086 6 112053807.393 6  87314676.25148  21323138.46148
  24131584.969 4 126812314.856 4  98814843.13848  24131594.02348
  22692117.125 6 119247878.233 6  92920444.54148  22692123.66848
  23727329.992 5 124688171.446 5  97159482.14646  23727337.72346
  21735218.602 6 114219343.620 6  89002112.11749  21735229.20749
 20  5 16  5 17 27.0000000  0  9G01G03G07G08G11G17G22G28G30          0.000368345
  20254399.664 7 106437584.973 7  82938380.36749  20254410.67249
  23376447.016 5 122844301.769 5  95722694.41448  23376459.73848
  21060918.656 6 110675871.623 6  86240960.94949  21060927.08249
  23234725.555 5 122099298.924 5  95142361.63347  23234737.36347
  21323574.648 6 112056139.778 6  87316493.69048  21323582.19948
  24131371.883 4 126811194.335 4  98813970.01448  24131380.97748
  22691899.617 6 119246735.233 6  92919553.89248  22691906.59048
  23726903.969 5 124685932.519 5  97157737.52746  23726911.89846
  21735130.461 6 114218879.435 6  89001750.41649  21735140.92649
 20  5 16  5 17 28.0000000  0  9G01G03G07G08G11G17G22G28G30          0.000368534
  20254589.328 7 106438582.463 7  82939157.63449  20254600.28549
  23375987.734 5 122841889.076 5  95720814.39748  23376000.52048
  21061207.094 6 110677387.680 6  86242142.28949  21061215.38349
  23235136.258 5 122101454.072 5  95144040.97847  23235147.73447
  21324018.703 6 112058472.658 6  87318311.51248  21324026.45348
  24131158.242 3 126810074.221 3  98813097.20648  24131168.19948
  22691682.117 6 119245592.861 6  92918663.73748  22691689.02348
  23726477.969 5 124683693.744 5  97155993.02846  23726486.20346
  21735042.375 6 114218416.080 6  89001389.35749  21735052.95349
 20  5 16  5 17 29.0000000  0  9G01G03G07G08G11G17G22G28G30          0.000368721
  20254779.172 7 106439580.751 7  82939935.51949  20254789.77049
  23375528.031 5 122839476.632 5  95718934.57348  23375541.41048
  21061495.641 6 110678904.466 6  86243324.20149  21061503.79349
  23235545.531 5 122103609.319 5  95145720.39447  23235557.72747
  21324462.953 6 112060805.961 6  87320129.66848  21324470.43848
  24130945.141 4 126808954.348 4  98812224.58148  24130954.65248
  22691464.977 6 119244451.021 6  92917773.98748  22691471.56348
  23726052.117 5 124681455.066 5  97154248.59746  23726059.99246
  21734954.445 6 114217953.486 6  89001028.89749  21734964.82849
 20  5 16  5 17 30.0000000  0  9G01G03G07G08G11G17G22G28G30          0.000368910
  20254969.195 7 106440579.851 7  82940714.03649  20254979.90249
  23375069.422 5 122837064.415 5  95717054.92448  23375082.32448
  21061784.508 6 110680422.027 6  86244506.71149  21061792.48449
  23235956.633 5 122105764.710 5  95147399.91947  23235967.86747
  21324906.945 6 112063139.674 6  87321948.15048  21324914.12148
  24130731.945 3 126807834.783 3  98811352.19048  24130741.80948
  22691247.758 6 119243309.762 6  92916884.69448  22691254.84448
  23725626.102 5 124679216.493 5  97152504.25847  23725634.10947
  21734866.508 6 114217491.687 6  89000669.05249  21734877.05949
 20  5 16  5 17 31.0000000  0  9G01G03G07G08G11G17G22G28G30          0.000369099
  20255159.508 7 106441579.605 7  82941493.06849  20255170.35549
  23374610.109 5 122834652.354 5  95715175.39548  23374623.51248
  21062073.672 6 110681940.199 6  86245689.70449  21062081.77749
  23236366.586 5 122107920.086 5  95149079.43247  23236377.73047
  21325351.039 6 112065473.678 6  87323766.85148  21325358.16048
  24130519.648 3 126806715.354 3  98810479.90148  24130528.40648
  22691030.500 6 119242168.899 6  92915995.71548  22691037.58648
  23725200.750 5 124676977.853 5  97150759.86647  23725207.87947
  21734778.359 6 114217030.560 6  89000309.73649  21734789.31649
 20  5 16  5 17 32.0000000  0  9G01G03G07G08G11G17G22G28G30          0.000369286
  20255350.281 7 106442580.359 7  82942272.87649  20255360.67649
  23374151.398 5 122832240.705 5  95713296.19348  23374164.50848
  21062362.688 6 110683459.325 6  86246873.43649  21062370.97749
  23236776.359 5 122110075.743 5  95150759.16047  23236788.30147
  21325795.297 6 112067808.292 6  87325586.02748  21325802.80148
  24130306.938 3 126805596.394 3  98809607.98348  24130316.21148
  22690813.305 6 119241028.777 6  92915107.31148  22690820.55948
  23724773.914 5 124674739.458 5  97149015.65446  23724782.16046
  21734691.000 6 114216570.367 6  88999951.14249  21734701.70349
 20  5 16  5 17 33.0000000  0  9G01G03G07G08G11G17G22G28G30          0.000369474
  20255540.641 7 106443581.889 7  82943053.28549  20255551.00449
  23373693.086 5 122829829.313 5  95711417.18648  23373705.33648
  21062651.891 6 110684979.182 6  86248057.74049  21062660.06349
  23237186.531 5 122112231.533 5  95152438.99347  23237198.28147
  21326239.945 6 112070143.293 6  87327405.51648  21326247.21148
  24130093.398 3 126804477.624 3  98808736.21248  24130102.83648
  22690596.695 6 119239889.183 6  92914219.31448  22690603.56348
  23724348.242 5 124672501.171 5  97147271.53946  23724356.05546
  21734603.422 6 114216110.924 6  88999593.13349  21734614.38349
 20  5 16  5 17 34.0000000  0  9G01G03G07G08G11G17G22G28G30          0.000369663
  20255731.492 7 106444584.132 7  82943834.25549  20255742.39549
  23373234.141 5 122827418.071 5  95709538.30148  23373246.79748
  21062941.430 6 110686499.708 6  86249242.56049  21062949.27349
  23237596.625 5 122114387.323 5  95154118.82547  23237608.23847
  21326684.211 6 112072478.631 6  87329225.25048  21326691.57448
  24129880.703 4 126803359.156 4  98807864.67948  24129890.55948
  22690380.023 6 119238750.062 6  92913331.68348  22690387.33648
  23723922.594 5 124670262.866 5  97145527.39747  23723930.14147
  21734516.336 6 114215652.230 6  88999235.70849  21734526.87149
 20  5 16  5 17 35.0000000  0  9G01G03G07G08G11G17G22G28G30          0.000369852
  20255922.172 7 106445587.159 7  82944615.83649  20255933.04349
  23372774.680 5 122825007.063 5  95707659.59548  23372787.66048
  21063230.594 6 110688020.973 6  86250427.96749  21063238.78549
  23238007.125 5 122116543.211 5  95155798.74047  23238018.62147
  21327128.508 6 112074814.377 6  87331045.31348  21327136.07448
  24129668.156 4 126802240.885 4  98806993.29848  24129677.12148
  22690163.367 6 119237611.446 6  92912444.45448  22690170.46148
  23723496.141 4 124668024.632 4  97143783.31547  23723504.33647
  21734429.188 6 114215194.226 6  88998878.82449  21734439.93449
 20  5 16  5 17 36.0000000  0  9G01G03G07G08G11G17G22G28G30          0.000370041
  20256113.438 7 106446590.952 7  82945398.01249  20256123.91449
  23372315.773 5 122822596.269 5  95705781.05648  23372329.27048
  21063520.008 6 110689542.959 6  86251613.92549  21063528.42649
  23238417.281 5 122118699.199 5  95157478.72947  23238428.78947
  21327573.211 6 112077150.475 6  87332865.65148  21327580.32448
  24129455.219 4 126801122.831 4  98806122.09048  24129464.28548
  22689946.633 6 119236473.358 6  92911557.63048  22689953.69948
  23723070.164 4 124665786.441 4  97142039.27847  23723077.95347
  21734341.969 6 114214736.984 6  88998522.53149  21734352.27049
 20  5 16  5 17 37.0000000  0  9G01G03G07G08G11G17G22G28G30          0.000370230
  20256304.273 7 106447595.491 7  82946180.76949  20256314.95749
  23371857.320 5 122820185.681 5  95703902.67848  23371870.59048
  21063809.930 6 110691065.632 6  86252800.42149  21063818.45749
  23238827.883 5 122120855.246 5  95159158.76647  23238839.16447
  21328018.031 6 112079486.938 6  87334686.27448  21328024.71548
  24129242.406 3 126800004.987 3  98805251.04748  24129251.55148
  22689730.203 6 119235335.763 6  92910671.19348  22689737.05548
  23722644.336 4 124663548.252 4  97140295.23747  23722652.36347
  21734255.414 6 114214280.463 6  88998166.80149  21734265.98049
 20  5 16  5 17 38.0000000  0  9G01G03G07G08G11G17G22G28G30          0.000370419
  20256495.531 7 106448600.962 7  82946964.25049  20256506.28549
  23371399.898 5 122817775.461 5  95702024.58648  23371411.52348
  21064099.938 6 110692589.205 6  86253987.62349  21064108.22749
  23239238.219 5 122123011.565 5  95160839.01747  23239249.12947
  21328462.359 6 112081823.965 6  87336507.32848  21328469.28948
  24129029.766 3 126798887.611 3  98804380.36748  24129039.26648
  22689513.734 6 119234198.835 6  92909785.27548  22689520.71548
  23722218.641 4 124661310.315 4  97138551.38746  23722225.91446
  21734168.242 6 114213824.867 6  88997811.79149  21734179.23849
 20  5 16  5 17 39.0000000  0  9G01G03G07G08G11G17G22G28G30          0.000370607
  20256687.047 7 106449607.377 7  82947748.47449  20256697.75449
  23370940.164 5 122815365.670 5  95700146.82948  23370953.15648
  21064389.813 6 110694113.666 6  86255175.51249  21064398.25849
  23239648.609 5 122125168.107 5  95162519.43447  23239659.78547
  21328907.383 6 112084161.538 6  87338328.81448  21328914.73448
  24128817.375 3 126797770.599 3  98803509.96648  24128826.60248
  22689297.563 6 119233062.617 6  92908899.91448  22689304.68048
  23721793.289 4 124659072.603 4  97136807.72246  23721800.84846
  21734081.719 6 114213370.186 6  88997457.49149  21734092.62149
 20  5 16  5 17 40.0000000  0  9G01G03G07G08G11G17G22G28G30          0.000370796
  20256878.727 7 106450614.435 7  82948533.19149  20256889.78549
  23370481.070 5 122812955.952 5  95698269.12948  23370494.50848
  21064680.148 6 110695638.730 6  86256363.87849  21064688.20749
  23240059.703 5 122127324.633 5  95164199.84147  23240070.41447
  21329352.383 6 112086499.363 6  87340150.49448  21329359.43848
  24128603.836 3 126796653.720 3  98802639.67648  24128613.84048
  22689081.820 6 119231926.781 6  92908014.85148  22689088.30148
  23721367.164 5 124656834.826 5  97135064.00247  23721374.70347
  21733995.219 6 114212916.105 6  88997103.66649  21734006.39149
 20  5 16  5 17 41.0000000  0  9G01G03G07G08G11G17G22G28G30          0.000370987
  20257070.648 7 106451622.252 7  82949318.50549  20257081.53949
  23370023.266 5 122810546.456 5  95696391.60448  23370036.00048
  21064970.406 6 110697164.539 6  86257552.81649  21064979.03149
  23240469.891 5 122129481.206 5  95165880.29247  23240480.49247
  21329797.148 6 112088837.590 6  87341972.49248  21329804.43048
  24128391.859 3 126795537.073 3  98801769.56548  24128401.32448
  22688865.594 6 119230791.452 6  92907130.18248  22688872.38748
  23720941.320 4 124654597.095 4  97133320.31846  23720948.37546
  21733908.953 6 114212462.786 6  88996750.42649  21733920.14549
 20  5 16  5 17 42.0000000  0  9G01G03G07G08G11G17G22G28G30          0.000371176
  20257262.500 7 106452630.896 7  82950104.45849  20257273.27349
  23369565.094 5 122808137.213 5  95694514.27248  23369577.35248
  21065261.133 6 110698691.079 6  86258742.32949  21065269.25449
  23240880.414 5 122131637.946 5  95167560.86947  23240890.93447
  21330242.094 6 112091176.243 6  87343794.81348  21330249.35948
  24128179.383 3 126794420.728 3  98800899.68648  24128189.27048
  22688649.219 6 119229656.688 6  92906245.95048  22688656.26648
  23720515.727 4 124652359.457 4  97131576.70646  23720522.73446
  21733823.297 6 114212010.237 6  88996397.78949  21733833.66049
 20  5 16  5 17 43.0000000  0  9G01G03G07G08G11G17G22G28G30          0.000371365
  20257454.461 7 106453640.262 7  82950890.97849  20257465.55949
  23369106.578 5 122805728.166 5  95692637.10148  23369118.60548
  21065552.164 6 110700218.319 6  86259932.38049  21065560.18449
  23241290.063 5 122133794.671 5  95169241.43647  23241301.58647
  21330687.422 6 112093515.210 6  87345617.38148  21330694.79348
  24127967.156 4 126793304.592 4  98800029.97148  24127976.78948
  22688433.438 6 119228522.419 6  92905362.09948  22688440.49248
  23720089.484 5 124650121.859 5  97129833.11946  23720097.35946
  21733737.219 6 114211558.415 6  88996045.72349  21733747.81649
 20  5 16  5 17 44.0000000  0  9G01G03G07G08G11G17G22G28G30          0.000371553
  20257646.977 7 106454650.441 7  82951678.13149  20257657.66849
  23368648.156 5 122803319.385 5  95690760.13148  23368660.77748
  21065842.289 6 110701746.355 6  86261123.06249  21065850.63749
  23241700.844 5 122135951.567 5  95170922.13347  23241711.64147
  21331132.813 6 112095854.645 6  87347440.31948  21331140.18848
  24127755.555 3 126792188.726 3  98799160.47048  24127764.32848
  22688217.867 6 119227388.713 6  92904478.69448  22688224.75048
  23719663.945 4 124647884.358 4  97128089.61547  23719671.05147
  21733651.484 6 114211107.398 6  88995694.27749  21733661.91049
 20  5 16  5 17 45.0000000  0  9G01G03G07G08G11G17G22G28G30          0.000371744
  20257838.891 7 106455661.492 7  82952465.96349  20257849.92249
  23368189.547 5 122800910.921 5  95688883.40748  23368201.92648
  21066133.367 6 110703275.167 6  86262314.34049  21066141.34049
  23242111.172 5 122138108.613 5  95172602.95247  23242121.90647
  21331577.641 6 112098194.519 6  87349263.59348  21331584.81348
  24127542.266 3 126791073.212 3  98798291.24248  24127552.15248
  22688002.695 6 119226255.592 6  92903595.73748  22688009.05948
  23719238.258 4 124645646.974 4  97126346.19647  23719245.46947
  21733565.891 6 114210657.163 6  88995343.44749  21733576.27349
 20  5 16  5 17 46.0000000  0  9G01G03G07G08G11G17G22G28G30          0.000371933
  20258031.867 7 106456673.303 7  82953254.39049  20258042.68049
  23367730.961 5 122798502.716 5  95687006.88448  23367743.98448
  21066424.586 6 110704804.724 6  86263506.20049  21066432.67249
  23242521.414 5 122140265.778 5  95174283.85447  23242532.80947
  21332023.547 6 112100534.812 6  87351087.20248  21332030.15648
  24127331.070 3 126789957.956 3  98797422.21448  24127340.10548
  22687787.047 6 119225123.010 6  92902713.20448  22687793.67248
  23718812.125 4 124643409.651 4  97124602.83346  23718819.29346
  21733480.078 6 114210207.716 6  88994993.22949  21733490.79349
 20  5 16  5 17 47.0000000  0  9G01G03G07G08G11G17G22G28G30          0.000372124
  20258224.586 7 106457685.710 7  82954043.27149  20258235.27749
  23367272.656 4 122796094.514 4  95685130.36748  23367285.44548
  21066715.570 6 110706334.832 6  86264698.49149  21066723.73849
  23242931.875 5 122142422.888 5  95175964.71147  23242943.29747
  21332468.484 6 112102875.332 6  87352910.98348  21332475.35948
  24127118.789 3 126788842.759 3  98796553.22948  24127127.57848
  22687571.391 6 119223990.785 6  92901830.95548  22687578.34448
  23718386.563 4 124641172.281 4  97122859.43446  23718394.28546
  21733394.734 6 114209758.831 6  88994643.44649  21733405.35949
 20  5 16  5 17 48.0000000  0  9G01G03G07G08G11G17G22G28G30          0.000372313
  20258417.070 7 106458698.816 7  82954832.71249  20258428.13349
  23366814.773 4 122793686.433 4  95683253.94048  23366826.98448
  21067006.891 6 110707865.588 6  86265891.28949  21067015.18449
  23243342.781 5 122144579.966 5  95177645.56147  23243353.96147
  21332914.211 6 112105216.116 6  87354734.97348  21332921.19548
  24126905.938 3 126787727.744 3  98795684.39048  24126915.49248
  22687356.188 6 119222858.969 6  92900949.02348  22687362.78948
  23717961.266 4 124638934.796 4  97121115.94046  23717968.09846
  21733309.203 6 114209310.592 6  88994294.16549  21733320.16849
 20  5 16  5 17 49.0000000  0  9G01G03G07G08G11G17G22G28G30          0.000372503
  20258610.117 7 106459712.765 7  82955622.80149  20258620.89149
  23366356.617 4 122791278.728 4  95681377.80548  23366369.33648
  21067298.031 6 110709397.135 6  86267084.69949  21067306.69549
  23243752.688 5 122146737.195 5  95179326.52147  23243763.77047
  21333359.766 6 112107557.370 6  87356559.32748  21333366.63748
  24126694.078 3 126786612.996 3  98794815.76148  24126703.35248
  22687140.813 6 119221727.772 6  92900067.57048  22687147.07448
  23717534.953 4 124636697.471 4  97119372.56646  23717542.47746
  21733224.547 6 114208863.225 6  88993945.57149  21733235.06349
 20  5 16  5 17 50.0000000  0  9G01G03G07G08G11G17G22G28G30          0.000372692
  20258803.156 7 106460727.519 7  82956413.51549  20258814.01249
  23365898.195 4 122788871.246 4  95679501.85548  23365910.96548
  21067589.781 6 110710929.462 6  86268278.72049  21067598.35249
  23244163.180 5 122148894.614 5  95181007.63047  23244174.83647
  21333805.203 6 112109899.068 6  87358384.02348  21333812.60248
  24126482.023 3 126785498.608 3  98793947.40648  24126491.54748
  22686925.477 6 119220597.117 6  92899186.54348  22686932.18448
  23717109.617 4 124634460.230 4  97117629.26347  23717116.79747
  21733139.188 6 114208416.632 6  88993597.57449  21733149.94549
 20  5 16  5 17 51.0000000  0  9G01G03G07G08G11G17G22G28G30          0.000372883
  20258996.578 7 106461742.846 7  82957204.67749  20259006.93049
  23365440.172 4 122786463.756 4  95677625.89448  23365452.80548
  21067881.594 6 110712462.313 6  86269473.15049  21067889.69549
  23244573.625 5 122151051.893 5  95182688.62347  23244585.46547
  21334250.852 6 112112240.949 6  87360208.86448  21334257.48448
  24126270.078 3 126784384.233 3  98793079.06148  24126279.08248
  22686710.469 6 119219466.830 6  92898305.79448  22686717.21948
  23716683.141 4 124632222.913 4  97115885.89646  23716690.79346
  21733054.539 6 114207970.578 6  88993250.00149  21733064.97749
 20  5 16  5 17 52.0000000  0  9G01G03G07G08G11G17G22G28G30          0.000373072
  20259189.539 7 106462758.805 7  82957996.33749  20259200.44149
  23364981.672 4 122784056.413 4  95675750.04348  23364994.86348
  21068173.453 6 110713995.729 6  86270668.02049  21068181.64849
  23244984.570 5 122153209.108 5  95184369.56147  23244995.84047
  21334696.695 6 112114583.053 6  87362033.88248  21334703.53548
  24126057.875 3 126783269.952 3  98792210.78348  24126067.15248
  22686495.125 6 119218336.881 6  92897425.31748  22686502.21548
  23716257.805 4 124629985.514 4  97114142.46246  23716265.02046
  21732969.813 6 114207525.133 6  88992902.89849  21732980.45749
 20  5 16  5 17 53.0000000  0  9G01G03G07G08G11G17G22G28G30          0.000373262
  20259383.516 7 106463775.675 7  82958788.70649  20259394.14149
  23364524.031 4 122781649.441 4  95673874.48448  23364536.78948
  21068465.125 6 110715530.032 6  86271863.58349  21068473.77049
  23245394.797 5 122155366.584 5  95186050.71447  23245406.59447
  21335142.328 6 112116925.749 6  87363859.35948  21335149.50848
  24125846.406 4 126782156.104 4  98791342.84648  24125855.38748
  22686280.711 6 119217207.597 6  92896545.36048  22686287.55548
  23715832.078 4 124627748.243 4  97112399.13046  23715839.32846
  21732885.109 6 114207080.585 6  88992556.49649  21732895.53949
 20  5 16  5 17 54.0000000  0  9G01G03G07G08G11G17G22G28G30          0.000373453
  20259576.805 7 106464793.379 7  82959581.72249  20259587.51249
  23364066.258 4 122779242.736 4  95671999.12848  23364078.60548
  21068757.352 6 110717065.132 6  86273059.76449  21068765.86349
  23245805.938 5 122157524.171 5  95187731.94347  23245816.80147
  21335588.344 6 112119268.821 6  87365685.13148  21335595.13748
  24125633.742 4 126781042.519 4  98790475.11448  24125643.18448
  22686065.570 6 119216078.919 6  92895665.86948  22686072.52748
  23715406.664 4 124625511.130 4  97110655.93546  23715413.38346
  21732800.664 6 114206636.853 6  88992210.73249  21732811.35249
 20  5 16  5 17 55.0000000  0  9G01G03G07G08G11G17G22G28G30          0.000373642
  20259770.484 7 106465811.850 7  82960375.33549  20259781.39149
  23363608.078 4 122776836.196 4  95670123.90448  23363620.71548
  21069049.719 6 110718600.939 6  86274256.49649  21069057.94949
  23246216.219 5 122159681.813 5  95189413.21747  23246227.71547
  21336033.773 6 112121612.293 6  87367511.20648  21336040.99648
  24125421.930 4 126779929.195 4  98789607.58648  24125431.30548
  22685851.156 6 119214950.724 6  92894786.75748  22685858.11348
  23714981.023 4 124623274.058 4  97108912.76646  23714987.92246
  21732716.477 6 114206193.849 6  88991865.53449  21732727.15649
 20  5 16  5 17 56.0000000  0  9G01G03G07G08G11G17G22G28G30          0.000373833
  20259964.867 7 106466830.992 7  82961169.47049  20259975.54749
  23363149.984 4 122774429.884 4  95668248.85548  23363162.61748
  21069342.141 6 110720137.381 6  86275453.72149  21069350.68849
  23246627.219 5 122161839.547 5  95191094.56947  23246638.36347
  21336480.070 6 112123956.072 6  87369337.52848  21336486.80148
  24125210.273 4 126778816.009 4  98788740.16948  24125219.57448
  22685636.438 6 119213822.989 6  92893907.99948  22685643.51248
  23714555.070 4 124621036.979 4  97107169.58546  23714561.93846
  21732632.258 6 114205751.514 6  88991520.85449  21732642.45749
 20  5 16  5 17 57.0000000  0  9G01G03G07G08G11G17G22G28G30          0.000374023
  20260158.570 7 106467850.916 7  82961964.21549  20260169.38749
  23362692.094 5 122772023.751 5  95666373.94948  23362704.83248
  21069634.633 6 110721674.537 6  86276651.50349  21069642.80949
  23247037.055 5 122163997.282 5  95192775.92247  23247048.97747
  21336926.289 6 112126300.223 6  87371164.14048  21336933.19548
  24124998.453 4 126777703.077 4  98787872.95448  24125007.88748
  22685422.445 6 119212695.749 6  92893029.63948  22685428.63748
  23714129.227 5 124618799.939 5  97105426.43846  23714136.43046
  21732548.047 6 114205309.898 6  88991176.73749  21732558.37949
 20  5 16  5 17 58.0000000  0  9G01G03G07G08G11G17G22G28G30          0.000374214
  20260353.063 7 106468871.652 7  82962759.59449  20260364.10549
  23362234.430 4 122769617.917 4  95664499.28248  23362247.36748
  21069927.125 6 110723212.483 6  86277849.89649  21069935.49649
  23247447.563 5 122166155.196 5  95194457.40947  23247459.69547
  21337372.516 6 112128644.815 6  87372991.09648  21337379.35948
  24124786.945 4 126776590.453 4  98787005.97948  24124795.93848
  22685208.039 6 119211569.125 6  92892151.75348  22685214.58648
  23713703.414 5 124616563.002 5  97103683.37746  23713710.53546
  21732464.711 6 114204869.117 6  88990833.27149  21732475.24249
 20  5 16  5 17 59.0000000  0  9G01G03G07G08G11G17G22G28G30          0.000374405
  20260547.305 7 106469893.105 7  82963555.53249  20260558.34449
  23361776.813 4 122767212.231 4  95662624.72348  23361789.18448
  21070220.031 6 110724751.092 6  86279048.81249  21070228.55949
  23247858.438 5 122168313.140 5  95196138.92647  23247870.24647
  21337818.563 6 112130989.747 6  87374818.31048  21337825.64148
  24124574.977 3 126775478.000 3  98786139.13248  24124584.42248
  22684993.383 6 119210442.943 6  92891274.20748  22684999.92648
  23713277.695 5 124614326.067 5  97101940.31346  23713285.33646
  21732380.703 6 114204429.012 6  88990490.33649  21732391.30149
 20  5 16  5 18  0.0000000  0  9G01G03G07G08G11G17G22G28G30          0.000374596
  20260741.914 7 106470915.547 7  82964352.23649  20260752.62549
  23361318.766 5 122764806.980 5  95660750.50548  23361331.41048
  21070513.289 6 110726290.685 6  86280248.48749  21070521.34049
  23248269.766 5 122170471.385 5  95197820.68547  23248281.02347
  21338265.070 6 112133335.306 6  87376646.01748  21338272.13748
  24124363.203 3 126774366.040 3  98785272.67348  24124372.52748
  22684779.422 6 119209317.504 6  92890397.23948  22684785.60548
  23712851.773 4 124612089.424 4  97100197.46746  23712859.65646
  21732297.133 6 114203989.888 6  88990148.15949  21732307.18849
 20  5 16  5 18  1.0000000  0  9G01G03G07G08G11G17G22G28G30          0.000374786
  20260936.398 7 106471938.734 7  82965149.52949  20260947.51649
  23360861.336 5 122762401.950 5  95658876.46748  23360873.91848
  21070806.297 6 110727830.926 6  86281448.66249  21070814.53549
  23248679.938 5 122172629.699 5  95199502.48647  23248691.46947
  21338711.711 6 112135681.194 6  87378473.98548  21338718.18048
  24124151.641 3 126773254.286 3  98784406.36348  24124160.91848
  22684565.422 6 119208192.544 6  92889520.65048  22684571.77048
  23712426.438 4 124609852.813 4  97098454.65646  23712433.90646
  21732213.461 6 114203551.459 6  88989806.52349  21732224.09049
 20  5 16  5 18  2.0000000  0  9G01G03G07G08G11G17G22G28G30          0.000374977
  20261131.547 7 106472962.771 7  82965947.47949  20261142.24649
  23360403.602 5 122759997.211 5  95657002.65148  23360416.34448
  21071099.563 6 110729371.972 6  86282649.47049  21071107.60949
  23249091.273 5 122174788.144 5  95201184.39547  23249102.44547
  21339157.648 6 112138027.535 6  87380302.30348  21339164.87148
  24123940.906 3 126772142.847 3  98783540.31048  24123949.67248
  22684350.906 6 119207068.181 6  92888644.52048  22684357.48448
  23712001.117 4 124607616.322 4  97096711.94146  23712007.79746
  21732130.055 6 114203113.854 6  88989465.53149  21732140.86349
 20  5 16  5 18  3.0000000  0  9G01G03G07G08G11G17G22G28G30          0.000375168
  20261326.555 7 106473987.554 7  82966746.01049  20261337.03549
  23359945.813 5 122757592.690 5  95655129.00048  23359958.82848
  21071392.758 6 110730913.739 6  86283850.84449  21071400.80149
  23249501.398 5 122176946.724 5  95202866.39947  23249513.25447
  21339604.578 6 112140374.273 6  87382130.92848  21339611.48848
  24123728.086 3 126771031.611 3  98782674.41448  24123738.19148
  22684137.289 6 119205944.357 6  92887768.81648  22684143.83648
  23711575.367 4 124605379.872 4  97094969.25746  23711582.30546
  21732047.297 6 114202676.990 6  88989125.11649  21732057.92649
 20  5 16  5 18  4.0000000  0  9G01G03G07G08G11G17G22G28G30          0.000375359
  20261521.789 7 106475013.117 7  82967545.14949  20261532.40649
  23359488.461 5 122755188.405 5  95653255.53248  23359501.12148
  21071686.484 6 110732456.216 6  86285052.77749  21071694.65249
  23249911.977 5 122179105.354 5  95204548.44547  23249923.91847
  21340051.055 6 112142721.374 6  87383959.84148  21340058.14148
  24123518.477 4 126769920.628 4  98781808.71648  24123526.69948
  22683923.500 6 119204821.021 6  92886893.48948  22683930.54748
  23711149.859 4 124603143.493 4  97093226.62046  23711157.05946
  21731964.242 6 114202240.875 6  88988785.29149  21731974.69949
 20  5 16  5 18  5.0000000  0  9G01G03G07G08G11G17G22G28G30          0.000375549
  20261716.875 7 106476039.472 7  82968344.90349  20261727.68449
  23359030.883 5 122752784.378 5  95651382.26248  23359043.47748
  21071980.148 6 110733999.459 6  86286255.30649  21071988.19149
  23250323.070 5 122181264.120 5  95206230.59947  23250334.56647
  21340497.703 6 112145068.907 6  87385789.08348  21340504.56348
  24123306.578 4 126768809.956 4  98780943.25848  24123315.18048
  22683709.828 6 119203698.258 6  92886018.60748  22683716.46148
  23710724.602 4 124600907.215 4  97091484.06546  23710731.27746
  21731881.484 6 114201805.555 6  88988446.07749  21731892.03549
 20  5 16  5 18  6.0000000  0  9G01G03G07G08G11G17G22G28G30          0.000375740
  20261912.156 7 106477066.548 7  82969145.22949  20261923.23449
  23358573.102 4 122750380.490 4  95649509.10948  23358586.20348
  21072274.188 6 110735543.365 6  86287458.34949  21072282.52049
  23250733.828 5 122183422.887 5  95207912.75547  23250745.57847
  21340944.516 6 112147416.740 6  87387618.56448  21340951.37548
  24123095.594 4 126767699.433 4  98780077.91948  24123103.87148
  22683496.023 6 119202575.942 6  92885144.07748  22683503.24648
  23710298.820 4 124598670.925 4  97089741.50046  23710305.86346
  21731798.656 6 114201370.914 6  88988107.39549  21731809.14549
 20  5 16  5 18  7.0000000  0  9G01G03G07G08G11G17G22G28G30          0.000375933
  20262107.984 7 106478094.385 7  82969946.14349  20262118.48449
  23358115.883 5 122747976.868 5  95647636.16248  23358128.48848
  21072567.820 6 110737087.988 6  86288661.95149  21072576.10549
  23251144.984 5 122185581.709 5  95209594.95647  23251156.26247
  21341391.500 6 112149765.003 6  87389448.37948  21341398.25448
  24122883.836 4 126766589.180 4  98779212.78648  24122892.66848
  22683282.953 6 119201454.164 6  92884269.96448  22683289.76648
  23709873.492 4 124596434.684 4  97087998.97946  23709880.68446
  21731716.320 6 114200937.025 6  88987769.29849  21731726.26649
 20  5 16  5 18  8.0000000  0  9G01G03G07G08G11G17G22G28G30          0.000376123
  20262304.039 7 106479123.063 7  82970747.70549  20262314.55549
  23357658.391 4 122745573.525 4  95645763.43248  23357671.46548
  21072862.016 6 110738633.421 6  86289866.18649  21072870.03949
  23251555.805 5 122187740.760 5  95211277.33447  23251567.00047
  21341838.430 6 112152113.686 6  87391278.52348  21341845.21148
  24122672.531 4 126765479.252 4  98778347.90948  24122681.51248
  22683069.586 6 119200332.979 6  92883396.31748  22683076.34848
  23709447.422 4 124594198.572 4  97086256.55546  23709454.92246
  21731633.625 6 114200503.935 6  88987431.82249  21731644.33649
 20  5 16  5 18  9.0000000  0  9G01G03G07G08G11G17G22G28G30          0.000376314
  20262499.633 7 106480152.458 7  82971549.83449  20262510.53949
  23357201.727 4 122743170.355 4  95643890.83348  23357214.11348
  21073156.234 6 110740179.496 6  86291070.91349  21073164.19149
  23251966.563 5 122189899.807 5  95212959.70847  23251977.86347
  21342285.344 6 112154462.709 6  87393108.92848  21342292.23448
  24122461.258 4 126764369.491 4  98777483.15748  24122470.24248
  22682856.609 6 119199212.251 6  92882523.02548  22682863.28948
  23709022.234 5 124591962.498 5  97084514.16047  23709029.17647
  21731551.367 6 114200071.562 6  88987094.91449  21731561.97749
 20  5 16  5 18 10.0000000  0  9G01G03G07G08G11G17G22G28G30          0.000376507
  20262695.719 7 106481182.709 7  82972352.62649  20262706.36749
  23356743.805 4 122740767.485 4  95642018.47048  23356757.12548
  21073450.813 6 110741726.405 6  86292276.29549  21073458.74249
  23252377.391 5 122192058.971 5  95214642.17047  23252389.04747
  21342732.336 6 112156812.194 6  87394939.69648  21342739.26648
  24122250.805 4 126763260.061 4  98776618.65748  24122259.42248
  22682643.180 6 119198092.134 6  92881650.20848  22682650.00048
  23708596.336 5 124589726.518 5  97082771.84146  23708603.36746
  21731469.594 6 114199640.008 6  88986758.63249  21731479.77349
 20  5 16  5 18 11.0000000  0  9G01G03G07G08G11G17G22G28G30          0.000376698
  20262891.938 7 106482213.689 7  82973155.98449  20262902.54749
  23356287.141 4 122738364.808 4  95640146.25648  23356299.77348
  21073745.031 6 110743273.978 6  86293482.19949  21073752.78549
  23252788.906 5 122194218.237 5  95216324.71547  23252800.07447
  21343179.867 6 112159162.030 6  87396770.73448  21343186.48048
  24122039.656 4 126762150.827 4  98775754.31648  24122047.83648
  22682429.406 6 119196972.483 6  92880777.74948  22682436.57048
  23708171.156 5 124587490.615 5  97081029.58447  23708178.17647
  21731387.445 6 114199209.158 6  88986422.90449  21731397.67249
 20  5 16  5 18 12.0000000  0  9G01G03G07G08G11G17G22G28G30          0.000376890
  20263088.227 7 106483245.400 7  82973959.91649  20263099.25849
  23355829.992 5 122735962.341 5  95638274.20348  23355842.77048
  21074039.930 6 110744822.266 6  86294688.65549  21074047.48449
  23253199.430 5 122196377.592 5  95218007.32347  23253210.60947
  21343626.797 6 112161512.261 6  87398602.08448  21343633.59848
  24121828.156 4 126761041.874 4  98774890.19748  24121837.10548
  22682217.000 6 119195853.354 6  92879905.70448  22682223.82848
  23707745.250 4 124585254.702 4  97079287.32447  23707752.81647
  21731305.773 6 114198779.055 6  88986087.75949  21731315.56649
 20  5 16  5 18 13.0000000  0  9G01G03G07G08G11G17G22G28G30          0.000377081
  20263284.836 7 106484277.938 7  82974764.48949  20263295.54749
  23355372.695 5 122733560.157 5  95636402.37548  23355385.52748
  21074334.719 6 110746371.327 6  86295895.71449  21074342.68849
  23253610.469 5 122198537.038 5  95219690.00247  23253621.82447
  21344073.961 6 112163862.864 6  87400433.72748  21344080.67648
  24121617.102 4 126759933.154 4  98774026.26448  24121626.27048
  22682004.039 6 119194734.777 6  92879034.08448  22682010.96148
  23707319.758 4 124583018.896 4  97077545.13546  23707327.27046
  21731223.844 6 114198349.709 6  88985753.20149  21731234.43049
 20  5 16  5 18 14.0000000  0  9G01G03G07G08G11G17G22G28G30          0.000377274
  20263481.523 7 106485311.207 7  82975569.63649  20263492.04749
  23354915.625 5 122731158.167 5  95634530.69848  23354928.26248
  21074629.578 6 110747921.068 6  86297103.30249  21074637.38749
  23254021.313 5 122200696.550 5  95221372.73647  23254032.79347
  21344521.406 6 112166213.848 6  87402265.65848  21344528.35248
  24121406.820 4 126758824.676 4  98773162.52248  24121415.00448
  22681791.289 6 119193616.717 6  92878162.87148  22681797.93448
  23706894.406 4 124580783.124 4  97075802.97946  23706902.23846
  21731142.500 6 114197921.125 6  88985419.23949  21731152.41449
 20  5 16  5 18 15.0000000  0  9G01G03G07G08G11G17G22G28G30          0.000377464
  20263678.281 7 106486345.271 7  82976375.40049  20263688.81649
  23354458.383 5 122728756.444 5  95632659.23048  23354471.36748
  21074924.789 6 110749471.583 6  86298311.49349  21074932.58649
  23254432.344 5 122202856.167 5  95223055.55747  23254443.44947
  21344969.078 6 112168565.220 6  87404097.89648  21344975.70348
  24121195.586 4 126757716.468 4  98772298.98348  24121204.13348
  22681578.539 6 119192499.215 6  92877292.08848  22681585.28148
  23706469.023 5 124578547.423 5  97074060.86447  23706476.56347
  21731060.484 6 114197493.301 6  88985085.87449  21731071.16449
 20  5 16  5 18 16.0000000  0  9G01G03G07G08G11G17G22G28G30          0.000377657
  20263874.984 7 106487380.104 7  82977181.76849  20263885.69549
  23354001.711 5 122726354.897 5  95630787.90048  23354014.41448
  21075219.680 6 110751022.783 6  86299520.22149  21075227.67649
  23254843.289 5 122205015.867 5  95224738.44347  23254854.86347
  21345416.609 6 112170916.992 6  87405930.44448  21345423.64148
  24120984.438 4 126756608.464 4  98771435.60448  24120993.28548
  22681365.789 6 119191382.227 6  92876421.71548  22681372.77748
  23706043.188 5 124576311.793 5  97072318.81647  23706050.69947
  21730979.180 6 114197066.185 6  88984753.05449  21730989.82449
 20  5 16  5 18 17.0000000  0  9G01G03G07G08G11G17G22G28G30          0.000377850
  20264072.227 7 106488415.630 7  82977988.66549  20264082.78549
  23353544.602 5 122723953.558 5  95628916.72948  23353557.50848
  21075514.938 6 110752574.648 6  86300729.46349  21075522.75049
  23255254.195 5 122207175.606 5  95226421.35747  23255265.30147
  21345864.148 6 112173269.070 6  87407763.23448  21345870.96148
  24120773.688 4 126755500.657 4  98770572.37948  24120782.34048
  22681153.766 6 119190265.679 6  92875551.67248  22681160.69148
  23705618.141 5 124574076.133 5  97070576.75446  23705625.43046
  21730898.672 6 114196639.769 6  88984420.78449  21730908.69549
 20  5 16  5 18 18.0000000  0  9G01G03G07G08G11G17G22G28G30          0.000378042
  20264269.414 7 106489452.027 7  82978796.24849  20264279.90649
  23353087.727 5 122721552.500 5  95627045.78048  23353100.78948
  21075810.352 6 110754127.331 6  86301939.34649  21075818.34449
  23255664.844 5 122209335.521 5  95228104.40447  23255676.22747
  21346312.063 6 112175621.641 6  87409596.40248  21346318.88748
  24120562.766 4 126754393.218 4  98769709.45048  24120571.86748
  22680941.477 6 119189149.771 6  92874682.13348  22680947.86348
  23705192.961 5 124571840.654 5  97068834.82546  23705200.37546
  21730817.195 6 114196214.215 6  88984089.17849  21730827.50449
 20  5 16  5 18 19.0000000  0  9G01G03G07G08G11G17G22G28G30          0.000378233
  20264466.664 7 106490489.252 7  82979604.47949  20264477.32049
  23352630.844 5 122719151.771 5  95625175.07948  23352643.87148
  21076106.219 6 110755680.789 6  86303149.83149  21076114.33249
  23256075.938 5 122211495.573 5  95229787.56347  23256087.42647
  21346759.375 6 112177974.644 6  87411429.91348  21346766.14548
  24120352.711 4 126753286.022 4  98768846.69848  24120361.17248
  22680728.945 6 119188034.417 6  92873813.02848  22680735.62948
  23704766.992 5 124569605.259 5  97067092.95646  23704774.43446
  21730736.797 6 114195789.453 6  88983758.19749  21730746.97349
 20  5 16  5 18 20.0000000  0  9G01G03G07G08G11G17G22G28G30          0.000378426
  20264664.211 7 106491527.185 7  82980413.25449  20264674.83249
  23352173.883 5 122716751.185 5  95623304.49748  23352186.68048
  21076401.867 6 110757234.911 6  86304360.83249  21076409.44549
  23256487.883 5 122213655.629 5  95231470.72047  23256498.57447
  21347207.211 6 112180327.959 6  87413263.66348  21347214.54348
  24120141.453 4 126752179.093 4  98767984.15048  24120150.36748
  22680516.922 6 119186919.530 6  92872944.28948  22680523.82848
  23704341.664 5 124567369.890 5  97065351.12046  23704349.16446
  21730656.039 6 114195365.387 6  88983427.75549  21730666.30949
 20  5 16  5 18 21.0000000  0  9G01G03G07G08G11G17G22G28G30          0.000378618
  20264862.031 7 106492565.906 7  82981222.64749  20264872.69949
  23351716.891 4 122714350.839 4  95621434.10048  23351729.96548
  21076697.781 6 110758789.792 6  86305572.42849  21076705.77749
  23256898.477 5 122215815.799 5  95233153.96447  23256909.78947
  21347655.219 6 112182681.675 6  87415097.72648  21347662.41448
  24119930.945 4 126751072.329 4  98767121.74048  24119939.99648
  22680305.031 6 119185805.186 6  92872075.97048  22680311.66848
  23703917.055 5 124565134.571 5  97063609.31446  23703924.25846
  21730575.266 6 114194942.062 6  88983097.89049  21730585.39849
 20  5 16  5 18 22.0000000  0  9G01G03G07G08G11G17G22G28G30          0.000378811
  20265059.672 7 106493605.283 7  82982032.55549  20265070.64549
  23351260.211 5 122711950.603 5  95619563.78648  23351273.12548
  21076993.641 6 110760345.247 6  86306784.46449  21077001.59849
  23257309.445 5 122217975.956 5  95234837.20247  23257320.48047
  21348103.492 6 112185035.686 6  87416932.02048  21348109.85548
  24119720.820 4 126749965.759 4  98766259.47948  24119729.39548
  22680093.094 6 119184691.260 6  92871207.97448  22680099.33248
  23703491.461 5 124562899.272 5  97061867.52746  23703498.60946
  21730495.039 6 114194519.409 6  88982768.54349  21730505.43049
 20  5 16  5 18 23.0000000  0  9G01G03G07G08G11G17G22G28G30          0.000379004
  20265257.469 7 106494645.495 7  82982843.10949  20265267.93049
  23350803.906 5 122709550.710 5  95617693.74948  23350816.53548
  21077289.344 6 110761901.537 6  86307997.15549  21077297.89849
  23257720.984 5 122220136.251 5  95236520.54947  23257732.29347
  21348551.398 6 112187390.147 6  87418766.67148  21348558.32848
  24119510.617 3 126748859.492 3  98765397.44748  24119519.31348
  22679880.938 6 119183577.933 6  92870340.44848  22679887.84448
  23703066.156 5 124560664.004 5  97060125.74847  23703073.82847
  21730414.680 6 114194097.546 6  88982439.81949  21730424.78549
 20  5 16  5 18 24.0000000  0  9G01G03G07G08G11G17G22G28G30          0.000379196
  20265455.852 7 106495686.460 7  82983654.24649  20265466.50849
  23350347.492 5 122707151.009 5  95615823.85648  23350359.69948
  21077586.102 6 110763458.519 6  86309210.39149  21077593.98049
  23258132.266 5 122222296.678 5  95238203.99747  23258143.19147
  21348999.516 6 112189744.976 6  87420601.60448  21349006.53548
  24119299.508 4 126747753.462 4  98764535.61248  24119308.25848
  22679669.320 6 119182465.114 6  92869473.32148  22679676.04348
  23702640.352 5 124558428.868 5  97058384.07247  23702647.78147
  21730334.539 6 114193676.449 6  88982111.69149  21730344.84049
 20  5 16  5 18 25.0000000  0  9G01G03G07G08G11G17G22G28G30          0.000379389
  20265654.117 7 106496728.268 7  82984466.04749  20265664.71149
  23349890.484 5 122704751.586 5  95613954.17448  23349903.30548
  21077882.570 6 110765016.284 6  86310424.23749  21077890.34449
  23258543.023 5 122224457.195 5  95239887.51847  23258554.18047
  21349447.367 6 112192100.258 6  87422436.88848  21349454.73848
  24119088.750 4 126746647.697 4  98763673.98048  24119098.28148
  22679457.547 6 119181352.875 6  92868606.64148  22679464.52048
  23702215.211 5 124556193.797 5  97056642.46147  23702222.93847
  21730254.172 6 114193256.155 6  88981784.18849  21730264.72349
 20  5 16  5 18 26.0000000  0  9G01G03G07G08G11G17G22G28G30          0.000379581
  20265852.430 7 106497770.812 7  82985278.42049  20265863.14149
  23349433.805 5 122702352.378 5  95612084.66548  23349446.79348
  21078179.070 6 110766574.763 6  86311638.63449  21078187.18049
  23258954.148 5 122226617.818 5  95241571.12147  23258965.28547
  21349895.648 6 112194455.890 6  87424272.44148  21349902.87148
  24118879.055 5 126745542.201 5  98762812.55648  24118887.78548
  22679246.195 6 119180241.140 6  92867740.35748  22679252.77048
  23701789.789 5 124553958.789 5  97054900.90446  23701797.25846
  21730174.633 6 114192836.565 6  88981457.23349  21730185.19149
 20  5 16  5 18 27.0000000  0  9G01G03G07G08G11G17G22G28G30          0.000379774
  20266050.844 7 106498814.145 7  82986091.41149  20266061.87149
  23348978.188 5 122699953.420 5  95610215.34748  23348989.72348
  21078475.898 6 110768133.951 6  86312853.58349  21078483.80549
  23259365.578 5 122228778.521 5  95243254.78647  23259376.20347
  21350344.211 6 112196811.933 6  87426108.31448  21350351.50448
  24118668.555 4 126744436.995 4  98761951.35648  24118677.25048
  22679034.453 6 119179129.926 6  92866874.47848  22679041.20748
  23701364.688 5 124551723.836 5  97053159.37946  23701371.49646
  21730095.008 6 114192417.749 6  88981130.88649  21730105.06349
 20  5 16  5 18 28.0000000  0  9G01G03G07G08G11G17G22G28G30          0.000379967
  20266249.508 7 106499858.187 7  82986904.94749  20266260.52049
  23348520.789 5 122697554.630 5  95608346.15448  23348533.39148
  21078772.547 6 110769693.817 6  86314069.06349  21078780.55149
  23259777.219 5 122230939.241 5  95244938.46447  23259787.64547
  21350792.602 6 112199168.287 6  87427944.43348  21350799.61748
  24118458.164 4 126743331.872 4  98761090.22648  24118467.22748
  22678823.391 6 119178019.177 6  92866008.95748  22678829.94148
  23700939.336 5 124549488.884 5  97051417.85546  23700946.21546
  21730015.438 6 114191999.619 6  88980805.07049  21730025.45349
 20  5 16  5 18 29.0000000  0  9G01G03G07G08G11G17G22G28G30          0.000380159
  20266448.117 7 106500902.936 7  82987719.03449  20266459.24249
  23348064.789 5 122695156.036 5  95606477.12348  23348077.02048
  21079069.914 6 110771254.368 6  86315285.07649  21079077.59449
  23260188.289 5 122233100.020 5  95246622.18847  23260198.93447
  21351241.008 6 112201524.971 6  87429780.80648  21351248.05948
  24118247.578 4 126742227.034 4  98760229.30648  24118257.00848
  22678611.734 6 119176908.912 6  92865143.81848  22678618.35548
  23700513.602 4 124547253.957 4  97049676.37447  23700521.43047
  21729936.195 6 114191582.179 6  88980479.79449  21729946.10549
 20  5 16  5 18 30.0000000  0  9G01G03G07G08G11G17G22G28G30          0.000380354
  20266647.078 7 106501948.513 7  82988533.77049  20266657.77349
  23347608.195 5 122692757.668 5  95604608.26748  23347620.53148
  21079366.609 6 110772815.680 6  86316501.68049  21079374.52349
  23260598.734 5 122235260.928 5  95248306.00447  23260609.78147
  21351689.188 6 112203882.094 6  87431617.52848  21351696.72348
  24118037.805 4 126741122.487 4  98759368.61648  24118046.63348
  22678400.281 6 119175799.221 6  92864279.12548  22678407.37948
  23700089.078 5 124545019.143 5  97047934.97546  23700095.96946
  21729856.938 6 114191165.539 6  88980155.13449  21729867.11749
 20  5 16  5 18 31.0000000  0  9G01G03G07G08G11G17G22G28G30          0.000380547
  20266846.570 7 106502994.917 7  82989349.15349  20266857.53549
  23347151.422 5 122690359.622 5  95602739.66448  23347164.11748
  21079663.664 6 110774377.765 6  86317718.89349  21079672.27349
  23261009.953 5 122237421.961 5  95249989.92447  23261021.50447
  21352138.086 6 112206239.654 6  87433454.58648  21352145.02048
  24117827.688 5 126740018.196 5  98758508.12848  24117836.55548
  22678189.227 6 119174690.096 6  92863414.86648  22678196.16048
  23699663.469 5 124542784.447 5  97046193.65346  23699670.43046
  21729777.672 6 114190749.709 6  88979831.10949  21729787.85549
 20  5 16  5 18 32.0000000  0  9G01G03G07G08G11G17G22G28G30          0.000380739
  20267045.750 7 106504041.938 7  82990165.01349  20267056.58249
  23346695.828 5 122687961.658 5  95600871.12048  23346708.23848
  21079961.023 6 110775940.433 6  86318936.55549  21079969.28149
  23261420.797 5 122239582.924 5  95251673.79347  23261432.39847
  21352586.594 6 112208597.455 6  87435291.83648  21352593.66048
  24117617.242 4 126738914.035 4  98757647.74548  24117626.28948
  22677978.609 6 119173581.358 6  92862550.91848  22677985.07048
  23699238.328 5 124540549.637 5  97044452.23547  23699245.52047
  21729698.656 6 114190334.484 6  88979507.55849  21729708.54349
 20  5 16  5 18 33.0000000  0  9G01G03G07G08G11G17G22G28G30          0.000380934
  20267245.195 7 106505089.668 7  82990981.42549  20267256.02349
  23346239.703 5 122685563.877 5  95599002.72248  23346252.19148
  21080258.945 6 110777503.748 6  86320154.72249  21080266.98049
  23261832.680 5 122241743.975 5  95253357.72947  23261844.27747
  21353035.508 6 112210955.555 6  87437129.31348  21353042.27048
  24117407.313 4 126737810.024 4  98756787.48048  24117416.52348
  22677767.742 6 119172473.088 6  92861687.33948  22677774.32848
  23698812.602 5 124538314.841 5  97042710.83646  23698820.54346
  21729619.367 6 114189919.932 6  88979184.52749  21729629.67649
 20  5 16  5 18 34.0000000  0  9G01G03G07G08G11G17G22G28G30          0.000381126
  20267444.641 7 106506138.099 7  82991798.38149  20267455.62149
  23345783.133 5 122683166.242 5  95597134.43648  23345795.01248
  21080556.320 6 110779067.756 6  86321373.42649  21080564.23049
  23262243.844 5 122243905.033 5  95255041.67047  23262254.84447
  21353484.508 6 112213314.004 6  87438967.06348  21353491.50448
  24117197.578 4 126736706.229 4  98755927.38748  24117206.23448
  22677556.883 6 119171365.304 6  92860824.12948  22677563.05548
  23698387.719 5 124536080.060 5  97040969.44746  23698394.93846
  21729541.063 6 114189506.092 6  88978862.05749  21729551.36749
 20  5 16  5 18 35.0000000  0  9G01G03G07G08G11G17G22G28G30          0.000381319
  20267644.141 7 106507187.317 7  82992615.95449  20267654.92649
  23345326.602 5 122680768.874 5  95595266.36048  23345338.95748
  21080853.852 6 110780632.502 6  86322592.71249  21080862.26649
  23262655.320 5 122246066.174 5  95256725.68947  23262666.44147
  21353933.195 6 112215672.848 6  87440805.12648  21353940.12548
  24116987.523 5 126735602.672 5  98755067.47348  24116996.57848
  22677346.023 6 119170258.026 6  92859961.31548  22677352.73848
  23697962.148 5 124533845.342 5  97039228.10746  23697969.71146
  21729462.070 6 114189093.020 6  88978540.18149  21729472.48049
 20  5 16  5 18 36.0000000  0  9G01G03G07G08G11G17G22G28G30          0.000381514
  20267844.016 7 106508237.290 7  82993434.11649  20267854.82449
  23344869.867 5 122678371.723 5  95593398.45448  23344882.78548
  21081152.172 6 110782197.933 6  86323812.52549  21081160.16049
  23263066.070 5 122248227.368 5  95258409.73447  23263077.53147
  21354382.359 6 112218032.050 6  87442643.45948  21354388.94548
  24116777.320 5 126734499.325 5  98754207.72348  24116786.09448
  22677135.656 6 119169151.261 6  92859098.89848  22677141.82048
  23697537.680 5 124531610.650 5  97037486.78947  23697544.66447
  21729383.875 6 114188680.671 6  88978218.87149  21729394.02349
 20  5 16  5 18 37.0000000  0  9G01G03G07G08G11G17G22G28G30          0.000381706
  20268043.984 7 106509287.992 7  82994252.84549  20268054.87949
  23344413.984 5 122675974.766 5  95591530.69748  23344426.66448
  21081449.898 6 110783764.050 6  86325032.87749  21081458.16849
  23263477.758 5 122250388.646 5  95260093.84947  23263488.71147
  21354831.125 6 112220391.615 6  87444482.08148  21354838.32448
  24116567.391 5 126733396.224 5  98753348.16948  24116576.50048
  22676924.859 6 119168044.981 6  92858236.86848  22676931.43448
  23697112.641 5 124529376.021 5  97035745.52146  23697119.44546
  21729305.422 6 114188269.030 6  88977898.11349  21729315.69949
 20  5 16  5 18 38.0000000  0  9G01G03G07G08G11G17G22G28G30          0.000381901
  20268244.070 7 106510339.418 7  82995072.14049  20268254.51249
  23343958.438 5 122673577.971 5  95589663.06548  23343970.43048
  21081748.156 6 110785330.845 6  86326253.74949  21081756.31349
  23263888.516 5 122252549.998 5  95261778.00947  23263899.73447
  21355280.547 6 112222751.496 6  87446320.95048  21355287.14848
  24116357.563 4 126732293.293 4  98752488.73948  24116366.36348
  22676714.891 6 119166939.188 6  92857375.21248  22676721.23448
  23696686.695 5 124527141.371 5  97034004.23947  23696694.14547
  21729227.445 6 114187858.116 6  88977577.91949  21729237.77049
 20  5 16  5 18 39.0000000  0  9G01G03G07G08G11G17G22G28G30          0.000382093
  20268444.266 7 106511391.491 7  82995891.93549  20268454.93449
  23343502.469 5 122671181.289 5  95587795.52348  23343514.52048
  21082046.438 6 110786898.243 6  86327475.09949  21082054.27349
  23264300.445 5 122254711.254 5  95263462.09747  23264311.37147
  21355729.586 6 112225111.644 6  87448160.02648  21355736.48048
  24116147.539 4 126731190.517 4  98751629.43348  24116156.42248
  22676504.391 6 119165833.775 6  92856513.84648  22676510.77048
  23696261.641 5 124524906.676 5  97032262.91846  23696269.05546
  21729148.953 6 114187447.781 6  88977258.17649  21729159.55549
 20  5 16  5 18 40.0000000  0  9G01G03G07G08G11G17G22G28G30          0.000382288
  20268644.500 7 106512444.376 7  82996712.36949  20268655.69149
  23343046.156 5 122668784.912 5  95585928.21748  23343058.60248
  21082344.695 6 110788466.409 6  86328697.04349  21082352.89849
  23264711.906 5 122256872.653 5  95265146.30247  23264722.41447
  21356178.531 6 112227472.216 6  87449999.43848  21356185.62148
  24115938.828 5 126730087.972 5  98750770.30648  24115946.78148
  22676294.039 6 119164728.972 6  92855652.96048  22676300.71148
  23695836.453 5 124522672.088 5  97030521.67946  23695843.64146
  21729071.531 6 114187038.256 6  88976939.06349  21729081.35949
 20  5 16  5 18 41.0000000  0  9G01G03G07G08G11G17G22G28G30          0.000382481
  20268845.070 7 106513497.963 7  82997533.34149  20268855.75049
  23342590.391 5 122666388.670 5  95584061.01548  23342602.77748
  21082643.508 6 110790035.223 6  86329919.49549  21082651.46949
  23265122.867 5 122259034.065 5  95266830.52047  23265133.85547
  21356627.977 6 112229833.093 6  87451839.08148  21356634.81648
  24115728.023 4 126728985.639 4  98749911.34448  24115737.01248
  22676083.664 6 119163624.595 6  92854792.41148  22676090.18848
  23695411.563 5 124520437.467 5  97028780.41746  23695418.39146
  21728993.344 6 114186629.413 6  88976620.48649  21729003.75049
 20  5 16  5 18 42.0000000  0  9G01G03G07G08G11G17G22G28G30          0.000382675
  20269045.539 7 106514552.368 7  82998354.96049  20269056.47749
  23342134.813 5 122663992.696 5  95582194.02448  23342146.41448
  21082942.242 6 110791604.812 6  86331142.55149  21082950.30149
  23265534.469 5 122261195.630 5  95268514.85947  23265545.05147
  21357077.727 6 112232194.434 6  87453679.08348  21357084.56648
  24115518.398 4 126727883.611 4  98749052.62248  24115527.43848
  22675873.617 6 119162520.817 6  92853932.32248  22675879.96548
  23694985.656 5 124518202.995 5  97027039.27146  23694993.21546
  21728915.898 6 114186221.400 6  88976302.55249  21728926.24249
 20  5 16  5 18 43.0000000  0  9G01G03G07G08G11G17G22G28G30          0.000382868
  20269246.453 7 106515607.398 7  82999177.06349  20269257.22749
  23341678.047 5 122661596.853 5  95580327.13548  23341690.87548
  21083241.000 6 110793174.974 6  86332366.05349  21083249.05549
  23265946.258 5 122263357.160 5  95270199.17347  23265956.87147
  21357526.367 6 112234555.995 6  87455519.26148  21357533.46548
  24115309.172 4 126726781.652 4  98748193.95948  24115317.77348
  22675663.492 6 119161417.401 6  92853072.51948  22675670.50448
  23694560.523 5 124515968.431 5  97025298.04646  23694567.86346
  21728837.898 6 114185813.963 6  88975985.07249  21728848.44949
 20  5 16  5 18 44.0000000  0  9G01G03G07G08G11G17G22G28G30          0.000383062
  20269447.359 7 106516663.159 7  82999999.73349  20269457.98849
  23341222.984 5 122659201.169 5  95578460.36848  23341234.77348
  21083539.445 6 110794745.808 6  86333590.07749  21083547.85549
  23266356.938 5 122265518.722 5  95271883.50347  23266367.76647
  21357975.797 6 112236917.895 6  87457359.70148  21357983.31648
  24115099.164 4 126725679.915 4  98747335.46548  24115108.12148
  22675454.016 6 119160314.478 6  92852213.10348  22675459.98848
  23694135.898 5 124513733.888 5  97023556.84846  23694142.48446
  21728761.055 6 114185407.239 6  88975668.14549  21728771.08249
 20  5 16  5 18 45.0000000  0  9G01G03G07G08G11G17G22G28G30          0.000383257
  20269648.508 7 106517719.764 7  83000823.06049  20269659.30949
  23340766.375 5 122656805.805 5  95576593.85448  23340779.27748
  21083838.977 6 110796317.489 6  86334814.76449  21083847.03149
  23266768.227 5 122267680.424 5  95273567.94647  23266779.50047
  21358425.344 6 112239280.277 6  87459200.51548  21358432.77748
  24114889.391 5 126724578.497 5  98746477.21948  24114898.64148
  22675244.383 6 119159212.170 6  92851354.16148  22675250.60948
  23693710.000 5 124511499.501 5  97021815.76947  23693717.48447
  21728683.703 6 114185001.393 6  88975351.89349  21728693.89549
 20  5 16  5 18 46.0000000  0  9G01G03G07G08G11G17G22G28G30          0.000383450
  20269849.789 7 106518777.090 7  83001646.95149  20269860.40649
  23340310.984 5 122654410.651 5  95574727.50248  23340323.10948
  21084137.984 6 110797889.820 6  86336039.95849  21084146.02049
  23267179.938 5 122269842.216 5  95275252.45847  23267190.76647
  21358874.828 6 112241642.980 6  87461041.58148  21358881.94148
  24114679.961 5 126723477.307 5  98745619.15248  24114688.60948
  22675034.219 6 119158110.354 6  92850495.60248  22675041.07848
  23693285.180 5 124509265.142 5  97020074.70846  23693292.32446
  21728606.609 6 114184596.190 6  88975036.14949  21728616.76249
 20  5 16  5 18 47.0000000  0  9G01G03G07G08G11G17G22G28G30          0.000383644
  20270050.906 7 106519835.250 7  83002471.49149  20270061.72349
  23339855.250 5 122652015.742 5  95572861.33948  23339867.23048
  21084437.250 6 110799462.940 6  86337265.76249  21084445.75049
  23267590.984 5 122272004.123 5  95276937.06047  23267602.47347
  21359324.914 6 112244006.115 6  87462882.98148  21359332.00048
  24114470.867 4 126722376.384 4  98744761.28748  24114479.44948
  22674824.734 6 119157009.097 6  92849637.47948  22674831.21948
  23692860.086 5 124507030.878 5  97018333.71547  23692867.49247
  21728529.820 6 114184191.804 6  88974721.04449  21728540.33249
 20  5 16  5 18 48.0000000  0  9G01G03G07G08G11G17G22G28G30          0.000383839
  20270252.625 7 106520894.118 7  83003296.58349  20270263.53949
  23339399.570 5 122649621.080 5  95570995.37048  23339412.15248
  21084736.867 6 110801036.717 6  86338492.08149  21084744.89549
  23268002.594 5 122274166.049 5  95278621.67247  23268013.53147
  21359774.789 6 112246369.617 6  87464724.67548  21359781.79348
  24114261.078 4 126721275.656 4  98743903.57148  24114270.09848
  22674615.172 6 119155908.329 6  92848779.73748  22674621.88348
  23692434.883 5 124504796.645 5  97016592.75847  23692442.29747
  21728453.039 6 114183788.120 6  88974406.48549  21728462.87949
 20  5 16  5 18 49.0000000  0  9G01G03G07G08G11G17G22G28G30          0.000384033
  20270454.438 7 106521953.680 7  83004122.21149  20270464.97749
  23338944.211 5 122647226.505 5  95569129.47148  23338956.32048
  21085036.414 6 110802611.126 6  86339718.89249  21085044.51649
  23268414.531 5 122276328.037 5  95280306.33947  23268424.82447
  21360224.430 6 112248733.387 6  87466566.56948  21360231.45348
  24114051.859 5 126720175.081 5  98743045.97548  24114060.49648
  22674406.102 6 119154808.016 6  92847922.35148  22674412.46148
  23692009.289 5 124502562.374 5  97014851.77247  23692017.25047
  21728375.852 6 114183385.108 6  88974092.44949  21728386.28149
 20  5 16  5 18 50.0000000  0  9G01G03G07G08G11G17G22G28G30          0.000384228
  20270655.984 7 106523014.061 7  83004948.48049  20270666.83649
  23338487.883 5 122644832.276 5  95567263.83748  23338500.59048
  21085336.320 6 110804186.346 6  86340946.33449  21085344.40649
  23268825.406 5 122278490.173 5  95281991.11947  23268836.35547
  21360673.984 6 112251097.607 6  87468408.82548  21360681.19148
  24113842.547 5 126719074.824 5  98742188.64248  24113850.94948
  22674197.047 6 119153708.271 6  92847065.40048  22674203.39148
  23691584.648 5 124500328.237 5  97013110.89447  23691592.23847
  21728299.750 6 114182982.884 6  88973779.02849  21728309.82849
 20  5 16  5 18 51.0000000  0  9G01G03G07G08G11G17G22G28G30          0.000384422
  20270857.977 7 106524075.343 7  83005775.45749  20270868.75449
  23338033.063 5 122642438.351 5  95565398.44148  23338045.00448
  21085635.969 6 110805762.395 6  86342174.42649  21085644.35549
  23269236.695 5 122280652.489 5  95283676.04547  23269247.82847
  21361124.055 6 112253462.338 6  87470251.47148  21361131.12948
  24113633.867 5 126717974.961 5  98741331.61048  24113641.87548
  22673987.484 6 119152609.187 6  92846208.97348  22673993.62548
  23691159.406 5 124498094.275 5  97011370.14647  23691167.09047
  21728223.188 6 114182581.574 6  88973466.31549  21728233.11749
 20  5 16  5 18 52.0000000  0  9G01G03G07G08G11G17G22G28G30          0.000384617
  20271059.789 7 106525137.296 7  83006602.95449  20271070.67249
  23337576.953 5 122640044.611 5  95563533.19048  23337589.27748
  21085936.320 6 110807339.063 6  86343402.99549  21085944.50849
  23269648.961 5 122282814.803 5  95285360.96247  23269659.11347
  21361574.406 6 112255827.344 6  87472094.33348  21361581.23048
  24113424.320 5 126716875.202 5  98740474.65948  24113432.60948
  22673778.430 6 119151510.547 6  92845352.89048  22673785.13348
  23690734.070 5 124495860.292 5  97009629.37646  23690742.09846
  21728146.891 6 114182180.909 6  88973154.11149  21728157.72349
 20  5 16  5 18 53.0000000  0  9G01G03G07G08G11G17G22G28G30          0.000384811
  20271262.273 7 106526199.986 7  83007431.02649  20271273.14849
  23337121.961 5 122637651.081 5  95561668.10448  23337134.00448
  21086236.414 6 110808916.451 6  86344632.13049  21086244.27349
  23270060.000 5 122284977.172 5  95287045.92447  23270071.32847
  21362024.508 6 112258192.720 6  87473937.48448  21362031.44548
  24113214.547 5 126715775.686 5  98739617.89148  24113223.07848
  22673569.680 6 119150412.396 6  92844497.19648  22673575.94948
  23690309.773 5 124493626.334 5  97007888.63247  23690316.92647
  21728071.086 6 114181780.942 6  88972842.44349  21728081.30549
 20  5 16  5 18 54.0000000  0  9G01G03G07G08G11G17G22G28G30          0.000385006
  20271464.633 7 106527263.481 7  83008259.71649  20271475.48049
  23336666.195 5 122635257.770 5  95559803.18548  23336678.30548
  21086536.734 6 110810494.571 6  86345861.83149  21086544.58649
  23270471.383 5 122287139.652 5  95288730.97947  23270482.15247
  21362474.461 6 112260558.523 6  87475780.96548  21362481.52348
  24113005.242 5 126714676.438 5  98738761.33848  24113014.29348
  22673360.977 6 119149314.791 6  92843641.92348  22673366.64548
  23689883.859 5 124491392.454 5  97006147.95147  23689891.48447
  21727994.781 6 114181381.781 6  88972531.41449  21728005.05149
 20  5 16  5 18 55.0000000  0  9G01G03G07G08G11G17G22G28G30          0.000385201
  20271667.172 7 106528327.527 7  83009088.84649  20271677.89849
  23336211.242 5 122632864.504 5  95557938.30748  23336222.90648
  21086836.875 6 110812073.198 6  86347091.92949  21086845.17249
  23270882.969 5 122289301.995 5  95290415.92347  23270893.45747
  21362925.039 6 112262924.468 6  87477624.55748  21362931.67248
  24112796.852 5 126713577.214 5  98737904.79948  24112804.96548
  22673152.000 6 119148217.502 6  92842786.89048  22673158.09448
  23689459.117 5 124489158.434 5  97004407.15147  23689466.53547
  21727918.953 6 114180983.141 6  88972220.78249  21727929.47349
 20  5 16  5 18 56.0000000  0  9G01G03G07G08G11G17G22G28G30          0.000385395
  20271869.844 7 106529392.319 7  83009918.55749  20271880.70349
  23335755.586 5 122630471.465 5  95556073.60448  23335767.53948
  21087137.813 6 110813652.524 6  86348322.57549  21087145.69549
  23271294.070 5 122291464.416 5  95292100.92647  23271305.25847
  21363375.648 6 112265290.792 6  87479468.44748  21363382.24248
  24112587.656 5 126712478.256 5  98737048.46548  24112595.76248
  22672943.148 6 119147120.723 6  92841932.26348  22672949.51648
  23689033.789 5 124486924.468 5  97002666.39647  23689041.46147
  21727843.336 6 114180585.238 6  88971910.72949  21727853.73449
 20  5 16  5 18 57.0000000  0  9G01G03G07G08G11G17G22G28G30          0.000385590
  20272072.789 7 106530457.788 7  83010748.78949  20272083.25449
  23335300.477 5 122628078.523 5  95554208.97948  23335312.27348
  21087438.281 6 110815232.492 6  86349553.71549  21087446.68049
  23271705.992 5 122293626.860 5  95293785.94447  23271716.47347
  21363825.758 6 112267657.430 6  87481312.57648  21363832.52348
  24112378.320 5 126711379.441 5  98736192.24248  24112386.71948
  22672734.609 6 119146024.380 6  92841077.97048  22672740.88348
  23688608.547 5 124484690.466 5  97000925.61147  23688616.35947
  21727767.828 6 114180188.000 6  88971601.19249  21727778.02749
 20  5 16  5 18 58.0000000  0  9G01G03G07G08G11G17G22G28G30          0.000385784
  20272275.305 7 106531524.033 7  83011579.63349  20272286.30149
  23334844.938 5 122625685.860 5  95552344.57048  23334857.73448
  21087739.219 6 110816813.196 6  86350785.43449  21087747.07049
  23272117.258 5 122295789.389 5  95295471.02147  23272128.04347
  21364276.227 6 112270024.401 6  87483156.97248  21364283.14148
  24112169.281 4 126710280.892 4  98735336.22948  24112177.64148
  22672526.188 6 119144928.587 6  92840224.10248  22672532.38348
  23688183.656 5 124482456.537 5  96999184.88347  23688191.46147
  21727692.289 6 114179791.498 6  88971292.22949  21727702.82049
 20  5 16  5 18 59.0000000  0  9G01G03G07G08G11G17G22G28G30          0.000385979
  20272478.344 7 106532591.074 7  83012411.09449  20272489.25849
  23334390.070 5 122623293.460 5  95550480.36448  23334402.08248
  21088039.984 6 110818394.632 6  86352017.72149  21088047.87549
  23272528.984 5 122297952.023 5  95297156.19047  23272539.72747
  21364726.289 6 112272391.820 6  87485001.71148  21364733.55948
  24111960.328 5 126709182.532 5  98734480.35948  24111968.46148
  22672317.648 6 119143833.330 6  92839370.65648  22672324.08248
  23687758.922 5 124480222.703 5  96997444.23947  23687766.18047
  21727616.836 6 114179395.786 6  88970983.88349  21727627.02049
 20  5 16  5 19  0.0000000  0  9G01G03G07G08G11G17G22G28G30          0.000386173
  20272681.563 7 106533658.831 7  83013243.10749  20272692.32449
  23333934.680 5 122620901.229 5  95548616.29048  23333946.65248
  21088341.102 6 110819976.745 6  86353250.52949  21088349.23449
  23272940.539 5 122300114.714 5  95298841.39847  23272951.20347
  21365176.953 6 112274759.561 6  87486846.70448  21365183.97348
  24111751.188 5 126708084.431 5  98733624.69648  24111759.60548
  22672109.250 6 119142738.563 6  92838517.58648  22672115.60248
  23687333.758 5 124477988.894 5  96995703.61446  23687341.15646
  21727541.641 6 114179000.789 6  88970676.09549  21727552.06349
 20  5 16  5 19  1.0000000  0  9G01G03G07G08G11G17G22G28G30          0.000386370
  20272885.023 7 106534727.349 7  83014075.72449  20272895.59849
  23333479.469 5 122618509.238 5  95546752.40048  23333491.25848
  21088642.328 6 110821559.588 6  86354483.91849  21088650.17249
  23273351.906 5 122302277.484 5  95300526.67747  23273362.83247
  21365627.953 6 112277127.680 6  87488691.98748  21365634.38348
  24111541.992 5 126706986.573 5  98732769.23248  24111550.89848
  22671900.945 6 119141644.323 6  92837664.93548  22671907.25448
  23686908.844 5 124475755.138 5  96993963.02746  23686916.16046
  21727466.320 6 114178606.534 6  88970368.88149  21727477.26649
 20  5 16  5 19  2.0000000  0  9G01G03G07G08G11G17G22G28G30          0.000386564
  20273088.656 7 106535796.752 7  83014909.01949  20273099.71949
  23333024.125 5 122616117.607 5  95544888.79748  23333036.55948
  21088943.641 6 110823143.258 6  86355717.94049  21088951.62549
  23273763.703 5 122304440.447 5  95302212.10547  23273774.44147
  21366078.063 6 112279496.300 6  87490537.66648  21366085.40248
  24111333.523 4 126705889.063 4  98731914.03948  24111341.99248
  22671692.883 6 119140550.708 6  92836812.76448  22671699.35248
  23686483.633 5 124473521.548 5  96992222.56346  23686490.91446
  21727392.414 6 114178213.118 6  88970062.32449  21727402.68849
 20  5 16  5 19  3.0000000  0  9G01G03G07G08G11G17G22G28G30          0.000386759
  20273292.148 7 106536866.826 7  83015742.84349  20273303.00449
  23332569.094 5 122613726.078 5  95543025.27148  23332581.09448
  21089245.086 6 110824727.547 6  86356952.45549  21089253.03549
  23274175.156 5 122306603.393 5  95303897.51847  23274185.94547
  21366529.016 6 112281865.194 6  87492383.55348  21366535.90648
  24111124.477 4 126704791.718 4  98731058.97248  24111133.19148
  22671485.258 6 119139457.530 6  92835960.93948  22671491.48048
  23686058.398 5 124471287.940 5  96990482.09147  23686065.93447
  21727317.398 6 114177820.378 6  88969756.28749  21727327.87949
 20  5 16  5 19  4.0000000  0  9G01G03G07G08G11G17G22G28G30          0.000386955
  20273496.227 7 106537937.637 7  83016577.23949  20273506.87149
  23332114.055 5 122611334.809 5  95541161.94248  23332125.90248
  21089546.867 6 110826312.565 6  86358187.52749  21089554.66449
  23274586.836 5 122308766.416 5  95305582.98947  23274597.69547
  21366979.859 6 112284234.469 6  87494229.74448  21366986.91048
  24110915.461 4 126703694.544 4  98730204.03048  24110924.14848
  22671277.047 6 119138364.855 6  92835109.50848  22671283.32048
  23685633.211 5 124469054.355 5  96988741.63747  23685640.83247
  21727242.531 6 114177428.348 6  88969450.81149  21727253.15649
