     2.10           OBSERVATION DATA    Mixed(MIXED)        RINEX VERSION / TYPE
cnvtToRINEX 3.07.0  convertToRINEX OPR  19-May-20 12:34 UTC PGM / RUN BY / DATE 
----------------------------------------------------------- COMMENT             
G058                                                        MARKER NAME         
G058                                                        MARKER NUMBER       
GNSS Observer       Trimble                                 OBSERVER / AGENCY   
5319436542          R5                  4.85                REC # / TYPE / VERS 
                    UNKNOWN EXT                             ANT # / TYPE        
 -3053230.4903  4926936.0052  2652655.0862                  APPROX POSITION XYZ 
        0.0000        0.0000        0.0000                  ANTENNA: DELTA H/E/N
     1     1     0                                          WAVELENGTH FACT L1/2
     4    C1    L1    L2    P2                              # / TYPES OF OBSERV 
     1.000                                                  INTERVAL            
  2020     5    16     3    31   21.0000000     GPS         TIME OF FIRST OBS   
  2020     5    16     5     0   56.0000000     GPS         TIME OF LAST OBS    
     0                                                      RCV CLOCK OFFS APPL 
    18                                                      LEAP SECONDS        
    13                                                      # OF SATELLITES     
   G01  5375  5375  5374  5375                              PRN / # OF OBS      
   G03  1178  1178  1178  1178                              PRN / # OF OBS      
   G04   925   918   881   881                              PRN / # OF OBS      
   G07  5376  5376  5375  5376                              PRN / # OF OBS      
   G08  5375  5375  5374  5375                              PRN / # OF OBS      
   G09  2312  2312  2306  2306                              PRN / # OF OBS      
   G11  5376  5376  5375  5376                              PRN / # OF OBS      
   G16  4022  4020  4007  4007                              PRN / # OF OBS      
   G17   218   218   218   218                              PRN / # OF OBS      
   G22  3818  3818  3818  3818                              PRN / # OF OBS      
   G27  3632  3632  3626  3626                              PRN / # OF OBS      
   G28  1058  1058  1058  1058                              PRN / # OF OBS      
   G30  5348  5348  5348  5348                              PRN / # OF OBS      
CARRIER PHASE MEASUREMENTS: PHASE SHIFTS REMOVED            COMMENT             
                                                            END OF HEADER       
 20  5 16  3 31 21.0000000  0  2G07G11                               0.000347004
  22017018.555 6 115700209.89216                  22017024.12148
  20425524.938 6 107336857.75816                  20425529.97748
 20  5 16  3 31 22.0000000  0  7G01G07G08G09G11G16G27                0.000341852
  21928686.063 6 115236021.03116                  21928693.45748
  22016557.445 6 115697787.082 6  90154142.81649  22016564.03549
  21023114.281 6 110477210.81016                  21023121.23848
  23686013.328 3 124470838.28513                
  20425379.875 6 107336095.883 6  83638535.29659  20425386.19149
  23361304.906 5 122764486.93115                
  22759833.438 5 119603728.52215                
 20  5 16  3 31 23.0000000  0  7G01G07G08G09G11G16G27                0.000341946
  21928113.508 6 115233013.115 6  89791988.69859  21928122.69149
  22016096.805 6 115695364.114 6  90152254.77149  22016103.91849
  21023426.227 6 110478849.138 6  86087442.32559  21023432.07049
  23686392.422 3 124472829.548 3                
  20425234.773 6 107335334.059 6  83637941.66349  20425241.48049
  23361640.672 5 122766249.542 5                
  22760382.219 5 119606610.260 5                
 20  5 16  3 31 24.0000000  0  7G01G07G08G09G11G16G27                0.000342041
  21927541.195 6 115230005.418 6  89789645.04149  21927551.83649
  22015635.461 6 115692941.444 6  90150366.98549  22015642.48849
  21023738.086 6 110480487.505 6  86088718.96649  21023742.68049
  23686771.609 3 124474820.870 3                
  20425090.250 6 107334572.660 6  83637348.37548  20425096.80148
  23361975.578 5 122768012.117 5                
  22760930.125 5 119609491.924 5                
 20  5 16  3 31 25.0000000  0  7G01G07G08G09G11G16G27                0.000342136
  21926968.641 6 115226997.656 6  89787301.32349  21926979.95349
  22015174.328 6 115690518.728 6  90148479.15449  22015181.67649
  21024049.906 6 110482125.691 6  86089995.47549  21024053.97749
  23687150.352 4 124476811.965 4                
  20424945.063 6 107333811.389 6  83636755.15448  20424952.10948
  23362311.578 5 122769774.338 5                
  22761478.648 5 119612373.188 5                
 20  5 16  3 31 26.0000000  0  8G01G04G07G08G09G11G16G27             0.000342232
  21926396.563 6 115223990.053 6  89784957.76049  21926407.75049
  24011434.266 5 126180936.64615                
  22014713.328 6 115688096.177 6  90146591.45149  22014720.66049
  21024361.609 6 110483763.893 6  86091272.01649  21024365.68849
  23687527.938 3 124478803.079 3                
  20424800.086 6 107333050.488 6  83636162.26648  20424807.14148
  23362646.602 5 122771536.480 5                
  22762026.938 5 119615254.256 5                
 20  5 16  3 31 27.0000000  0  8G01G04G07G08G09G11G16G27             0.000342325
  21925823.969 6 115220982.819 6  89782614.43449  21925835.72349
  24011963.539 5 126183719.302 5                
  22014252.758 6 115685674.056 6  90144704.09049  22014260.14149
  21024673.492 6 110485402.333 6  86092548.70149  21024681.71949
  23687907.477 3 124480794.423 3                
  20424655.688 6 107332290.156 6  83635569.80248  20424662.86748
  23362982.250 5 122773298.742 5                
  22762575.406 6 119618135.367 6                
 20  5 16  3 31 28.0000000  0  8G01G04G07G08G09G11G16G27             0.000342421
  21925251.602 6 115217975.758 6  89780271.26249  21925263.31649
  24012492.844 5 126186501.802 5                
  22013791.891 6 115683252.125 6  90142816.87149  22013798.99649
  21024985.242 6 110487040.826 6  86093825.43949  21024995.53949
  23688286.484 3 124482785.802 3  96999618.89058  23688298.38348
  20424511.141 6 107331530.181 6  83634977.61348  20424518.29348
  23363317.305 5 122775060.891 5  95668907.47956  23363324.93046
  22763123.367 5 119621016.286 5  93211225.59359  22763133.31349
 20  5 16  3 31 29.0000000  0  8G01G04G07G08G09G11G16G27             0.000342516
  21924679.727 6 115214968.957 6  89777928.30349  21924691.61749
  24013021.992 5 126189284.097 5                
  22013330.820 6 115680830.489 6  90140929.88349  22013337.89549
  21025296.781 6 110488679.460 6  86095102.30349  21025307.31349
  23688666.234 3 124484777.258 3  97001170.67048  23688677.03948
  20424366.625 6 107330770.658 6  83634385.77548  20424373.31348
  23363652.516 5 122776823.045 5  95670280.58946  23363660.25446
  22763671.570 5 119623897.136 5  93213470.41449  22763681.44949
 20  5 16  3 31 30.0000000  0  8G01G04G07G08G09G11G16G27             0.000342609
  21924107.492 6 115211962.421 6  89775585.55449  21924119.40249
  24013551.836 5 126192066.284 5                
  22012870.344 6 115678409.149 6  90139043.12549  22012877.53549
  21025608.898 6 110490318.190 6  86096379.23449  21025619.53149
  23689044.289 4 124486768.890 4  97002722.59148  23689056.31348
  20424221.898 6 107330011.608 6  83633794.30448  20424229.03148
  23363988.047 5 122778585.233 5  95671653.71246  23363995.92246
  22764220.031 5 119626777.931 5  93215715.18649  22764229.54349
 20  5 16  3 31 31.0000000  0  8G01G04G07G08G09G11G16G27             0.000342705
  21923535.508 6 115208956.266 6  89773243.10449  21923546.99249
  24014080.781 5 126194848.426 5                
  22012409.063 6 115675988.224 6  90137156.69449  22012416.38749
  21025920.578 6 110491957.190 6  86097656.38149  21025930.80949
  23689424.203 4 124488760.729 4  97004274.68348  23689435.15248
  20424077.906 6 107329253.129 6  83633203.27648  20424084.48048
  23364323.656 5 122780347.517 5  95673026.91146  23364331.14546
  22764768.102 5 119629658.753 5  93217959.98249  22764778.22349
 20  5 16  3 31 32.0000000  0  8G01G04G07G08G09G11G16G27             0.000342798
  21922963.438 6 115205950.677 6  89770901.09649  21922974.94549
  24014610.750 5 126197630.734 5  98335859.44956  24014621.03546
  22011948.664 6 115673567.910 6  90135270.73149  22011956.36349
  21026232.719 6 110493596.629 6  86098933.87149  21026242.68449
  23689803.070 3 124490753.006 3  97005827.11048  23689814.23448
  20423933.453 6 107328495.427 6  83632612.85448  20423940.78948
  23364658.211 5 122782110.114 5  95674400.35446  23364666.46146
  22765316.070 5 119632539.844 5  93220204.98949  22765326.24649
 20  5 16  3 31 33.0000000  0  8G01G04G07G08G09G11G16G27             0.000342894
  21922391.672 6 115202945.456 6  89768559.37249  21922403.02749
  24015139.703 5 126200413.051 5  98338027.49546  24015150.73846
  22011488.125 6 115671147.994 6  90133385.08349  22011495.63749
  21026544.734 6 110495236.313 6  86100211.54749  21026554.99249
  23690181.906 3 124492745.531 3  97007379.72848  23690193.58248
  20423789.727 6 107327738.306 6  83632022.89548  20423796.79748
  23364994.086 5 122783872.860 5  95675773.92346  23365002.11746
  22765864.344 5 119635420.971 5  93222450.02449  22765874.64849
 20  5 16  3 31 34.0000000  0  8G01G04G07G08G09G11G16G27             0.000342989
  21921819.813 6 115199940.756 6  89766218.04249  21921831.30949
  24015669.625 5 126203195.439 5  98340195.59947  24015680.27747
  22011028.109 6 115668728.632 6  90131499.86749  22011035.38749
  21026856.750 6 110496876.370 6  86101489.51349  21026866.93049
  23690561.766 3 124494738.403 3  97008932.60948  23690572.68848
  20423645.656 6 107326981.891 6  83631433.48548  20423652.53548
  23365329.656 5 122785635.823 5  95677147.66446  23365337.60946
  22766412.977 6 119638302.266 6  93224695.18649  22766422.80549
 20  5 16  3 31 35.0000000  0  8G01G04G07G08G09G11G16G27             0.000343082
  21921248.250 6 115196936.512 6  89763877.07849  21921259.86349
  24016198.742 5 126205977.891 5  98342363.73046  24016210.04746
  22010567.641 6 115666309.794 6  90129615.05249  22010574.98049
  21027168.680 6 110498516.747 6  86102767.72649  21027179.32049
  23690940.828 4 124496731.592 4  97010485.73448  23690951.97748
  20423501.914 6 107326226.147 6  83630844.59048  20423508.91448
  23365665.406 5 122787399.020 5  95678521.58346  23365673.10946
  22766960.703 5 119641183.688 5  93226940.44449  22766971.11749
 20  5 16  3 31 36.0000000  0  8G01G04G07G08G09G11G16G27             0.000343178
  21920676.797 6 115193932.813 6  89761536.52749  21920688.26249
  24016728.500 5 126208760.453 5  98344531.96046  24016739.32446
  22010107.594 6 115663891.500 6  90127730.65749  22010114.60949
  21027481.352 6 110500157.541 6  86104046.26649  21027491.46949
  23691319.992 3 124498725.205 3  97012039.19748  23691331.32848
  20423358.156 6 107325471.134 6  83630256.26948  20423364.98848
  23366001.156 5 122789162.473 5  95679895.69946  23366009.01246
  22767509.719 5 119644065.293 5  93229185.84949  22767519.57449
 20  5 16  3 31 37.0000000  0  8G01G04G07G08G09G11G16G27             0.000343273
  21920105.109 6 115190929.680 6  89759196.42449  21920116.56649
  24017258.242 5 126211543.190 5  98346700.32346  24017269.27346
  22009647.336 6 115661473.787 6  90125846.72149  22009654.72349
  21027793.594 6 110501798.730 6  86105325.11849  21027803.98449
  23691699.828 3 124500719.184 3  97013592.94348  23691710.42648
  20423214.703 6 107324716.874 6  83629668.53648  20423221.52348
  23366336.344 5 122790926.240 5  95681270.06346  23366344.02746
  22768057.984 5 119646947.134 5  93231431.43549  22768068.00049
 20  5 16  3 31 38.0000000  0  8G01G04G07G08G09G11G16G27             0.000343369
  21919533.945 6 115187927.257 6  89756856.87749  21919545.47349
  24017787.648 5 126214326.244 5  98348868.93646  24017798.23846
  22009187.227 6 115659056.838 6  90123963.38249  22009194.98049
  21028105.781 6 110503440.538 6  86106604.44849  21028116.08249
  23692079.078 4 124502713.770 4  97015147.17448  23692090.15648
  20423071.016 6 107323963.560 6  83629081.53448  20423078.22348
  23366672.227 5 122792690.471 5  95682644.78746  23366679.89546
  22768606.180 5 119649829.379 5  93233677.34149  22768616.35549
 20  5 16  3 31 39.0000000  0  8G01G04G07G08G09G11G16G27             0.000343464
  21918962.828 6 115184925.512 6  89754517.85549  21918974.07849
  24018317.266 5 126217109.559 5  98351037.73846  24018328.28946
  22008728.117 6 115656640.593 6  90122080.59349  22008734.96149
  21028418.664 6 110505082.868 6  86107884.18149  21028428.76249
  23692458.836 4 124504708.881 4  97016701.80448  23692469.87948
  20422927.977 6 107323211.103 6  83628495.20248  20422934.54748
  23367007.641 5 122794455.098 5  95684019.81946  23367015.81646
  22769154.805 6 119652711.930 6  93235923.48649  22769165.13749
 20  5 16  3 31 40.0000000  0  8G01G04G07G08G09G11G16G27             0.000343559
  21918391.156 6 115181924.411 6  89752179.33749  21918402.83649
  24018846.961 4 126219893.065 4  98353206.68746  24018857.15646
  22008268.453 6 115654225.027 6  90120198.33549  22008275.47749
  21028731.289 6 110506725.732 6  86109164.33749  21028741.50449
  23692838.984 4 124506704.528 4  97018256.84248  23692849.52748
  20422784.563 6 107322459.486 6  83627909.52648  20422792.00048
  23367343.734 5 122796220.116 5  95685395.15446  23367351.42646
  22769703.586 6 119655594.781 6  93238169.86449  22769713.48049
 20  5 16  3 31 41.0000000  0  8G01G04G07G08G09G11G16G27             0.000343655
  21917820.508 6 115178923.977 6  89749841.34049  21917832.02749
  24019377.000 4 126222676.931 4  98355375.92946  24019387.08646
  22007808.555 6 115651810.168 6  90118316.63249  22007815.75449
  21029043.734 6 110508369.104 6  86110444.88949  21029054.05549
  23693217.820 4 124508700.671 4  97019812.27248  23693229.73048
  20422642.094 6 107321708.743 6  83627324.53548  20422648.71548
  23367679.461 5 122797985.563 5  95686770.82546  23367687.74246
  22770252.086 5 119658477.990 5  93240416.51949  22770262.41049
 20  5 16  3 31 42.0000000  0  8G01G04G07G08G09G11G16G27             0.000343750
  21917249.953 6 115175924.234 6  89747503.88249  21917261.27049
  24019906.055 4 126225460.983 4  98357545.31546  24019916.69546
  22007349.406 6 115649396.005 6  90116435.46449  22007356.59849
  21029357.000 6 110510012.991 6  86111725.84349  21029366.90249
  23693598.320 4 124510697.339 4  97021368.11248  23693609.48448
  20422499.773 6 107320958.855 6  83626740.20848  20422506.37148
  23368015.727 5 122799751.364 5  95688146.77846  23368023.53946
  22770800.242 5 119661361.524 5  93242663.42649  22770810.95349
 20  5 16  3 31 43.0000000  0  8G01G04G07G08G09G11G16G27             0.000343847
  21916678.813 6 115172925.287 6  89745167.03849  21916690.65649
  24020436.281 4 126228245.453 4  98359715.03546  24020446.99246
  22006889.523 6 115646982.690 6  90114554.96249  22006897.35549
  21029669.703 6 110511657.600 6  86113007.35549  21029679.78149
  23693978.594 4 124512694.666 4  97022924.47448  23693989.18448
  20422356.914 6 107320209.997 6  83626156.68648  20422363.76648
  23368352.063 5 122801517.758 5  95689523.19446  23368359.67246
  22771349.625 5 119664245.548 5  93244910.71549  22771359.73849
 20  5 16  3 31 44.0000000  0  8G01G04G07G08G09G11G16G27             0.000343943
  21916108.117 6 115169927.220 6  89742830.87649  21916119.68449
  24020966.055 4 126231030.377 4  98361885.11846  24020976.82446
  22006430.734 6 115644570.270 6  90112675.14749  22006438.16449
  21029982.867 6 110513302.954 6  86114289.44949  21029993.14549
  23694358.789 4 124514692.728 4  97024481.39748  23694369.63348
  20422214.469 6 107319462.211 6  83625573.99048  20422221.59848
  23368688.313 5 122803284.781 5  95690900.09846  23368695.96146
  22771898.422 5 119667130.112 5  93247158.43049  22771909.01649
 20  5 16  3 31 45.0000000  0  8G01G04G07G08G09G11G16G27             0.000344040
  21915537.977 6 115166929.950 6  89740495.34549  21915549.64849
  24021496.344 5 126233815.748 5  98364055.53846  24021507.19146
  22005971.844 6 115642158.731 6  90110796.02849  22005979.35249
  21030296.008 7 110514948.985 7  86115572.06449  21030305.93449
  23694739.242 4 124516691.481 4  97026038.86548  23694749.90648
  20422072.680 6 107318715.432 6  83624992.08448  20422079.69548
  23369024.609 5 122805052.337 5  95692277.41546  23369032.28946
  22772447.688 5 119670015.142 5  93249406.50249  22772457.85249
 20  5 16  3 31 46.0000000  0  8G01G04G07G08G09G11G16G27             0.000344137
  21914968.000 6 115163933.519 6  89738160.46649  21914979.67249
  24022026.352 5 126236601.495 5  98366226.23246  24022037.00846
  22005513.203 6 115639748.020 6  90108917.55049  22005520.28549
  21030609.344 6 110516595.681 6  86116855.20949  21030619.59449
  23695120.039 4 124518690.881 4  97027596.83648  23695130.67248
  20421930.383 6 107317969.672 6  83624410.96748  20421937.39548
  23369361.125 5 122806820.467 5  95693655.18246  23369368.87146
  22772996.242 5 119672900.643 5  93251654.94149  22773006.73849
 20  5 16  3 31 47.0000000  0  8G01G04G07G08G09G11G16G27             0.000344234
  21914397.594 6 115160937.781 6  89735826.13249  21914409.68449
  24022556.703 5 126239387.558 5  98368397.17546  24022567.07846
  22005054.406 6 115637338.048 6  90107039.64849  22005062.07049
  21030923.000 6 110518242.941 6  86118138.78549  21030933.08649
  23695499.875 4 124520690.846 4  97029155.23948  23695511.23448
  20421788.953 6 107317224.836 6  83623830.58148  20421795.69148
  23369697.523 5 122808589.043 5  95695033.28946  23369705.28946
  22773545.609 5 119675786.507 5  93253903.66949  22773556.11349
 20  5 16  3 31 48.0000000  0  8G01G04G07G08G09G11G16G27             0.000344332
  21913827.555 6 115157942.866 6  89733492.43049  21913839.24649
  24023086.836 5 126242174.045 5  98370568.45446  24023097.64846
  22004596.070 6 115634928.948 6  90105162.42549  22004603.37549
  21031236.102 6 110519890.866 6  86119422.88449  21031246.42249
  23695880.836 4 124522691.463 4  97030714.16048  23695891.52348
  20421647.352 6 107316480.992 6  83623250.96248  20421654.19548
  23370033.945 5 122810358.179 5  95696411.82446  23370041.86746
  22774095.063 5 119678672.909 5  93256152.81249  22774105.22349
 20  5 16  3 31 49.0000000  0  9G01G04G07G08G09G11G16G27G30          0.000344429
  21913258.172 6 115154948.773 6  89731159.37449  21913269.70749
  24023617.234 5 126244960.925 5  98372740.03946  24023628.04746
  22004137.680 6 115632520.679 6  90103285.85949  22004145.27049
  21031550.164 6 110521539.483 6  86120707.51849  21031560.38749
  23696261.602 3 124524692.765 3  97032273.61748  23696272.23848
  20421506.164 6 107315738.160 6  83622672.13348  20421512.88348
  23370371.375 5 122812127.851 5  95697790.79546  23370378.77746
  22774644.539 5 119681559.739 5  93258402.28949  22774655.04749
  24569286.891 3 129112470.82213 100607167.11758  24569298.25848
 20  5 16  3 31 50.0000000  0  9G01G04G07G08G09G11G16G27G30          0.000344528
  21912688.469 6 115151955.593 6  89728827.03149  21912700.05549
  24024148.313 5 126247748.319 5  98374912.03146  24024158.07046
  22003680.031 6 115630113.367 6  90101410.02949  22003686.75849
  21031863.898 6 110523188.904 6  86121992.78549  21031874.17649
  23696642.609 4 124526694.857 4  97033833.68948  23696653.38348
  20421364.578 6 107314996.462 6  83622094.18448  20421371.78148
  23370708.039 5 122813898.211 5  95699170.29946  23370715.52346
  22775193.547 5 119684447.165 5  93260652.23149  22775203.86349
  24568668.133 3 129109221.580 3 100604635.24448  24568679.53548
 20  5 16  3 31 51.0000000  0  9G01G04G07G08G09G11G16G27G30          0.000344625
  21912118.984 6 115148963.344 6  89726495.41049  21912130.68849
  24024678.070 5 126250536.220 5  98377084.40946  24024688.55546
  22003221.789 6 115627707.015 6  90099534.95049  22003229.21549
  21032178.031 6 110524839.123 6  86123278.67149  21032188.22749
  23697024.133 4 124528697.750 4  97035394.38748  23697034.65248
  20421223.531 6 107314255.889 6  83621517.11348  20421230.75048
  23371044.813 5 122815669.233 5  95700550.31447  23371052.84047
  22775743.188 5 119687335.167 5  93262902.62049  22775753.54749
  24568050.195 3 129105973.021 3 100602103.90048  24568061.45748
 20  5 16  3 31 52.0000000  0  9G01G04G07G08G09G11G16G27G30          0.000344725
  21911549.945 6 115145972.078 6  89724164.55349  21911561.52349
  24025208.766 5 126253324.672 5  98379257.22546  24025218.98446
  22002764.055 6 115625301.681 6  90097660.66449  22002771.39149
  21032492.305 6 110526490.177 6  86124565.20649  21032502.71149
  23697405.094 4 124530701.444 4  97036955.70348  23697416.00848
  20421083.289 6 107313516.507 6  83620940.97548  20421090.16048
  23371381.969 5 122817440.965 5  95701930.87946  23371390.04346
  22776293.023 5 119690223.840 5  93265153.53349  22776303.22749
  24567432.539 3 129102725.245 3 100599573.17347  24567443.42647
 20  5 16  3 31 53.0000000  0  9G01G04G07G08G09G11G16G27G30          0.000344824
  21910980.773 6 115142981.685 6  89721834.37849  21910992.53549
  24025739.180 4 126256113.616 4  98381430.43846  24025750.06346
  22002306.406 6 115622897.232 6  90095787.06949  22002314.21949
  21032806.625 6 110528141.983 6  86125852.32949  21032816.64549
  23697786.172 4 124532705.872 4  97038517.58948  23697797.91848
  20420942.703 6 107312778.176 6  83620365.64648  20420949.23848
  23371719.453 5 122819213.297 5  95703311.91846  23371727.09046
  22776843.109 5 119693113.023 5  93267404.84249  22776853.37149
  24566814.180 4 129099478.116 4 100597042.93548  24566825.64848
 20  5 16  3 31 54.0000000  0  9G01G04G07G08G09G11G16G27G30          0.000344925
  21910412.109 6 115139992.238 6  89719504.94149  21910423.83249
  24026269.883 3 126258903.077 3  98383604.06446  24026280.57046
  22001849.227 6 115620493.787 6  90093914.25549  22001856.34449
  21033120.891 6 110529794.601 6  86127140.07749  21033130.93449
  23698167.875 4 124534711.101 4  97040080.10148  23698178.94148
  20420802.297 6 107312040.992 6  83619791.22248  20420809.30548
  23372056.313 5 122820986.351 5  95704693.51946  23372064.38346
  22777392.219 5 119696002.802 5  93269656.62149  22777402.91849
  24566197.102 3 129096231.651 3 100594513.21848  24566207.69148
 20  5 16  3 31 55.0000000  0  9G01G04G07G08G09G11G16G27G30          0.000345024
  21909843.547 6 115137003.726 6  89717176.23149  21909854.92249
  24026801.039 4 126261693.071 4  98385778.08646  24026811.19946
  22001392.203 6 115618091.310 6  90092042.19449  22001398.98049
  21033435.797 6 110531448.054 6  86128428.48149  21033446.03149
  23698550.398 4 124536717.090 4  97041643.20548  23698560.88748
  20420662.477 6 107311304.948 6  83619217.68348  20420668.66448
  23372394.258 5 122822760.062 5  95706075.62346  23372402.20746
  22777943.266 5 119698893.213 5  93271908.88649  22777953.17649
  24565578.656 3 129092985.926 3 100591984.08248  24565590.12548
 20  5 16  3 31 56.0000000  0  9G01G04G07G08G09G11G16G27G30          0.000345125
  21909274.742 6 115134016.020 6  89714848.14949  21909286.41449
  24027332.625 5 126264483.468 5  98387952.41046  24027342.68046
  22000934.688 6 115615689.647 6  90090170.76949  22000942.16049
  21033750.742 6 110533102.140 6  86129717.38549  21033761.22749
  23698932.625 4 124538723.753 4  97043206.85048  23698942.80148
  20420522.313 6 107310569.881 6  83618644.90348  20420529.34448
  23372731.750 5 122824534.263 5  95707458.11446  23372739.69546
  22778492.789 5 119701784.048 5  93274161.48249  22778503.15249
  24564961.102 3 129089740.694 3 100589455.32948  24564972.22748
 20  5 16  3 31 57.0000000  0  9G01G04G07G08G09G11G16G27G30          0.000345224
  21908706.250 6 115131029.159 6  89712520.72749  21908717.65249
  24027863.641 5 126267274.330 5  98390127.08646  24027874.10546
  22000478.242 6 115613288.916 6  90088300.07149  22000485.38749
  21034065.336 6 110534757.000 6  86131006.88549  21034075.45749
  23699313.453 4 124540731.131 4  97044771.03448  23699324.86348
  20420382.672 6 107309835.900 6  83618072.97448  20420389.63748
  23373069.570 5 122826309.146 5  95708841.14346  23373077.68446
  22779043.516 5 119704675.433 5  93276414.50949  22779053.40649
  24564343.688 3 129086496.176 3 100586927.13047  24564355.15247
 20  5 16  3 31 58.0000000  0  9G01G04G07G08G09G11G16G27G30          0.000345325
  21908138.227 6 115128043.387 6  89710194.15249  21908150.20749
  24028394.523 5 126270065.803 5  98392302.22946  24028404.69946
  22000021.438 6 115610889.241 6  90086430.19449  22000028.84849
  21034380.555 6 110536412.755 6  86132297.08549  21034390.82449
  23699696.102 4 124542739.381 4  97046335.90248  23699707.00048
  20420243.109 6 107309103.173 6  83617502.02048  20420250.33248
  23373407.586 5 122828084.794 5  95710224.76746  23373415.57046
  22779593.734 5 119707567.527 5  93278668.09049  22779603.73049
  24563726.484 3 129083252.453 3 100584399.54948  24563737.79348
 20  5 16  3 31 59.0000000  0  9G01G04G07G08G09G11G16G27G30          0.000345428
  21907570.039 6 115125058.633 6  89707868.37449  21907581.73849
  24028926.156 5 126272857.900 5  98394477.88146  24028935.85246
  21999564.844 6 115608490.663 6  90084561.17549  21999572.42249
  21034695.688 6 110538069.410 6  86133587.98449  21034706.06649
  23700078.320 4 124544748.610 4  97047901.53448  23700089.49648
  20420103.969 6 107308371.667 6  83616932.01348  20420110.88748
  23373745.445 5 122829861.235 5  95711609.00947  23373753.76647
  22780143.688 5 119710460.328 5  93280922.22749  22780154.14849
  24563109.172 4 129080009.529 4 100581872.59748  24563120.45748
 20  5 16  3 32  0.0000000  0  9G01G04G07G08G09G11G16G27G30          0.000345530
  21907002.453 6 115122074.677 6  89705543.21349  21907014.02349
  24029457.141 5 126275650.430 5  98396653.88246  24029467.33646
  21999108.703 6 115606092.918 6  90082692.80349  21999115.87549
  21035010.898 6 110539726.730 6  86134879.40649  21035021.39849
  23700461.008 4 124546758.481 4  97049467.65548  23700471.77748
  20419964.984 6 107307641.188 6  83616362.80348  20419971.49648
  23374083.484 5 122831638.205 5  95712993.66146  23374091.73846
  22780694.195 5 119713353.595 5  93283176.71449  22780704.64849
  24562492.844 3 129076767.174 3 100579346.08647  24562503.40647
 20  5 16  3 32  1.0000000  0  9G01G04G07G08G09G11G16G27G30          0.000345633
  21906435.039 6 115119091.892 6  89703218.97149  21906446.35549
  24029988.766 5 126278443.679 5  98398830.45246  24029998.56646
  21998652.336 6 115603696.335 6  90080825.33249  21998660.18449
  21035326.695 6 110541385.047 6  86136171.59649  21035337.16049
  23700843.070 4 124548769.294 4  97051034.52248  23700854.80548
  20419826.484 6 107306912.015 6  83615794.62148  20419833.26648
  23374422.227 5 122833416.076 5  95714379.01846  23374430.24246
  22781245.063 5 119716247.649 5  93285431.81649  22781255.27349
  24561875.430 3 129073525.737 3 100576820.29048  24561887.08648
 20  5 16  3 32  2.0000000  0  9G01G04G07G08G09G11G16G27G30          0.000345734
  21905866.813 6 115116110.062 6  89700895.46849  21905879.02349
  24030521.383 5 126281237.462 5  98401007.43246  24030530.55546
  21998196.852 6 115601300.759 6  90078958.64949  21998204.16049
  21035642.445 6 110543044.163 6  86137464.41949  21035652.86749
  23701226.289 4 124550780.938 4  97052602.04148  23701237.57048
  20419688.070 6 107306184.011 6  83615227.34148  20419694.38748
  23374760.438 5 122835194.615 5  95715764.89346  23374768.27346
  22781796.102 5 119719142.314 5  93287687.39849  22781806.32849
  24561258.648 3 129070285.017 3 100574295.05448  24561269.95748
 20  5 16  3 32  3.0000000  0  9G01G04G07G08G09G11G16G27G30          0.000345837
  21905299.813 6 115113129.244 6  89698572.75549  21905312.09049
  24031052.273 5 126284031.848 5  98403184.87646  24031062.08646
  21997741.484 6 115598906.254 6  90077092.80449  21997748.63349
  21035958.078 6 110544704.224 6  86138757.97149  21035968.56349
  23701609.055 4 124552793.442 4  97054170.23048  23701620.45348
  20419549.859 6 107305457.280 6  83614661.05948  20419556.27348
  23375099.516 5 122836973.939 5  95717151.37346  23375107.48846
  22782347.563 5 119722037.723 5  93289943.55749  22782357.48849
  24560641.984 3 129067045.108 3 100571770.45148  24560653.76648
 20  5 16  3 32  4.0000000  0  9G01G04G07G08G09G11G16G27G30          0.000345942
  21904732.750 6 115110149.477 6  89696250.85949  21904744.74649
  24031584.367 5 126286826.888 5  98405362.82146  24031594.17246
  21997285.797 6 115596512.793 6  90075227.76249  21997293.06349
  21036274.305 6 110546365.098 6  86140052.15749  21036284.60949
  23701992.891 4 124554806.852 4  97055739.11948  23702003.39548
  20419411.719 6 107304731.719 6  83614095.68548  20419418.25448
  23375437.742 5 122838754.042 5  95718538.46646  23375445.97746
  22782898.047 6 119724933.778 6  93292200.22749  22782908.41449
  24560025.578 3 129063806.017 3 100569246.48347  24560037.29747
 20  5 16  3 32  5.0000000  0  9G01G04G07G08G09G11G16G27G30          0.000346045
  21904165.758 6 115107170.657 6  89693929.70249  21904177.81649
  24032116.203 5 126289622.412 5  98407541.13346  24032125.85246
  21996830.633 6 115594120.332 6  90073363.51049  21996838.07449
  21036590.469 6 110548026.827 6  86141347.01449  21036600.72349
  23702375.406 4 124556821.081 4  97057308.64648  23702386.67248
  20419273.711 6 107304007.328 6  83613531.22948  20419280.62948
  23375776.508 5 122840534.838 5  95719926.09846  23375784.42246
  22783449.250 5 119727830.450 5  93294457.37349  22783459.64549
  24559409.672 3 129060567.593 3 100566723.03848  24559421.15648
 20  5 16  3 32  6.0000000  0  9G01G04G07G08G09G11G16G27G30          0.000346149
  21903599.563 6 115104192.854 6  89691609.33449  21903611.42649
  24032648.844 5 126292418.587 5  98409719.97646  24032658.26646
  21996375.797 6 115591728.913 6  90071500.06949  21996382.58249
  21036906.688 6 110549689.429 6  86142642.54849  21036916.98849
  23702759.516 4 124558836.141 4  97058878.81748  23702770.11748
  20419135.945 6 107303284.167 6  83612967.72648  20419142.62948
  23376115.594 5 122842316.394 5  95721314.32346  23376123.91046
  22784000.930 5 119730727.813 5  93296715.05949  22784010.92649
  24558793.391 3 129057329.962 3 100564200.21348  24558804.75448
 20  5 16  3 32  7.0000000  0  9G01G04G07G08G09G11G16G27G30          0.000346254
  21903033.203 6 115101216.152 6  89689289.83449  21903044.98049
  24033180.148 5 126295215.446 5  98411899.34746  24033190.14546
  21995920.875 6 115589338.649 6  90069637.52549  21995928.26249
  21037223.453 6 110551352.991 6  86143938.82749  21037234.11749
  23703142.680 4 124560852.206 4  97060449.77448  23703154.00848
  20418998.539 6 107302562.279 6  83612405.21448  20419005.58248
  23376455.078 5 122844098.776 5  95722703.19947  23376462.95747
  22784552.477 6 119733625.925 6  93298973.32549  22784562.60949
  24558177.742 4 129054093.194 4 100561678.05447  24558188.43847
 20  5 16  3 32  8.0000000  0  9G01G04G07G08G09G11G16G27G30          0.000346359
  21902467.070 6 115098240.468 6  89686971.11349  21902478.83249
  24033712.711 5 126298012.902 5  98414079.19446  24033722.40646
  21995465.828 6 115586949.441 6  90067775.80549  21995473.37549
  21037540.016 6 110553017.411 6  86145235.77749  21037550.65649
  23703526.375 4 124562869.080 4  97062021.36148  23703537.78948
  20418861.813 6 107301841.622 6  83611843.66348  20418868.39848
  23376794.547 5 122845881.944 5  95724092.68046  23376802.27746
  22785104.203 5 119736524.716 5  93301232.12649  22785114.17649
  24557562.266 3 129050857.267 3 100559156.55548  24557573.46948
 20  5 16  3 32  9.0000000  0  9G01G04G07G08G09G11G16G27G30          0.000346464
  21901900.789 6 115095265.648 6  89684653.07849  21901912.69949
  24034245.344 5 126300810.827 5  98416259.39346  24034254.80146
  21995011.570 6 115584561.108 6  90065914.75949  21995018.68049
  21037856.898 6 110554682.568 6  86146533.30149  21037867.54749
  23703910.438 4 124564886.711 4  97063593.53648  23703921.60948
  20418724.625 6 107301122.014 6  83611282.93148  20418731.34048
  23377133.516 5 122847665.688 5  95725482.61046  23377141.59446
  22785655.820 5 119739424.053 5  93303491.34749  22785665.61749
  24556945.875 3 129047621.927 3 100556635.52248  24556957.23448
 20  5 16  3 32 10.0000000  0  9G01G04G07G08G09G11G16G27G30          0.000346571
  21901334.477 6 115092291.916 6  89682335.87849  21901346.63349
  24034777.750 5 126303609.375 5  98418440.06746  24034787.32046
  21994557.234 6 115582173.874 6  90064054.57949  21994564.11749
  21038173.969 6 110556348.664 6  86147831.55549  21038184.44949
  23704294.258 4 124566905.242 4  97065166.41648  23704305.67248
  20418588.188 6 107300403.681 6  83610723.19048  20418594.73448
  23377473.227 5 122849450.249 5  95726873.17546  23377481.02046
  22786207.180 5 119742324.087 5  93305751.11149  22786217.34449
  24556329.500 3 129044387.391 3 100554115.10948  24556342.16448
 20  5 16  3 32 11.0000000  0  9G01G04G07G08G09G11G16G27G30          0.000346676
  21900769.234 6 115089319.214 6  89680019.49049  21900780.83649
  24035310.391 5 126306408.566 5  98420621.24546  24035320.03146
  21994103.344 6 115579787.724 6  90062195.23849  21994110.13349
  21038491.406 6 110558015.640 6  86149130.49449  21038501.58649
  23704678.602 4 124568924.643 4  97066739.96648  23704690.21548
  20418451.531 6 107299686.568 6  83610164.39648  20418458.18448
  23377813.055 5 122851235.545 5  95728264.31046  23377821.00846
  22786759.516 5 119745224.814 5  93308011.41749  22786769.35249
  24555715.273 4 129041153.710 4 100551595.36447  24555726.33247
 20  5 16  3 32 12.0000000  0  9G01G04G07G08G09G11G16G27G30          0.000346783
  21900203.500 6 115086347.439 6  89677703.82349  21900215.23449
  24035843.227 5 126309208.306 5  98422802.85246  24035853.03146
  21993649.688 6 115577402.577 6  90060336.68549  21993656.70749
  21038808.930 6 110559683.472 6  86150430.10449  21038819.04749
  23705063.328 4 124570944.921 4  97068314.20148  23705074.71548
  20418315.258 6 107298970.612 6  83609606.51248  20418321.83248
  23378152.953 5 122853021.602 5  95729656.04046  23378161.01646
  22787311.492 5 119748126.160 5  93310272.20249  22787321.56349
  24555100.242 4 129037920.745 4 100549076.17248  24555111.57048
 20  5 16  3 32 13.0000000  0  9G01G04G07G08G09G11G16G27G30          0.000346891
  21899638.148 6 115083376.680 6  89675388.95549  21899649.81649
  24036375.813 4 126312008.604 4  98424984.90046  24036385.59446
  21993195.563 6 115575018.417 6  90058478.89549  21993202.67249
  21039126.148 6 110561352.123 6  86151730.35449  21039136.73449
  23705448.469 4 124572965.964 4  97069889.03248  23705459.55548
  20418179.398 6 107298255.832 6  83609049.54348  20418185.82048
  23378493.109 5 122854808.346 5  95731048.30647  23378501.01647
  22787863.852 5 119751028.157 5  93312533.49449  22787873.89149
  24554484.883 3 129034688.491 3 100546557.53248  24554496.30948
 20  5 16  3 32 14.0000000  0  9G01G04G07G08G09G11G16G27G30          0.000346998
  21899073.023 6 115080406.949 6  89673074.88349  21899084.60949
  24036909.328 5 126314809.524 5  98427167.43146  24036918.75446
  21992742.430 6 115572635.334 6  90056621.94449  21992749.24649
  21039443.961 6 110563021.676 6  86153031.30749  21039454.54349
  23705833.266 4 124574987.935 4  97071464.59048  23705843.97748
  20418043.328 6 107297542.326 6  83608493.56448  20418050.15648
  23378833.375 5 122856595.877 5  95732441.18446  23378841.09846
  22788415.961 5 119753930.861 5  93314795.34549  22788425.99649
  24553869.977 3 129031457.066 3 100544039.53847  24553881.10947
 20  5 16  3 32 15.0000000  0  9G01G04G07G08G09G11G16G27G30          0.000347105
  21898508.703 6 115077438.262 6  89670761.61849  21898520.36749
  24037442.094 4 126317611.078 4  98429350.45746  24037451.93846
  21992289.234 6 115570253.323 6  90054765.83349  21992295.93849
  21039761.977 6 110564692.094 6  86154332.92849  21039772.38349
  23706218.297 4 124577010.739 4  97073040.79648  23706229.12948
  20417908.000 6 107296829.976 6  83607938.48848  20417914.64148
  23379173.266 5 122858384.153 5  95733834.64646  23379181.96546
  22788968.406 5 119756834.244 5  93317057.71949  22788978.81649
  24553255.781 3 129028226.400 3 100541522.14048  24553266.35248
 20  5 16  3 32 16.0000000  0  9G01G04G07G08G09G11G16G27G30          0.000347214
  21897943.375 6 115074470.367 6  89668448.97349  21897955.05549
  24037975.891 5 126320413.017 5  98431533.78046  24037985.35546
  21991835.789 6 115567872.166 6  90052910.38449  21991842.78949
  21040079.844 6 110566363.196 6  86155635.08649  21040089.99649
  23706602.703 4 124579034.222 4  97074617.53148  23706614.27748
  20417771.945 6 107296118.690 6  83607384.23848  20417779.32848
  23379513.625 5 122860173.002 5  95735228.54846  23379521.78946
  22789521.031 6 119759738.074 6  93319320.44149  22789531.37149
  24552640.906 3 129024996.379 3 100539005.24548  24552651.41848
 20  5 16  3 32 17.0000000  0  9G01G04G07G08G09G11G16G27G30          0.000347322
  21897379.094 6 115071503.472 6  89666137.10949  21897390.53549
  24038508.531 4 126323215.539 4  98433717.56346  24038518.17246
  21991382.711 6 115565492.040 6  90051055.74149  21991389.96149
  21040397.703 6 110568035.171 6  86156937.92149  21040408.33249
  23706988.219 4 124581058.546 4  97076194.92648  23706999.09048
  20417637.563 6 107295408.582 6  83606830.90648  20417644.25048
  23379854.734 5 122861962.579 5  95736623.02446  23379862.44146
  22790074.047 5 119762642.564 5  93321583.68349  22790083.90249
  24552026.742 4 129021767.082 4 100536488.90448  24552037.39848
 20  5 16  3 32 18.0000000  0  9G01G04G07G08G09G11G16G27G30          0.000347431
  21896814.578 6 115068537.605 6  89663826.04149  21896826.40649
  24039041.906 5 126326018.639 5  98435901.79546  24039052.18846
  21990929.641 6 115563112.931 6  90049201.89149  21990936.91049
  21040716.203 6 110569707.973 6  86158241.40649  21040727.16449
  23707373.727 4 124583083.728 4  97077772.98748  23707384.48048
  20417502.609 6 107294699.651 6  83606278.48948  20417509.10248
  23380194.906 5 122863752.885 5  95738018.06946  23380202.90646
  22790626.523 5 119765547.717 5  93323847.43849  22790636.63349
  24551411.695 3 129018538.553 3 100533973.17347  24551423.08247
 20  5 16  3 32 19.0000000  0  9G01G04G07G08G09G11G16G27G30          0.000347542
  21896250.414 6 115065572.676 6  89661515.70749  21896261.93449
  24039575.773 4 126328822.296 4  98438086.46646  24039585.55546
  21990477.570 6 115560734.824 6  90047348.82049  21990484.69949
  21041034.789 6 110571381.631 6  86159545.55449  21041045.22349
  23707759.148 4 124585109.725 4  97079351.68648  23707770.48848
  20417367.625 6 107293991.920 6  83605727.01948  20417374.46148
  23380535.711 5 122865543.896 5  95739413.66046  23380544.23846
  22791179.891 5 119768453.511 5  93326111.68849  22791189.93849
  24550797.672 3 129015310.751 3 100531457.99948  24550808.55548
 20  5 16  3 32 20.0000000  0  9G01G04G07G08G09G11G16G27G30          0.000347651
  21895686.492 6 115062608.847 6  89659206.23249  21895698.08249
  24040109.750 5 126331626.618 5  98440271.63446  24040119.55546
  21990025.570 6 115558357.838 6  90045496.62549  21990032.34049
  21041353.508 6 110573056.258 6  86160850.45449  21041364.03549
  23708144.898 4 124587136.624 4  97080931.08848  23708156.14548
  20417233.320 6 107293285.433 6  83605176.50348  20417240.07848
  23380876.883 5 122867335.723 5  95740809.89146  23380885.12546
  22791732.547 6 119771360.025 6  93328376.50649  22791742.53549
  24550183.852 3 129012083.819 3 100528943.50748  24550194.86748
 20  5 16  3 32 21.0000000  0  9G01G04G07G08G09G11G16G27G30          0.000347761
  21895122.227 6 115059645.886 6  89656897.43349  21895134.03949
  24040642.969 5 126334431.416 5  98442457.18946  24040653.09446
  21989573.148 6 115555981.775 6  90043645.15149  21989580.00849
  21041672.383 6 110574731.615 6  86162155.92749  21041682.39849
  23708531.125 5 124589164.316 5  97082511.10148  23708541.55148
  20417099.242 6 107292580.049 6  83604626.85748  20417105.96548
  23381217.422 5 122869128.204 5  95742206.63546  23381225.62946
  22792285.906 6 119774267.083 6  93330641.74449  22792295.73449
  24549569.617 4 129008857.521 4 100526429.50648  24549580.75048
 20  5 16  3 32 22.0000000  0  9G01G04G07G08G09G11G16G27G30          0.000347872
  21894558.820 6 115056683.964 6  89654589.44249  21894570.59849
  24041177.422 5 126337236.822 5  98444643.21446  24041186.90246
  21989121.078 6 115553606.770 6  90041794.49749  21989127.99249
  21041991.156 6 110576407.852 6  86163462.08649  21042001.47349
  23708916.570 4 124591192.828 4  97084091.75948  23708927.34048
  20416965.344 6 107291875.871 6  83604078.14548  20416971.80548
  23381559.094 5 122870921.425 5  95743603.95046  23381566.92646
  22792839.031 6 119777174.821 6  93332907.51449  22792849.37949
  24548955.711 3 129005632.008 3 100523916.12848  24548966.86748
 20  5 16  3 32 23.0000000  0  9G01G04G07G08G09G11G16G27G30          0.000347982
  21893995.391 6 115053723.088 6  89652282.27349  21894007.35549
  24041710.977 5 126340042.853 5  98446829.72246  24041720.87946
  21988669.266 6 115551232.857 6  90039944.69649  21988676.42249
  21042310.359 6 110578084.989 6  86164768.94549  21042320.73049
  23709302.570 4 124593222.227 4  97085673.10548  23709313.54348
  20416831.609 6 107291172.945 6  83603530.41448  20416838.01648
  23381900.297 5 122872715.438 5  95745001.87947  23381908.53147
  22793392.680 6 119780083.290 6  93335173.85449  22793402.62149
  24548342.648 4 129002407.321 4 100521403.38748  24548353.23448
 20  5 16  3 32 24.0000000  0  9G01G04G07G08G09G11G16G27G30          0.000348093
  21893432.172 6 115050763.169 6  89649975.84549  21893444.15249
  24042245.695 5 126342849.405 5  98449016.65146  24042254.85246
  21988217.875 6 115548859.903 6  90038095.63849  21988224.68049
  21042629.602 6 110579762.954 6  86166076.45349  21042640.38749
  23709689.203 4 124595252.444 4  97087255.09748  23709700.10248
  20416697.992 6 107290471.152 6  83602983.55748  20416704.52748
  23382242.078 5 122874510.137 5  95746400.34146  23382250.15646
  22793946.336 5 119782992.330 5  93337440.63549  22793956.39549
  24547728.555 4 128999183.297 4 100518891.15948  24547739.68048
 20  5 16  3 32 25.0000000  0  9G01G04G07G08G09G11G16G27G30          0.000348206
  21892869.320 6 115047804.114 6  89647670.08949  21892880.93049
  24042779.469 5 126345656.417 5  98451203.93846  24042788.93046
  21987766.578 6 115546487.889 6  90036247.31149  21987773.73049
  21042949.117 6 110581441.657 6  86167384.53449  21042959.47749
  23710075.727 4 124597283.399 4  97088837.65848  23710086.42248
  20416564.781 6 107289770.446 6  83602437.55448  20416571.24248
  23382583.484 5 122876305.423 5  95747799.26146  23382591.84846
  22794499.945 6 119785901.944 6  93339707.86549  22794509.84049
  24547115.992 4 128995959.985 4 100516379.48948  24547126.10548
 20  5 16  3 32 26.0000000  0  9G01G04G07G08G09G11G16G27G30          0.000348318
  21892305.727 6 115044845.996 6  89645365.06149  21892317.75449
  24043313.359 5 126348463.977 5  98453391.63246  24043323.42246
  21987315.227 6 115544116.791 6  90034399.70049  21987321.91049
  21043268.375 6 110583121.134 6  86168693.21949  21043278.89149
  23710462.305 4 124599315.119 4  97090420.81548  23710473.08248
  20416431.461 6 107289070.858 6  83601892.41748  20416437.99248
  23382925.391 5 122878101.422 5  95749198.73946  23382932.89146
  22795053.727 6 119788812.099 6  93341975.52149  22795063.75049
  24546502.141 4 128992737.340 4 100513868.33048  24546513.39848
 20  5 16  3 32 27.0000000  0  9G01G04G07G08G09G11G16G27G30          0.000348431
  21891743.484 6 115041888.883 6  89643060.82149  21891755.08649
  24043848.664 5 126351272.061 5  98455579.74346  24043857.53546
  21986864.031 6 115541746.770 6  90032552.93649  21986871.33249
  21043588.289 6 110584801.498 6  86170002.58949  21043598.62949
  23710848.891 4 124601347.662 4  97092004.61048  23710859.59448
  20416298.414 6 107288372.485 6  83601348.23348  20416305.43848
  23383267.508 5 122879898.128 5  95750598.76346  23383275.13746
  22795607.625 6 119791722.927 6  93344243.69349  22795617.60949
  24545889.867 4 128989515.474 4 100511357.78648  24545899.80548
 20  5 16  3 32 28.0000000  0  9G01G04G07G08G09G11G16G27G30          0.000348543
  21891180.828 6 115038932.771 6  89640757.35749  21891192.28949
  24044382.641 5 126354080.804 5  98457768.36746  24044392.40246
  21986413.594 6 115539377.771 6  90030706.96849  21986420.39549
  21043908.750 6 110586482.696 6  86171312.61549  21043918.88349
  23711235.266 4 124603381.076 4  97093589.08648  23711246.62548
  20416165.703 6 107287675.304 6  83600804.97448  20416172.40248
  23383609.195 5 122881695.575 5  95751999.37346  23383617.09446
  22796161.781 5 119794634.426 5  93346512.39649  22796171.98849
  24545276.719 4 128986294.375 4 100508847.84348  24545287.03148
 20  5 16  3 32 29.0000000  0  9G01G04G07G08G09G11G16G27G30          0.000348656
  21890618.492 6 115035977.624 6  89638454.64649  21890630.10549
  24044917.641 5 126356890.055 5  98459957.38846  24044926.94146
  21985963.117 6 115537009.770 6  90028861.76949  21985970.16449
  21044228.188 6 110588164.706 6  86172623.27449  21044239.10949
  23711623.477 4 124605415.299 4  97095174.19248  23711633.56648
  20416033.750 6 107286979.262 6  83600262.60748  20416040.26248
  23383951.523 5 122883493.757 5  95753400.55946  23383959.04746
  22796716.031 5 119797546.545 5  93348781.58249  22796726.08649
  24544663.031 4 128983074.000 4 100506338.45947  24544673.85947
 20  5 16  3 32 30.0000000  0  9G01G04G07G08G09G11G16G27G30          0.000348770
  21890056.789 6 115033023.561 6  89636152.77649  21890068.11749
  24045452.063 5 126359699.942 5  98462146.91046  24045461.46946
  21985512.648 6 115534642.861 6  90027017.42949  21985519.71149
  21044548.938 6 110589847.618 6  86173934.63449  21044559.29349
  23712009.922 4 124607450.438 4  97096760.01048  23712021.04748
  20415901.289 6 107286284.465 6  83599721.20348  20415907.82848
  23384294.016 5 122885292.714 5  95754802.34846  23384301.81646
  22797270.281 5 119800459.345 5  93351051.29349  22797279.98849
  24544050.758 3 128979854.431 3 100503829.70647  24544061.51647
 20  5 16  3 32 31.0000000  0  9G01G04G07G08G09G11G16G27G30          0.000348885
  21889494.344 6 115030070.429 6  89633851.63249  21889506.22349
  24045986.563 5 126362510.361 5  98464336.85046  24045996.29746
  21985062.344 6 115532276.945 6  90025173.85949  21985069.35949
  21044869.234 6 110591531.365 6  86175246.64249  21044879.35949
  23712397.406 4 124609486.341 4  97098346.42748  23712408.53148
  20415769.234 6 107285590.838 6  83599180.71548  20415775.87948
  23384636.258 5 122887092.353 5  95756204.65746  23384644.10546
  22797824.383 5 119803372.778 5  93353321.50449  22797834.14149
  24543438.648 4 128976635.587 4 100501321.51947  24543448.96547
 20  5 16  3 32 32.0000000  0  9G01G04G07G08G09G11G16G27G30          0.000348999
  21888932.453 6 115027118.203 6  89631551.20049  21888944.25449
  24046522.016 5 126365321.276 5  98466527.16946  24046531.34446
  21984612.250 6 115529911.947 6  90023331.00049  21984619.27049
  21045189.438 6 110593215.849 6  86176559.22949  21045200.30949
  23712785.289 4 124611523.022 4  97099933.45148  23712795.85248
  20415637.508 6 107284898.298 6  83598641.07648  20415644.30148
  23384978.984 5 122888892.661 5  95757607.50046  23384987.08646
  22798379.070 5 119806286.798 5  93355592.16349  22798389.19149
  24542825.969 3 128973417.417 3 100498813.85847  24542836.52347
 20  5 16  3 32 33.0000000  0  9G01G04G07G08G09G11G16G27G30          0.000349113
  21888370.875 6 115024166.929 6  89629251.50849  21888382.63349
  24047056.797 5 126368132.725 5  98468717.90946  24047066.46946
  21984162.703 6 115527547.955 6  90021488.92349  21984169.51249
  21045510.375 6 110594901.146 6  86177872.44549  21045521.03949
  23713172.789 4 124613560.475 4  97101521.06748  23713183.86748
  20415506.109 6 107284206.928 6  83598102.34648  20415512.85248
  23385321.633 5 122890693.633 5  95759010.84246  23385329.37146
  22798934.477 5 119809201.384 5  93357863.27049  22798943.94949
  24542212.766 3 128970199.956 3 100496306.74448  24542224.62948
 20  5 16  3 32 34.0000000  0  9G01G04G07G08G09G11G16G27G30          0.000349228
  21887809.430 6 115021216.589 6  89626952.54549  21887821.44949
  24047591.945 5 126370944.701 5  98470909.06346  24047601.76246
  21983712.617 6 115525184.930 6  90019647.60349  21983719.77349
  21045831.133 6 110596587.269 6  86179186.30849  21045841.57049
  23713560.758 4 124615598.743 4  97103109.32448  23713571.73448
  20415374.672 6 107283516.676 6  83597564.48848  20415381.31348
  23385664.289 5 122892495.294 5  95760414.72846  23385672.46546
  22799488.891 5 119812116.561 5  93360134.83149  22799498.32049
  24541601.359 3 128966983.222 3 100493800.19848  24541612.05548
 20  5 16  3 32 35.0000000  0  9G01G04G07G08G09G11G16G27G30          0.000349344
  21887248.414 6 115018267.130 6  89624654.26949  21887260.32849
  24048126.641 5 126373757.110 5  98473100.54246  24048136.69146
  21983263.219 6 115522822.792 6  90017806.97949  21983270.21549
  21046152.195 6 110598274.093 6  86180500.71549  21046162.49649
  23713948.266 4 124617637.708 4  97104698.12648  23713959.30948
  20415243.859 6 107282827.488 6  83597027.45748  20415250.18848
  23386007.961 5 122894297.569 5  95761819.09846  23386015.36746
  22800043.727 5 119815032.273 5  93362406.82249  22800053.52349
  24540989.070 4 128963767.104 4 100491294.13548  24541000.39148
 20  5 16  3 32 36.0000000  0  9G01G04G07G08G09G11G16G27G30          0.000349459
  21886687.336 6 115015318.618 6  89622356.72949  21886698.77349
  24048661.969 5 126376570.109 5  98475292.48246  24048672.29346
  21982813.828 6 115520461.681 6  90015967.15349  21982820.82849
  21046473.438 6 110599961.743 6  86181815.77049  21046483.77349
  23714336.906 4 124619677.496 4  97106287.57548  23714347.84048
  20415112.719 6 107282139.472 6  83596491.34348  20415119.35548
  23386350.516 5 122896100.542 5  95763224.01346  23386358.76646
  22800598.742 5 119817948.610 5  93364679.28749  22800608.55549
  24540378.117 4 128960551.727 4 100488788.64648  24540388.40248
 20  5 16  3 32 37.0000000  0  9G01G04G07G08G09G11G16G27G30          0.000349575
  21886126.336 6 115012371.052 6  89620059.92749  21886138.18449
  24049197.016 5 126379383.562 5  98477484.77346  24049207.35246
  21982364.844 6 115518101.497 6  90014128.05049  21982371.79349
  21046794.570 6 110601650.161 6  86183131.41449  21046804.97749
  23714725.000 4 124621718.022 4  97107877.59948  23714735.90248
  20414981.742 6 107281452.550 6  83595956.07748  20414988.37148
  23386693.508 5 122897904.170 5  95764629.44446  23386701.27346
  22801153.313 5 119820865.527 5  93366952.20949  22801163.50049
  24539765.750 3 128957337.005 3 100486283.67247  24539776.66047
 20  5 16  3 32 38.0000000  0  9G01G04G07G08G09G11G16G27G30          0.000349691
  21885565.492 6 115009424.354 6  89617763.79349  21885577.63349
  24049732.813 5 126382197.465 5  98479677.42146  24049743.03946
  21981915.539 6 115515742.232 6  90012289.66449  21981922.49249
  21047116.141 6 110603339.303 6  86184447.63249  21047126.56349
  23715113.523 4 124623759.278 4  97109468.18548  23715124.51248
  20414851.164 6 107280766.686 6  83595421.63948  20414857.80548
  23387037.016 5 122899708.404 5  95766035.34146  23387044.89146
  22801708.922 5 119823782.932 5  93369225.51249  22801718.57449
  24539154.461 3 128954122.955 3 100483779.22347  24539165.01647
 20  5 16  3 32 39.0000000  0  9G01G04G07G08G09G11G16G27G30          0.000349808
  21885005.445 6 115006478.500 6  89615468.32449  21885016.96549
  24050267.672 5 126385011.807 5  98481870.41546  24050278.67246
  21981467.227 6 115513383.843 6  90010451.95949  21981473.80549
  21047437.258 6 110605029.180 6  86185764.41549  21047447.99649
  23715502.039 4 124625801.216 4  97111059.30748  23715512.90248
  20414720.914 6 107280081.895 6  83594888.03548  20414727.86748
  23387380.422 5 122901513.210 5  95767441.67946  23387388.47746
  22802263.945 5 119826700.873 5  93371499.22649  22802273.85949
  24538542.516 4 128950909.522 4 100481275.24547  24538553.25447
 20  5 16  3 32 40.0000000  0  9G01G04G07G08G09G11G16G27G30          0.000349926
  21884444.891 6 115003533.633 6  89613173.62349  21884456.58649
  24050804.547 5 126387826.712 5  98484063.85446  24050814.12146
  21981018.320 6 115511026.493 6  90008615.06449  21981025.86349
  21047759.383 6 110606719.900 6  86187081.86149  21047769.95349
  23715890.547 4 124627844.029 4  97112651.10348  23715901.78548
  20414590.758 6 107279398.273 6  83594355.34048  20414597.71948
  23387724.656 5 122903318.749 5  95768848.58946  23387732.00446
  22802819.359 5 119829619.452 5  93373773.44149  22802829.31349
  24537931.375 4 128947696.833 4 100478771.85147  24537941.96947
 20  5 16  3 32 41.0000000  0  9G01G04G07G08G09G11G16G27G30          0.000350042
  21883884.469 6 115000589.663 6  89610879.62249  21883896.60549
  24051339.500 5 126390642.116 5  98486257.67446  24051350.01646
  21980569.883 6 115508670.056 6  90006778.88149  21980577.10949
  21048081.180 6 110608411.357 6  86188399.88249  21048091.86349
  23716279.211 4 124629887.535 4  97114243.43648  23716291.03148
  20414460.945 6 107278715.725 6  83593823.48748  20414467.68448
  23388067.570 5 122905124.925 5  95770255.99146  23388075.73046
  22803375.156 5 119832538.587 5  93376048.09049  22803384.81349
  24537320.234 4 128944484.760 4 100476268.93747  24537330.77747
 20  5 16  3 32 42.0000000  0  9G01G04G07G08G09G11G16G27G30          0.000350161
  21883324.711 6 114997646.575 6  89608586.30849  21883336.07049
  24051875.422 5 126393457.928 5  98488451.81346  24051885.79746
  21980121.797 6 115506314.529 6  90004943.39749  21980128.90649
  21048403.305 6 110610103.524 6  86189718.45349  21048413.84449
  23716668.320 4 124631931.757 4  97115836.33148  23716679.77348
  20414331.070 6 107278034.249 6  83593292.46948  20414338.00448
  23388411.148 5 122906931.690 5  95771663.86046  23388419.64546
  22803930.086 5 119835458.234 5  93378323.14349  22803940.34849
  24536709.180 4 128941273.380 4 100473766.56647  24536719.43047
 20  5 16  3 32 43.0000000  0  9G01G04G07G08G09G11G16G27G30          0.000350279
  21882764.563 6 114994704.415 6  89606293.72149  21882776.26649
  24052411.258 5 126396274.288 5  98490646.37946  24052422.01646
  21979673.305 6 115503959.959 6  90003108.67149  21979680.84049
  21048725.359 6 110611796.502 6  86191037.65149  21048735.66849
  23717058.086 4 124633976.771 4  97117429.84848  23717069.12148
  20414202.078 6 107277353.898 6  83592762.32248  20414208.49248
  23388755.414 5 122908739.151 5  95773072.26946  23388763.35246
  22804486.500 5 119838378.473 5  93380598.65249  22804496.39549
  24536098.367 4 128938062.667 4 100471264.70747  24536108.57447
 20  5 16  3 32 44.0000000  0  9G01G04G07G08G09G11G16G27G30          0.000350397
  21882204.891 6 114991763.094 6  89604001.78549  21882216.67249
  24052947.148 5 126399091.042 5  98492841.24146  24052958.36746
  21979225.813 6 115501606.265 6  90001274.61949  21979232.88749
  21049047.578 6 110613490.166 6  86192357.39349  21049057.83249
  23717447.141 4 124636022.431 4  97119023.86148  23717458.34848
  20414072.703 6 107276674.576 6  83592232.97948  20414079.21548
  23389099.813 5 122910547.156 5  95774481.10447  23389107.37147
  22805041.992 5 119841299.183 5  93382874.53049  22805051.88749
  24535487.461 4 128934852.588 4 100468763.34547  24535497.69547
 20  5 16  3 32 45.0000000  0  9G01G04G07G08G09G11G16G27G30          0.000350515
  21881645.039 6 114988822.645 6  89601710.52749  21881657.31649
  24053484.031 5 126401908.278 5  98495036.48146  24053493.96546
  21978777.938 6 115499253.506 6  89999441.30149  21978785.09049
  21049370.000 6 110615184.574 6  86193677.70849  21049380.43049
  23717836.750 4 124638068.888 4  97120618.50048  23717847.85548
  20413943.703 6 107275996.342 6  83591704.48748  20413950.19148
  23389444.000 5 122912355.791 5  95775890.43446  23389451.63746
  22805598.117 5 119844220.462 5  93385150.84349  22805607.64849
  24534876.461 4 128931643.100 4 100466262.45647  24534886.88747
 20  5 16  3 32 46.0000000  0  9G01G04G07G08G09G11G16G27G30          0.000350636
  21881085.695 6 114985883.145 6  89599420.00649  21881097.96549
  24054019.742 5 126404726.057 5  98497232.14446  24054030.31346
  21978330.508 6 115496901.695 6  89997608.72349  21978337.78949
  21049692.633 6 110616879.772 6  86194998.64249  21049702.89849
  23718226.555 4 124640116.060 4  97122213.68948  23718237.35248
  20413814.641 6 107275319.231 6  83591176.86648  20413821.17248
  23389788.445 5 122914165.111 5  95777300.29146  23389795.68846
  22806153.797 5 119847142.297 5  93387427.59949  22806163.55149
  24534265.500 4 128928434.395 4 100463762.16547  24534276.14847
 20  5 16  3 32 47.0000000  0  9G01G04G07G08G09G11G16G27G30          0.000350754
  21880527.094 6 114982944.593 6  89597130.22949  21880538.43849
  24054556.117 4 126407544.299 4  98499428.17346  24054566.73846
  21977883.219 6 115494550.869 6  89995776.91149  21977890.00049
  21050015.555 6 110618575.753 6  86196320.18749  21050025.38749
  23718616.211 4 124642164.010 4  97123809.49448  23718626.95348
  20413685.922 6 107274643.262 6  83590650.13948  20413692.93448
  23390132.719 5 122915975.091 5  95778710.66646  23390140.41846
  22806710.000 5 119850064.723 5  93389704.81549  22806719.80149
  24533654.789 4 128925226.319 4 100461262.37248  24533665.73048
 20  5 16  3 32 48.0000000  0  9G01G04G07G08G09G11G16G27G30          0.000350874
  21879967.789 6 114980006.899 6  89594841.11649  21879979.24649
  24055092.422 5 126410363.010 5  98501624.56646  24055103.19946
  21977436.320 6 115492200.973 6  89993945.82349  21977443.07849
  21050338.211 6 110620272.478 6  86197642.31249  21050348.64549
  23719006.133 4 124644212.690 4  97125405.86948  23719016.90648
  20413557.406 6 107273968.380 6  83590124.25448  20413564.33648
  23390477.602 5 122917785.707 5  95780121.54046  23390485.32446
  22807266.414 5 119852987.708 5  93391982.46149  22807276.15249
  24533044.984 4 128922018.941 4 100458763.11547  24533055.87147
 20  5 16  3 32 49.0000000  0  9G01G04G07G08G09G11G16G27G30          0.000350994
  21879408.852 6 114977070.164 6  89592552.75649  21879420.72749
  24055628.750 5 126413182.242 5  98503821.37546  24055639.98446
  21976989.219 6 115489851.990 6  89992115.44649  21976995.95349
  21050661.445 6 110621969.971 6  86198965.03349  21050671.90649
  23719396.766 4 124646262.153 4  97127002.85248  23719407.60548
  20413429.383 6 107273294.571 6  83589599.21148  20413436.14848
  23390821.984 5 122919596.953 5  95781532.89946  23390829.44546
  22807822.648 5 119855911.241 5  93394260.54449  22807832.72749
  24532434.586 4 128918812.230 4 100456264.37948  24532445.48848
 20  5 16  3 32 50.0000000  0  9G01G04G07G08G09G11G16G27G30          0.000351114
  21878850.258 6 114974134.302 6  89590265.07149  21878862.23449
  24056165.531 5 126416001.972 5  98506018.54946  24056176.94146
  21976542.672 6 115487503.963 6  89990285.81749  21976549.27049
  21050984.609 7 110623668.253 7  86200288.36649  21050994.84049
  23719786.438 4 124648312.387 4  97128600.43348  23719796.69148
  20413301.508 6 107272621.895 6  83589075.05448  20413308.37948
  23391166.570 5 122921408.863 5  95782944.77046  23391174.60546
  22808378.453 5 119858835.356 5  93396539.07649  22808388.84049
  24531824.172 3 128915606.212 3 100453766.18647  24531835.32847
 20  5 16  3 32 51.0000000  0  9G01G04G07G08G09G11G16G27G30          0.000351236
  21878291.953 6 114971199.350 6  89587978.09649  21878303.50849
  24056701.883 5 126418822.130 5  98508216.08146  24056713.31646
  21976096.008 6 115485156.887 6  89988456.92249  21976102.50049
  21051307.797 7 110625367.266 7  86201612.27249  21051318.27749
  23720176.625 4 124650363.292 4  97130198.54048  23720186.98848
  20413173.242 6 107271950.299 6  83588551.72548  20413180.21148
  23391512.305 5 122923221.424 5  95784357.15247  23391519.58647
  22808935.594 5 119861760.011 5  93398818.02649  22808945.44949
  24531214.391 3 128912400.805 3 100451268.47248  24531225.34848
 20  5 16  3 32 52.0000000  0  9G01G04G07G08G09G11G16G27G30          0.000351357
  21877733.414 6 114968265.186 6  89585691.73149  21877745.21549
  24057238.961 5 126421642.672 5  98510413.91146  24057249.76646
  21975649.125 6 115482810.588 6  89986628.64049  21975656.10549
  21051630.961 7 110627066.912 7  86202936.67049  21051641.69949
  23720566.859 4 124652414.886 4  97131797.18048  23720577.42248
  20413045.727 6 107271279.663 6  83588029.15548  20413052.73448
  23391856.688 5 122925034.443 5  95785769.89347  23391864.51647
  22809491.938 5 119864685.064 5  93401097.28949  22809502.05949
  24530604.406 3 128909195.969 3 100448771.19248  24530615.73448
 20  5 16  3 32 53.0000000  0  9G01G04G07G08G09G11G16G27G30          0.000351479
  21877175.156 6 114965331.889 6  89583406.04949  21877186.84849
  24057775.430 5 126424463.638 5  98512612.06246  24057787.10946
  21975202.828 6 115480465.192 6  89984801.06049  21975209.92649
  21051954.773 6 110628767.288 6  86204261.63549  21051964.68049
  23720957.594 4 124654467.135 4  97133396.33448  23720967.87548
  20412918.531 6 107270610.087 6  83587507.40548  20412925.01648
  23392201.766 5 122926848.106 5  95787183.13646  23392209.28146
  22810048.438 5 119867610.679 5  93403376.99149  22810058.76249
  24529995.109 3 128905991.766 3 100446274.41248  24530005.77048
 20  5 16  3 32 54.0000000  0  9G01G04G07G08G09G11G16G27G30          0.000351601
  21876617.305 6 114962399.482 6  89581121.05649  21876629.13749
  24058312.805 5 126427285.117 5  98514810.60346  24058324.07846
  21974756.914 6 115478120.763 6  89982974.23249  21974763.68449
  21052278.227 6 110630468.396 6  86205587.17449  21052288.97349
  23721347.813 4 124656520.126 4  97134996.06448  23721358.75448
  20412791.195 6 107269941.605 6  83586986.51348  20412798.19148
  23392547.000 5 122928662.396 5  95788596.86446  23392554.66446
  22810605.672 5 119870536.835 5  93405657.10749  22810615.64149
  24529385.852 3 128902788.205 3 100443778.12847  24529396.01647
 20  5 16  3 32 55.0000000  0  9G01G04G07G08G09G11G16G27G30          0.000351723
  21876059.258 6 114959467.848 6  89578836.66749  21876070.35249
  24058849.922 5 126430106.927 5  98517009.39746  24058860.89846
  21974310.516 6 115475777.103 6  89981148.00149  21974317.46149
  21052602.172 6 110632170.127 6  86206913.20349  21052612.87149
  23721738.531 5 124658573.750 5  97136596.28848  23721749.42648
  20412664.125 6 107269274.092 6  83586466.37148  20412671.31348
  23392891.852 5 122930477.167 5  95790010.97646  23392900.22746
  22811162.570 5 119873463.406 5  93407937.55049  22811172.18849
  24528776.352 4 128899585.256 4 100441282.32948  24528786.61348
 20  5 16  3 32 56.0000000  0  9G01G04G07G08G09G11G16G27G30          0.000351845
  21875501.469 6 114956536.993 6  89576552.88949  21875513.28549
  24059386.547 5 126432929.077 5  98519208.47646  24059398.21546
  21973864.977 6 115473434.283 6  89979322.42649  21973872.11349
  21052926.438 6 110633872.471 6  86208239.70249  21052936.72349
  23722129.594 5 124660627.978 5  97138196.98448  23722139.93048
  20412537.766 6 107268607.539 6  83585946.98348  20412544.18448
  23393237.680 5 122932292.487 5  95791425.50446  23393245.50046
  22811719.430 5 119876390.407 5  93410218.32749  22811729.26649
  24528167.109 3 128896382.764 3 100438786.88247  24528177.32047
 20  5 16  3 32 57.0000000  0  9G01G04G07G08G09G11G16G27G30          0.000351967
  21874944.297 6 114953606.964 6  89574269.74949  21874955.59049
  24059924.141 5 126435751.615 5  98521407.84746  24059934.78946
  21973419.102 6 115471092.279 6  89977497.49249  21973426.47749
  21053250.586 6 110635575.515 6  86209566.75349  21053260.54749
  23722520.766 5 124662682.879 5  97139798.20548  23722531.10248
  20412410.844 6 107267942.015 6  83585428.39248  20412417.40648
  23393582.883 5 122934108.338 5  95792840.45046  23393591.00046
  22812276.813 5 119879317.883 5  93412499.47349  22812286.54349
  24527557.633 3 128893180.871 3 100436291.90548  24527567.79748
 20  5 16  3 32 58.0000000  0  9G01G04G07G08G09G11G16G27G30          0.000352089
  21874386.586 6 114950677.838 6  89571987.31349  21874398.58649
  24060461.070 5 126438574.668 5  98523607.61946  24060472.48446
  21972973.805 6 115468751.248 6  89975673.31049  21972980.71149
  21053574.422 6 110637279.325 6  86210894.39349  21053584.63749
  23722911.453 5 124664738.503 5  97141399.98948  23722922.18848
  20412284.445 6 107267277.579 6  83584910.65048  20412290.91448
  23393929.336 5 122935924.834 5  95794255.89946  23393936.97746
  22812834.008 5 119882245.907 5  93414781.04849  22812843.79749
  24526948.453 3 128889979.689 3 100433797.48148  24526958.89548
 20  5 16  3 32 59.0000000  0  9G01G04G07G08G09G11G16G27G30          0.000352213
  21873829.125 6 114947749.533 6  89569705.51849  21873840.93849
  24060997.945 5 126441398.090 5  98525807.68546  24061009.55946
  21972528.742 6 115466411.053 6  89973849.78249  21972535.66849
  21053898.641 6 110638983.793 6  86212222.55349  21053909.32049
  23723303.078 5 124666794.832 5  97143002.32448  23723313.94148
  20412158.102 6 107266614.171 6  83584393.70648  20412164.99248
  23394275.375 5 122937741.898 5  95795671.79246  23394282.90246
  22813390.820 5 119885174.409 5  93417062.99949  22813401.11749
  24526339.023 3 128886779.069 3 100431303.49747  24526349.77047
 20  5 16  3 33  0.0000000  0  9G01G04G07G08G09G11G16G27G30          0.000352337
  21873272.516 6 114944822.143 6  89567424.43249  21873284.25849
  24061535.672 5 126444222.032 5  98528008.15146  24061547.03946
  21972083.570 6 115464071.794 6  89972026.97749  21972090.43049
  21054223.438 6 110640689.048 6  86213551.32449  21054233.80949
  23723695.125 5 124668851.854 5  97144605.19948  23723704.98848
  20412032.172 6 107265951.836 6  83583877.60448  20412039.09448
  23394620.656 5 122939559.575 5  95797088.16246  23394628.67246
  22813949.148 5 119888103.477 5  93419345.38749  22813958.43449
  24525729.500 3 128883579.104 3 100428810.01447  24525740.61747
 20  5 16  3 33  1.0000000  0  9G01G04G07G08G09G11G16G27G30          0.000352459
  21872715.523 6 114941895.592 6  89565144.00249  21872726.82849
  24062073.328 5 126447046.362 5  98530208.94346  24062084.71146
  21971638.609 6 115461733.424 6  89970204.87349  21971645.12149
  21054548.227 6 110642394.952 6  86214880.59549  21054558.51649
  23724086.672 5 124670909.590 5  97146208.63048  23724096.63748
  20411906.406 6 107265290.544 6  83583362.31348  20411913.28148
  23394966.969 5 122941377.847 5  95798504.99246  23394974.75846
  22814505.969 5 119891033.025 5  93421628.15349  22814515.75449
  24525120.336 3 128880379.804 3 100426317.05347  24525131.92247
 20  5 16  3 33  2.0000000  0  9G01G04G07G08G09G11G16G27G30          0.000352583
  21872158.477 6 114938969.960 6  89562864.29249  21872170.32049
  24062611.148 5 126449871.199 5  98532410.11446  24062621.85246
  21971193.961 6 115459395.985 6  89968383.49449  21971200.83649
  21054872.781 6 110644101.633 6  86216210.47749  21054882.77349
  23724477.875 5 124672968.083 5  97147812.65348  23724488.46948
  20411780.656 6 107264630.362 6  83582847.88048  20411787.50048
  23395312.680 5 122943196.759 5  95799922.32646  23395320.68846
  22815063.617 5 119893963.148 5  93423911.36949  22815073.58249
  24524512.328 3 128877181.124 3 100423824.57447  24524522.88347
 20  5 16  3 33  3.0000000  0  9G01G04G07G08G09G11G16G27G30          0.000352709
  21871602.063 6 114936045.204 6  89560585.25849  21871613.91049
  24063149.203 5 126452696.432 5  98534611.57646  24063159.77746
  21970748.891 6 115457059.434 6  89966562.80649  21970756.10249
  21055197.820 6 110645809.012 6  86217540.90249  21055207.94149
  23724870.008 4 124675027.243 4  97149417.18948  23724880.12948
  20411655.156 6 107263971.209 6  83582334.25948  20411661.91448
  23395659.375 5 122945016.268 5  95801340.13046  23395667.06646
  22815621.586 5 119896893.721 5  93426194.92249  22815631.06349
  24523903.875 3 128873983.070 3 100421332.58748  24523914.85248
 20  5 16  3 33  4.0000000  0  9G01G04G07G08G09G11G16G27G30          0.000352833
  21871045.742 6 114933121.311 6  89558306.90449  21871057.48449
  24063686.641 5 126455522.159 5  98536813.42046  24063697.36346
  21970304.461 6 115454723.806 6  89964742.83449  21970311.53549
  21055522.758 6 110647517.152 6  86218871.91649  21055533.02049
  23725261.789 4 124677087.151 4  97151022.30848  23725272.21948
  20411529.828 6 107263313.172 6  83581821.50148  20411536.53948
  23396004.969 5 122946836.414 5  95802758.42946  23396013.14546
  22816179.078 5 119899824.892 5  93428478.94949  22816188.99249
  24523295.453 3 128870785.675 3 100418841.10448  24523306.30948
 20  5 16  3 33  5.0000000  0  9G01G04G07G08G09G11G16G27G30          0.000352959
  21870489.656 6 114930198.292 6  89556029.22849  21870501.50849
  24064223.953 5 126458348.344 5  98539015.64146  24064235.10946
  21969859.945 6 115452389.106 6  89962923.58849  21969867.26649
  21055848.336 6 110649226.021 6  86220203.49749  21055858.23449
  23725653.547 4 124679147.775 4  97152627.98048  23725664.68048
  20411404.742 6 107262656.165 6  83581309.55748  20411411.74248
  23396351.422 5 122948657.152 5  95804177.18346  23396359.80146
  22816736.672 5 119902756.570 5  93430763.38549  22816746.82049
  24522687.375 3 128867588.912 3 100416350.11847  24522698.14847
 20  5 16  3 33  6.0000000  0  9G01G04G07G08G09G11G16G27G30          0.000353083
  21869933.766 6 114927276.125 6  89553752.22249  21869945.00449
  24064762.008 5 126461174.932 5  98541218.16846  24064773.06346
  21969415.789 6 115450055.261 6  89961105.00449  21969422.76249
  21056173.195 6 110650935.592 6  86221535.62949  21056183.55949
  23726046.156 5 124681209.084 5  97154234.18348  23726056.81648
  20411279.742 6 107262000.207 6  83580798.41648  20411286.75448
  23396698.734 5 122950478.472 5  95805596.39546  23396706.09046
  22817294.805 5 119905688.755 5  93433048.20449  22817304.42249
  24522078.695 4 128864392.795 4 100413859.63947  24522089.75847
 20  5 16  3 33  7.0000000  0  9G01G04G07G08G09G11G16G27G30          0.000353209
  21869377.438 6 114924354.701 6  89551475.78949  21869389.09449
  24065300.063 5 126464001.819 5  98543420.92646  24065310.71546
  21968971.578 6 115447722.203 6  89959287.03749  21968978.73449
  21056498.984 6 110652645.736 6  86222868.21649  21056509.04349
  23726438.750 4 124683270.934 4  97155840.81348  23726449.16848
  20411155.203 6 107261345.158 6  83580287.99848  20411162.24648
  23397044.945 5 122952300.274 5  95807015.97546  23397053.10546
  22817853.398 5 119908621.310 5  93435333.31149  22817862.53549
  24521470.914 3 128861197.165 3 100411369.54748  24521481.23048
 20  5 16  3 33  8.0000000  0  9G01G04G07G08G09G11G16G27G30          0.000353334
  21868821.813 6 114921434.109 6  89549200.00049  21868833.07849
  24065837.734 5 126466829.142 5  98545624.03846  24065848.79746
  21968528.250 6 115445389.999 6  89957469.73649  21968535.13749
  21056824.078 6 110654356.580 6  86224201.34649  21056834.45749
  23726830.984 4 124685333.469 4  97157447.98048  23726841.61348
  20411030.789 6 107260691.139 6  83579778.37048  20411037.60248
  23397392.109 5 122954122.659 5  95808436.01347  23397400.01247
  22818411.148 5 119911554.340 5  93437618.78149  22818421.10949
  24520863.016 3 128858002.121 3 100408879.90247  24520873.43047
 20  5 16  3 33  9.0000000  0  9G01G04G07G08G09G11G16G27G30          0.000353460
  21868266.219 6 114918514.279 6  89546924.81149  21868277.96149
  24066375.664 5 126469656.781 5  98547827.40146  24066386.62146
  21968084.219 6 115443058.581 6  89955653.04349  21968091.69149
  21057149.813 6 110656068.021 6  86225534.93849  21057159.98049
  23727223.664 4 124687396.584 4  97159055.61048  23727234.12148
  20410906.188 6 107260038.094 6  83579269.50248  20410913.48448
  23397738.984 5 122955945.488 5  95809856.39546  23397746.89846
  22818969.289 6 119914487.805 6  93439904.60149  22818978.78949
  24520254.633 3 128854807.571 3 100406390.64648  24520265.19948
 20  5 16  3 33 10.0000000  0  9G01G04G07G08G09G11G16G27G30          0.000353588
  21867711.070 6 114915595.323 6  89544650.29449  21867722.57049
  24066913.836 5 126472484.852 5  98550031.07646  24066925.02046
  21967641.078 6 115440728.070 6  89953837.06249  21967648.41449
  21057475.813 6 110657780.177 6  86226869.08149  21057485.84849
  23727616.555 5 124689460.438 5  97160663.80848  23727627.30148
  20410782.289 6 107259386.071 6  83578761.43948  20410789.29748
  23398085.773 5 122957768.935 5  95811277.26446  23398093.68046
  22819527.781 5 119917421.735 5  93442190.77749  22819537.42249
  24519647.297 3 128851613.650 3 100403901.87847  24519657.58247
 20  5 16  3 33 11.0000000  0  9G01G04G07G08G09G11G16G27G30          0.000353714
  21867155.578 6 114912677.188 6  89542376.41949  21867167.37549
  24067452.133 5 126475313.349 5  98552235.09346  24067463.17646
  21967197.594 6 115438398.428 6  89952021.75849  21967205.01649
  21057801.547 6 110659493.040 6  86228203.78349  21057812.22749
  23728009.086 5 124691524.970 5  97162272.53548  23728020.03148
  20410658.680 6 107258735.105 6  83578254.18848  20410665.32848
  23398432.969 5 122959592.965 5  95812698.59147  23398440.78147
  22820086.156 5 119920356.216 5  93444477.38649  22820096.16449
  24519038.938 3 128848420.385 3 100401413.62247  24519049.85947
 20  5 16  3 33 12.0000000  0  9G01G04G07G08G09G11G16G27G30          0.000353842
  21866600.531 6 114909759.899 6  89540103.21149  21866611.88749
  24067991.070 5 126478142.248 5  98554439.41446  24068001.49246
  21966754.719 6 115436069.653 6  89950207.13349  21966761.80149
  21058128.039 6 110661206.530 6  86229538.96349  21058138.25049
  23728401.898 5 124693590.124 5  97163881.74048  23728413.13348
  20410534.906 6 107258085.146 6  83577747.72648  20410541.64148
  23398780.078 5 122961417.570 5  95814120.35846  23398788.32846
  22820644.203 5 119923291.127 5  93446764.33049  22820654.37549
  24518431.781 4 128845227.690 4 100398925.80248  24518442.36348
 20  5 16  3 33 13.0000000  0  9G01G04G07G08G09G11G16G27G30          0.000353968
  21866045.234 6 114906843.490 6  89537830.68349  21866057.00849
  24068528.750 5 126480971.581 5  98556644.07946  24068539.66446
  21966312.008 6 115433741.789 6  89948393.21149  21966318.75849
  21058454.156 6 110662920.786 6  86230874.75349  21058464.05549
  23728795.016 4 124695656.016 4  97165491.52248  23728806.26248
  20410411.273 6 107257436.266 6  83577242.10648  20410418.49248
  23399127.633 5 122963242.768 5  95815542.59246  23399135.30546
  22821203.336 6 119926226.574 6  93449051.69449  22821212.85549
  24517824.438 3 128842035.645 3 100396438.49148  24517834.89548
 20  5 16  3 33 14.0000000  0  9G01G04G07G08G09G11G16G27G30          0.000354095
  21865490.492 6 114903927.903 6  89535558.80449  21865502.28949
  24069067.609 5 126483801.351 5  98558849.10346  24069078.59446
  21965868.695 6 115431414.804 6  89946579.98149  21965875.76649
  21058780.156 6 110664635.706 6  86232211.05049  21058790.38749
  23729188.688 4 124697722.559 4  97167101.81148  23729199.25848
  20410288.156 6 107256788.407 6  83576737.28448  20410294.94148
  23399474.547 5 122965068.509 5  95816965.24546  23399482.58246
  22821761.688 5 119929162.498 5  93451339.42849  22821771.37549
  24517217.211 3 128838844.193 3 100393951.63547  24517227.76247
 20  5 16  3 33 15.0000000  0  9G01G04G07G08G09G11G16G27G30          0.000354223
  21864935.641 6 114901013.103 6  89533287.53349  21864947.21149
  24069606.406 5 126486631.429 5  98561054.35746  24069616.63746
  21965426.367 6 115429088.609 6  89944767.36349  21965433.16449
  21059106.500 6 110666351.304 6  86233547.87549  21059117.19949
  23729582.008 4 124699789.772 4  97168712.63348  23729592.25048
  20410165.094 6 107256141.518 6  83576233.21548  20410172.03948
  23399822.375 5 122966894.790 5  95818388.31646  23399830.10246
  22822321.008 6 119932098.895 6  93453627.52149  22822330.40649
  24516610.828 3 128835653.277 3 100391465.19447  24516620.78147
 20  5 16  3 33 16.0000000  0  9G01G04G07G08G09G11G16G27G30          0.000354351
  21864381.109 6 114898099.081 6  89531016.87049  21864393.24249
  24070144.820 5 126489461.898 5  98563259.93946  24070155.58246
  21964983.797 6 115426763.272 6  89942955.41249  21964990.91049
  21059433.117 6 110668067.505 6  86234885.17849  21059443.82049
  23729975.023 4 124701857.571 4  97170323.90148  23729985.74648
  20410041.898 6 107255495.618 6  83575729.91248  20410049.24648
  23400170.219 5 122968721.601 5  95819811.80146  23400178.10546
  22822879.484 6 119935035.670 6  93455915.91149  22822889.12149
  24516003.406 3 128832462.987 3 100388979.26547  24516013.31347
 20  5 16  3 33 17.0000000  0  9G01G04G07G08G09G11G16G27G30          0.000354481
  21863826.930 6 114895185.965 6  89528746.91249  21863838.61749
  24070684.063 5 126492292.833 5  98565465.88347  24070694.16847
  21964540.531 6 115424438.807 6  89941144.14349  21964548.20349
  21059760.141 6 110669784.459 6  86236223.06249  21059770.51649
  23730368.344 4 124703926.040 4  97171935.69048  23730380.10948
  20409919.438 6 107254850.814 6  83575227.46748  20409925.99648
  23400517.719 4 122970549.189 4  95821235.90746  23400525.51646
  22823438.281 4 119937973.027 4  93458204.76348  22823448.46948
  24515396.023 4 128829273.243 4 100386493.73947  24515406.35247
 20  5 16  3 33 18.0000000  0  9G01G04G07G08G09G11G16G27G30          0.000354609
  21863272.758 6 114892273.564 6  89526477.51449  21863284.76249
  24071222.203 5 126495124.007 5  98567672.01346  24071232.87546
  21964099.063 6 115422115.087 6  89939333.46349  21964106.34849
  21060087.125 6 110671501.936 6  86237561.36349  21060097.12549
  23730761.688 3 124705995.124 3  97173547.97347  23730773.57047
  20409796.719 6 107254206.844 6  83574725.66948  20409803.67648
  23400866.398 4 122972377.049 4  95822660.21846  23400873.51646
  22823997.883 4 119940910.644 4  93460493.83647  22824006.98447
  24514789.148 4 128826083.988 4 100384008.58247  24514799.32847
 20  5 16  3 33 19.0000000  0  9G01G04G07G08G09G11G16G27G30          0.000354738
  21862718.734 6 114889361.785 6  89524208.59949  21862730.44149
  24071761.375 5 126497955.458 5  98569878.33846  24071771.97746
  21963657.727 6 115419792.095 6  89937523.33349  21963664.32049
  21060413.523 6 110673219.910 6  86238900.05249  21060424.04749
  23731156.250 4 124708064.696 4  97175160.63548  23731167.31348
  20409674.688 6 107253563.770 6  83574224.57248  20409680.98048
  23401213.695 4 122974205.272 4  95824084.81346  23401221.53946
  22824556.820 3 119943848.705 3  93462783.25348  22824566.47748
  24514182.313 5 128822895.192 5 100381523.79748  24514192.23048
 20  5 16  3 33 20.0000000  0  9G01G04G07G08G09G11G16G27G30          0.000354866
  21862164.734 6 114886450.852 6  89521940.34749  21862176.34849
  24072299.711 5 126500787.234 5  98572084.91446  24072310.80146
  21963215.148 6 115417469.898 6  89935713.82749  21963222.44149
  21060741.086 6 110674938.548 6  86240239.24649  21060751.27049
  23731550.320 5 124710134.854 5  97176773.71348  23731561.00448
  20409552.422 6 107252921.663 6  83573724.22848  20409559.16848
  23401561.914 4 122976034.083 4  95825509.86246  23401569.26646
  22825116.242 3 119946787.123 3  93465072.93248  22825125.37548
  24513575.992 5 128819706.961 5 100379039.46048  24513585.72348
 20  5 16  3 33 21.0000000  0  9G01G04G07G08G09G11G16G27G30          0.000354996
  21861611.078 6 114883540.682 6  89519672.68749  21861622.85549
  24072839.148 5 126503619.409 5  98574291.78946  24072849.59446
  21962773.836 6 115415148.554 6  89933904.98549  21962780.77349
  21061068.273 6 110676657.833 6  86241578.94849  21061078.50449
  23731944.367 5 124712205.688 5  97178387.32148  23731955.27748
  20409430.648 6 107252280.562 6  83573224.66548  20409437.40648
  23401910.422 4 122977863.358 4  95826935.27646  23401917.62946
  22825674.727 4 119949725.973 4  93467362.93648  22825684.78148
  24512969.172 5 128816519.293 5 100376555.55148  24512979.14548
 20  5 16  3 33 22.0000000  0  9G01G04G07G08G09G11G16G27G30          0.000355125
  21861057.469 6 114880631.322 6  89517405.65649  21861068.80549
  24073378.063 5 126506451.925 5  98576498.93346  24073388.72346
  21962332.023 6 115412828.014 6  89932096.77149  21962339.08649
  21061395.563 6 110678377.790 6  86242919.17149  21061405.71949
  23732338.406 5 124714277.138 5  97180001.42948  23732349.43448
  20409308.438 6 107251640.429 6  83572725.86348  20409315.70748
  23402258.914 4 122979693.247 4  95828361.15246  23402266.06346
  22826233.836 4 119952665.284 4  93469653.29048  22826244.37148
  24512362.516 5 128813332.164 5 100374072.07048  24512372.82048
 20  5 16  3 33 23.0000000  0  9G01G04G07G08G09G11G16G27G30          0.000355255
  21860503.969 6 114877722.833 6  89515139.29849  21860515.48849
  24073917.266 5 126509284.915 5  98578706.44746  24073927.49646
  21961890.688 6 115410508.396 6  89930289.27149  21961898.09849
  21061722.891 6 110680098.454 6  86244259.93849  21061732.78949
  23732733.398 4 124716349.280 4  97181616.08348  23732743.65648
  20409187.016 6 107251001.361 6  83572227.88848  20409193.80548
  23402606.813 4 122981523.663 4  95829787.44946  23402614.54746
  22826793.320 3 119955605.101 3  93471944.04648  22826803.63748
  24511756.359 4 128810145.624 4 100371589.07147  24511766.12547
 20  5 16  3 33 24.0000000  0  9G01G04G07G08G09G11G16G27G30          0.000355385
  21859950.625 6 114874815.054 6  89512873.49149  21859962.01649
  24074455.977 5 126512118.216 5  98580914.20246  24074466.40246
  21961449.148 6 115408189.539 6  89928482.36649  21961456.30149
  21062050.820 6 110681819.707 6  86245601.17549  21062060.80949
  23733127.313 5 124718422.033 5  97183231.22248  23733137.95348
  20409065.438 6 107250363.196 6  83571730.62048  20409072.39548
  23402954.313 4 122983354.520 4  95831214.09046  23402962.76646
  22827353.086 3 119958545.296 3  93474235.13348  22827363.03948
  24511149.773 4 128806959.638 4 100369106.51848  24511159.62948
 20  5 16  3 33 25.0000000  0  9G01G04G07G08G09G11G16G27G30          0.000355516
  21859397.547 6 114871908.086 6  89510608.31649  21859409.21949
  24074994.953 5 126514951.859 5  98583122.20946  24075005.61746
  21961008.141 6 115405871.474 6  89926676.07449  21961015.45749
  21062378.484 6 110683541.601 6  86246942.91849  21062388.56349
  23733522.086 5 124720495.350 5  97184846.79348  23733533.05548
  20408943.898 6 107249726.022 6  83571234.12848  20408951.59448
  23403303.055 5 122985185.979 5  95832641.20646  23403311.57046
  22827912.367 3 119961485.996 3  93476526.61448  22827922.83648
  24510544.305 5 128803774.183 5 100366624.33748  24510554.25848
 20  5 16  3 33 26.0000000  0  9G01G04G07G08G09G11G16G27G30          0.000355646
  21858844.289 6 114869001.988 6  89508343.81949  21858856.19549
  24075535.352 4 126517785.906 4  98585330.53846  24075544.93446
  21960567.289 6 115403554.333 6  89924870.50949  21960574.52749
  21062705.711 6 110685264.180 6  86248285.18949  21062716.19549
  23733917.203 5 124722569.388 5  97186462.92748  23733927.84848
  20408822.969 6 107249089.913 6  83570738.46348  20408830.23048
  23403651.234 4 122987018.020 4  95834068.78146  23403660.24646
  22828471.461 4 119964427.056 4  93478818.35648  22828482.54748
  24509937.500 5 128800589.398 5 100364142.68748  24509947.94948
 20  5 16  3 33 27.0000000  0  9G01G04G07G08G09G11G16G27G30          0.000355778
  21858291.023 6 114866096.697 6  89506079.94949  21858303.17249
  24076074.211 5 126520620.396 5  98587539.23846  24076084.39146
  21960126.305 6 115401238.011 6  89923065.58649  21960133.54349
  21063033.891 6 110686987.430 6  86249627.99149  21063044.21949
  23734312.234 5 124724644.037 5  97188079.53348  23734322.40248
  20408702.359 6 107248454.847 6  83570243.60248  20408709.63348
  23404000.453 1 122988850.671 1  95835496.79246  23404008.63746
  22829031.992 5 119967368.662 5  93481110.51947  22829042.14147
  24509331.781 4 128797405.153 4 100361661.45347  24509342.10947
 20  5 16  3 33 28.0000000  0  9G01G04G07G08G09G11G16G27G30          0.000355909
  21857738.641 6 114863192.045 6  89503816.57049  21857750.14849
  24076613.945 5 126523455.060 5  98589748.08446  24076623.50446
  21959685.156 6 115398922.384 6  89921261.22049  21959692.55549
  21063361.984 6 110688711.172 6  86250971.18149  21063371.57049
  23734706.898 5 124726719.224 5  97189696.56948  23734717.46548
  20408581.578 6 107247820.563 6  83569749.35148  20408588.92648
  23404349.703 2 122990683.571 2  95836925.01546  23404357.53546
  22829592.289 4 119970310.550 4  93483402.87947  22829602.04347
  24508725.617 4 128794221.316 4 100359180.53547  24508735.82447
 20  5 16  3 33 29.0000000  0  9G01G04G07G08G09G11G16G27G30          0.000356041
  21857186.383 6 114860288.119 6  89501553.76849  21857198.19949
  24077152.883 5 126526290.015 5  98591957.13846  24077163.03946
  21959245.102 6 115396607.497 6  89919457.42849  21959252.20749
  21063689.805 6 110690435.449 6  86252314.78549  21063699.80549
  23735101.984 5 124728794.931 5  97191313.99948  23735112.34448
  20408461.477 6 107247187.195 6  83569255.81048  20408468.39148
  23404697.766 2 122992516.991 2  95838353.65145  23404706.40245
  22830152.063 4 119973252.832 4  93485695.56347  22830161.50447
  24508119.938 4 128791037.956 4 100356699.99247  24508130.36747
 20  5 16  3 33 30.0000000  0  9G01G04G07G08G09G11G16G27G30          0.000356173
  21856633.766 6 114857384.981 6  89499291.58049  21856645.47349
  24077692.609 5 126529125.327 5  98594166.47546  24077702.79346
  21958804.969 6 115394293.453 6  89917654.27949  21958811.90649
  21064017.977 6 110692160.391 6  86253658.89849  21064028.34049
  23735496.516 5 124730871.230 5  97192931.89548  23735507.43048
  20408340.555 6 107246554.819 6  83568763.04948  20408348.06348
  23405046.953 2 122994350.867 2  95839782.67545  23405055.18445
  22830712.148 4 119976195.528 4  93487988.56947  22830721.75047
  24507514.492 4 128787855.163 4 100354219.89947  24507524.82847
 20  5 16  3 33 31.0000000  0  9G01G04G07G08G09G11G16G27G30          0.000356304
  21856081.664 6 114854482.684 6  89497030.05749  21856093.50849
  24078232.609 5 126531961.031 5  98596376.12646  24078242.16046
  21958364.805 6 115391980.250 6  89915851.78449  21958371.77349
  21064346.813 6 110693885.964 6  86255003.49549  21064356.84049
  23735892.789 5 124732948.212 5  97194550.32748  23735902.75848
  20408220.836 6 107245923.419 6  83568271.05048  20408227.90648
  23405394.781 1 122996185.353 1  95841212.15445  23405404.69545
  22831272.547 4 119979138.670 4  93490281.93147  22831281.75447
  24506908.828 4 128784672.946 4 100351740.25847  24506919.42647
 20  5 16  3 33 32.0000000  0  9G01G04G07G08G09G11G16G27G30          0.000356436
  21855529.617 6 114851581.063 6  89494769.05549  21855541.09849
  24078772.023 4 126534796.996 4  98598585.96046  24078781.80146
  21957924.680 6 115389667.770 6  89914049.85049  21957931.80149
  21064675.414 6 110695612.104 6  86256348.53149  21064685.29749
  23736287.719 5 124735025.733 5  97196169.16148  23736298.36348
  20408101.055 6 107245292.943 6  83567779.77248  20408107.66848
  23405744.797 1 122998020.292 1  95842641.96445  23405753.64545
  22831832.352 4 119982082.158 4  93492575.57547  22831841.84847
  24506303.078 4 128781491.187 4 100349260.98647  24506314.03147
 20  5 16  3 33 33.0000000  0  9G01G04G07G08G09G11G16G27G30          0.000356569
  21854977.133 6 114848680.325 6  89492508.74649  21854988.69549
  24079311.352 5 126537633.403 5  98600796.14246  24079321.75446
  21957484.641 6 115387356.222 6  89912248.63749  21957492.05149
  21065003.328 6 110697338.953 6  86257694.11149  21065013.78549
  23736683.063 5 124737103.960 5  97197788.54748  23736693.71148
  20407980.805 6 107244663.517 6  83567289.31448  20407987.80148
  23406094.078 1 122999855.732 1  95844072.16045  23406102.86345
  22832392.484 4 119985026.193 4  93494869.66747  22832401.80147
  24505698.578 4 128778310.143 4 100346782.26947  24505708.37547
 20  5 16  3 33 34.0000000  0  9G01G04G07G08G09G11G16G27G30          0.000356701
  21854425.367 6 114845780.347 6  89490249.02549  21854437.32449
  24079851.352 5 126540470.127 5  98603006.57446  24079861.72746
  21957044.727 6 115385045.451 6  89910448.02349  21957052.09049
  21065332.102 6 110699066.397 6  86259040.17649  21065342.38749
  23737078.703 5 124739182.733 5  97199408.37348  23737089.25448
  20407860.977 6 107244035.029 6  83566799.58748  20407868.30948
  23406443.836 1 123001691.764 1  95845502.80245  23406452.53945
  22832952.180 4 119987970.604 4  93497163.99247  22832962.13347
  24505093.484 5 128775129.508 5 100344303.85247  24505102.99647
 20  5 16  3 33 35.0000000  0  9G01G04G07G08G09G11G16G27G30          0.000356834
  21853874.086 6 114842881.113 6  89487989.88249  21853885.29749
  24080391.578 5 126543307.179 5  98605217.26446  24080401.05946
  21956605.664 6 115382735.445 6  89908648.01949  21956612.84449
  21065661.250 6 110700794.444 6  86260386.70249  21065671.22349
  23737473.570 5 124741262.147 5  97201028.69748  23737484.86348
  20407741.719 6 107243407.459 6  83566310.56848  20407748.85248
  23406793.156 1 123003528.181 1  95846933.75645  23406801.59445
  22833512.625 4 119990915.396 4  93499458.60547  22833522.51647
  24504487.656 5 128771949.423 5 100341825.84747  24504498.07447
 20  5 16  3 33 36.0000000  0  9G01G04G07G08G09G11G16G27G30          0.000356968
  21853322.414 6 114839982.533 6  89485731.24849  21853333.65249
  24080931.633 5 126546144.452 5  98607428.11446  24080941.16446
  21956165.883 6 115380426.139 6  89906848.55749  21956173.06349
  21065989.859 6 110702522.978 6  86261733.61649  21066000.27749
  23737869.656 5 124743342.001 5  97202649.36848  23737880.67648
  20407622.492 6 107242780.752 6  83565822.22748  20407629.65248
  23407143.203 1 123005365.038 1  95848365.08545  23407151.18045
  22834072.242 4 119993860.520 4  93501753.49447  22834082.80947
  24503881.953 4 128768769.769 4 100339348.19047  24503892.85547
 20  5 16  3 33 37.0000000  0  9G01G04G07G08G09G11G16G27G30          0.000357100
  21852770.492 6 114837084.610 6  89483473.13049  21852781.95749
  24081471.555 5 126548981.950 5  98609639.15046  24081481.19546
  21955726.906 6 115378117.506 6  89905049.62649  21955733.94149
  21066319.023 6 110704252.023 6  86263080.93349  21066329.17249
  23738266.133 5 124745422.332 5  97204270.41248  23738276.29348
  20407503.477 6 107242154.880 6  83565334.53948  20407510.42648
  23407492.531 1 123007202.272 1  95849796.72545  23407501.10245
  22834633.938 4 119996805.889 4  93504048.58547  22834643.51647
  24503277.250 4 128765590.525 4 100336870.86347  24503287.73447
 20  5 16  3 33 38.0000000  0  9G01G04G07G08G09G11G16G27G30          0.000357233
  21852219.422 6 114834187.412 6  89481215.57149  21852230.69549
  24082011.594 5 126551819.712 5  98611850.38146  24082021.50446
  21955287.469 6 115375809.617 6  89903251.27649  21955295.31349
  21066648.156 6 110705981.636 6  86264428.68849  21066658.46149
  23738661.602 5 124747503.188 5  97205891.86148  23738672.64548
  20407384.359 6 107241529.887 6  83564847.52448  20407391.49248
  23407841.664 1 123009039.957 1  95851228.68145  23407850.57445
  22835194.219 4 119999751.618 4  93506343.95347  22835204.10547
  24502672.578 4 128762411.716 4 100334393.86947  24502682.77747
 20  5 16  3 33 39.0000000  0  9G01G04G07G08G09G11G16G27G30          0.000357367
  21851668.164 6 114831290.926 6  89478958.56849  21851679.67649
  24082551.477 5 126554657.769 5  98614061.85546  24082561.36746
  21954848.398 6 115373502.481 6  89901453.51649  21954855.81349
  21066977.906 6 110707711.808 6  86265776.86949  21066987.74249
  23739058.156 5 124749584.632 5  97207513.76648  23739068.68848
  20407265.773 6 107240905.862 6  83564361.26948  20407272.73048
  23408191.141 1 123010878.143 1  95852661.06045  23408200.07845
  22835754.617 4 120002697.821 4  93508639.69047  22835764.46147
  24502067.680 4 128759233.483 4 100331917.33247  24502077.78947
 20  5 16  3 33 40.0000000  0  9G01G04G07G08G09G11G16G27G30          0.000357502
  21851117.133 6 114828395.246 6  89476702.19449  21851128.79349
  24083091.672 5 126557496.204 5  98616273.61546  24083101.21946
  21954409.234 6 115371196.209 6  89899656.43149  21954417.05149
  21067306.984 6 110709442.627 6  86267125.55649  21067316.91449
  23739454.008 4 124751666.751 4  97209136.19148  23739465.30948
  20407146.867 6 107240282.800 6  83563875.77348  20407154.24648
  23408542.063 1 123012716.728 1  95854093.70845  23408550.02345
  22836315.367 4 120005644.378 4  93510935.70047  22836325.46947
  24501463.461 4 128756055.750 4 100329441.17347  24501473.62947
 20  5 16  3 33 41.0000000  0  9G01G04G07G08G09G11G16G27G30          0.000357635
  21850565.789 6 114825500.304 6  89474446.39449  21850577.90249
  24083632.195 5 126560334.940 5  98618485.60946  24083641.49246
  21953970.531 6 115368890.686 6  89897859.92649  21953977.87149
  21067636.367 6 110711174.005 6  86268474.68349  21067646.21549
  23739850.234 5 124753749.409 5  97210759.03448  23739861.66048
  20407028.914 6 107239660.638 6  83563390.97148  20407035.84048
  23408891.883 1 123014555.881 1  95855526.83845  23408900.09445
  22836876.055 4 120008591.336 4  93513232.02247  22836885.97347
  24500858.805 4 128752878.560 4 100326965.44047  24500868.58647
 20  5 16  3 33 42.0000000  0  9G01G04G07G08G09G11G16G27G30          0.000357769
  21850015.414 6 114822606.075 6  89472191.15049  21850027.22349
  24084172.555 5 126563173.977 5  98620697.84146  24084181.87146
  21953532.570 6 115366585.950 6  89896064.02149  21953539.44149
  21067965.891 6 110712905.957 6  86269824.26449  21067976.07049
  23740246.016 5 124755832.612 5  97212382.30248  23740257.75048
  20406910.719 6 107239039.444 6  83562906.92848  20406917.80148
  23409242.148 1 123016395.459 1  95856960.29245  23409250.39545
  22837437.750 5 120011538.643 5  93515528.61947  22837447.07447
  24500254.719 4 128749701.817 4 100324490.05147  24500264.05147
 20  5 16  3 33 43.0000000  0  9G01G04G07G08G09G11G16G27G30          0.000357904
  21849464.930 6 114819712.645 6  89469936.53549  21849476.45349
  24084712.477 5 126566013.358 5  98622910.32647  24084722.19947
  21953094.180 6 115364282.015 6  89894268.73649  21953101.15249
  21068295.383 6 110714638.550 6  86271174.33749  21068305.97749
  23740643.008 4 124757916.419 4  97214006.04648  23740654.71948
  20406792.211 6 107238419.183 6  83562423.60148  20406799.89148
  23409591.805 1 123018235.563 1  95858394.16945  23409600.26245
  22837997.656 5 120014486.393 5  93517825.54348  22838007.95348
  24499650.055 4 128746525.641 4 100322015.11347  24499659.82847
 20  5 16  3 33 44.0000000  0  9G01G04G07G08G09G11G16G27G30          0.000358040
  21848914.242 6 114816819.932 6  89467682.47949  21848925.97349
  24085252.672 5 126568853.021 5  98625123.04347  24085263.14147
  21952655.422 6 115361978.827 6  89892474.03849  21952663.07049
  21068624.930 6 110716371.672 6  86272524.82049  21068635.74249
  23741040.164 4 124760000.799 4  97215630.24148  23741051.14548
  20406674.766 6 107237799.838 6  83561940.99648  20406682.23448
  23409941.688 1                                
  22838558.977 5 120017434.486 5  93520122.73647  22838569.05547
  24499045.703 4 128743349.926 4 100319540.53647  24499055.40647
 20  5 16  3 33 45.0000000  0  9G01G04G07G08G09G11G16G27G30          0.000358173
  21848363.977 6 114813928.042 6  89465429.06149  21848375.90649
  24085793.133 5 126571693.079 5  98627336.06747  24085803.24247
  21952217.734 6 115359676.505 6  89890680.01949  21952224.91849
  21068955.500 6 110718105.486 6  86273875.84749  21068965.25449
  23741437.453 4 124762085.812 4  97217254.92548  23741448.16448
  20406557.469 6 107237181.506 6  83561459.18148  20406564.42648
  23410291.805 1 123021917.23011  95861262.93155  23410300.94545
  22839120.664 5 120020383.074 5  93522420.31448  22839130.78148
  24498441.211 4 128740174.877 4 100317066.48747  24498451.46947
 20  5 16  3 33 46.0000000  0  9G01G04G07G08G09G11G16G27G30          0.000358309
  21847814.195 6 114811036.824 6  89463176.16549  21847825.80949
  24086334.297 5 126574533.374 5  98629549.27747  24086343.48047
  21951779.391 6 115357374.865 6  89888886.53849  21951786.62949
  21069285.461 6 110719839.821 6  86275227.28149  21069295.51249
  23741833.461 4 124764171.328 4  97218879.99548  23741844.97348
  20406439.477 6 107236564.030 6  83560978.02148  20406446.64848
  23410642.180 1 123023758.74611  95862697.87855  23410651.09845
  22839681.805 5 120023331.967 5  93524718.13448  22839691.89548
  24497836.781 4 128737000.168 4 100314592.69447  24497846.76647
 20  5 16  3 33 47.0000000  0  9G01G04G07G08G09G11G16G27G30          0.000358444
  21847263.641 6 114808146.205 6  89460923.73849  21847275.68449
  24086874.273 5 126577373.815 5  98631762.61547  24086884.29747
  21951341.586 6 115355073.853 6  89887093.54449  21951349.01249
  21069615.438 6 110721574.599 6  86276579.06249  21069625.97749
  23742230.539 4 124766257.280 4  97220505.40548  23742241.62948
  20406322.047 6 107235947.330 6  83560497.48048  20406329.62548
  23410992.141 1 123025600.560 1  95864133.10045  23411001.88745
  22840243.141 5 120026281.079 5  93527016.14148  22840253.05948
  24497232.758 4 128733825.864 4 100312119.21547  24497243.02747
 20  5 16  3 33 48.0000000  0  9G01G04G07G08G09G11G16G27G30          0.000358582
  21846714.242 6 114805256.296 6  89458671.85549  21846725.31349
  24087415.313 5 126580214.544 5  98633976.16847  24087425.39147
  21950903.945 6 115352773.606 6  89885301.13849  21950911.21949
  21069945.609 6 110723309.918 6  86277931.25949  21069956.03149
  23742627.789 4 124768343.772 4  97222131.23948  23742638.91848
  20406205.148 6 107235331.539 6  83560017.64148  20406211.94148
  23411343.328 1 123027442.906 1  95865568.74845  23411352.55145
  22840804.023 5 120029230.559 5  93529314.43847  22840814.39147
  24496629.023 4 128730652.002 4 100309646.07047  24496639.36747
 20  5 16  3 33 49.0000000  0  9G01G04G07G08G09G11G16G27G30          0.000358717
  21846164.445 6 114802367.263 6  89456420.65949  21846175.61349
  24087955.742 5 126583055.688 5  98636190.04147  24087965.63347
  21950466.211 6 115350474.220 6  89883509.41249  21950473.84849
  21070276.023 6 110725045.953 6  86279284.01349  21070286.35949
  23743024.477 4 124770430.942 4  97223757.60648  23743035.85548
  20406087.594 6 107234716.761 6  83559538.59748  20406094.93048
  23411693.656 1 123029285.735 1  95867004.71645  23411703.17645
  22841365.430 5 120032180.512 5  93531613.11047  22841375.55547
  24496025.477 4 128727478.801 4 100307173.44447  24496035.43047
 20  5 16  3 33 50.0000000  0  9G01G04G07G08G09G11G16G27G30          0.000358852
  21845614.891 6 114799478.906 6  89454169.99249  21845625.94549
  24088496.305 5 126585897.105 5  98638404.13546  24088506.43046
  21950028.859 6 115348175.568 6  89881718.26049  21950036.37949
  21070606.797 6 110726782.531 6  86280637.17849  21070617.02049
  23743421.680 4 124772518.582 4  97225384.33948  23743433.26648
  20405971.234 6 107234102.898 6  83559060.26148  20405978.30148
  23412045.758 1 123031129.030 1  95868440.99445  23412054.34445
  22841927.148 5 120035130.798 5  93533912.06047  22841936.62147
  24495422.211 4 128724306.024 4 100304701.14947  24495431.42247
 20  5 16  3 33 51.0000000  0  9G01G04G07G08G09G11G16G27G30          0.000358990
  21845065.000 6 114796591.334 6  89451919.93749  21845076.67249
  24089036.891 5 126588738.874 5  98640618.49847  24089047.25047
  21949591.281 6 115345877.739 6  89879927.74849  21949599.02749
  21070937.344 6 110728519.736 6  86281990.83549  21070947.09449
  23743819.633 4 124774606.881 4  97227011.58848  23743831.17248
  20405854.508 6 107233489.991 6  83558582.67148  20405861.95748
  23412397.813 1 123032972.854 1  95869877.70345  23412405.38745
  22842488.555 4 120038081.524 4  93536211.37247  22842498.88747
  24494817.797 4 128721133.834 4 100302229.31447  24494827.82847
 20  5 16  3 33 52.0000000  0  9G01G04G07G08G09G11G16G27G30          0.000359125
  21844515.734 6 114793704.312 6  89449670.31249  21844527.20349
  24089577.508 5 126591580.729 5  98642832.92447  24089588.00847
  21949154.586 6 115343580.473 6  89878137.68249  21949161.92649
  21071267.609 6 110730257.307 6  86283344.78949  21071277.95749
  23744217.047 4 124776695.545 4  97228639.12548  23744228.68848
  20405737.938 6 107232877.791 6  83558105.63948  20405745.00848
  23412748.031 1 123034816.943 1  95871314.62745  23412755.70745
  22843050.008 4 120041032.444 4  93538510.84647  22843060.39547
  24494213.961 4 128717961.894 4 100299757.68547  24494223.98047
 20  5 16  3 33 53.0000000  0  9G01G04G07G08G09G11G16G27G30          0.000359262
  21843965.930 6 114790818.063 6  89447421.28349  21843978.25449
  24090118.492 5 126594422.925 5  98645047.61546  24090128.85546
  21948717.008 6 115341283.998 6  89876348.22749  21948724.80549
  21071598.516 6 110731995.509 6  86284699.22949  21071608.80949
  23744614.492 4 124778784.802 4  97230267.11648  23744625.97748
  20405621.828 6 107232266.566 6  83557629.35348  20405628.84048
  23413098.609 1 123036661.569 1  95872751.99345  23413106.76645
  22843611.531 3 120043983.761 3  93540810.61146  22843621.81346
  24493610.727 5 128714790.498 5 100297286.47047  24493620.46547
 20  5 16  3 33 54.0000000  0  9G01G04G07G08G09G11G16G27G30          0.000359400
  21843417.633 6 114787932.700 6  89445172.94749  21843428.94149
  24090659.539 5 126597265.554 5  98647262.65946  24090669.84846
  21948280.648 6 115338988.456 6  89874559.51049  21948287.73849
  21071929.406 6 110733734.442 6  86286054.24149  21071939.79749
  23745011.914 5 124780874.721 5  97231895.62548  23745023.60948
  20405505.711 6 107231656.415 6  83557153.90748  20405513.15248
  23413449.859 1 123038506.716 1  95874189.77545  23413458.18045
  22844172.906 2 120046935.655 2  93543110.82746  22844183.18446
  24493007.883 4 128711619.729 4 100294815.74447  24493016.88347
 20  5 16  3 33 55.0000000  0  9G01G04G07G08G09G11G16G27G30          0.000359537
  21842868.367 6 114785047.958 6  89442925.10349  21842880.11349
  24091199.992 5 126600108.398 5  98649477.87546  24091210.51246
  21947844.133 6 115336693.590 6  89872771.30949  21947851.64149
  21072260.070 6 110735473.801 6  86287409.59749  21072270.75049
  23745409.891 4 124782965.185 4  97233524.54848  23745421.44148
  20405389.563 6 107231047.068 6  83556679.08948  20405396.42648
  23413800.477 2 123040352.237 2  95875627.89645  23413809.65245
  22844735.281 4 120049887.740 4  93545411.14147  22844744.73047
  24492403.609 5 128708449.423 5 100292345.37347  24492413.89547
 20  5 16  3 33 56.0000000  0  9G01G04G07G08G09G11G16G27G30          0.000359674
  21842319.547 6 114782164.042 6  89440677.90049  21842331.39149
  24091741.234 5 126602951.650 5  98651693.40146  24091751.63346
  21947407.367 6 115334399.579 6  89870983.74549  21947414.62549
  21072591.727 6 110737213.881 6  86288765.51149  21072602.14849
  23745807.984 4 124785056.244 4  97235153.93948  23745819.17248
  20405273.781 6 107230438.757 6  83556205.08148  20405281.00048
  23414152.273 1 123042198.327 1  95877066.43545  23414160.94145
  22845297.367 5 120052840.297 5  93547711.73947  22845306.80547
  24491800.852 4 128705279.672 4 100289875.43147  24491810.68847
 20  5 16  3 33 57.0000000  0  9G01G04G07G08G09G11G16G27G30          0.000359812
  21841771.344 6 114779280.819 6  89438431.24049  21841782.47749
  24092282.234 5 126605795.139 5  98653909.08547  24092292.37947
  21946970.844 6 115332106.299 6  89869196.76249  21946978.44549
  21072922.906 6 110738954.512 6  86290121.85049  21072933.19949
  23746206.102 4 124787147.877 4  97236783.77548  23746217.45348
  20405158.234 6 107229831.311 6  83555731.74648  20405165.41848
  23414504.352 1 123044044.918 1  95878505.34545  23414511.71945
  22845859.016 4 120055793.214 4  93550012.66647  22845868.56347
  24491198.563 4 128702110.353 4 100287405.82547  24491207.53547
 20  5 16  3 33 58.0000000  0  9G01G04G07G08G09G11G16G27G30          0.000359949
  21841222.555 6 114776398.342 6  89436185.15449  21841233.65649
  24092823.289 5 126608638.923 5  98656125.00647  24092834.03947
  21946535.273 6 115329813.760 6  89867410.35749  21946542.09449
  21073253.859 6 110740695.658 6  86291478.57649  21073264.69549
  23746604.141 3 124789240.028 3  97238414.02448  23746615.61748
  20405042.719 6 107229224.795 6  83555259.14048  20405050.21948
  23414855.773 1 123045891.843 1  95879944.48945  23414863.86745
  22846420.984 4 120058746.518 4  93552313.94047  22846430.63747
  24490595.258 4 128698941.549 4 100284936.62447  24490604.30947
 20  5 16  3 33 59.0000000  0  9G01G04G07G08G09G11G16G27G30          0.000360088
  21840674.227 6 114773516.418 6  89433939.50349  21840685.45749
  24093364.070 5 126611482.805 5  98658341.01247  24093374.87947
  21946098.719 6 115327521.816 6  89865624.42849  21946105.91449
  21073585.266 6 110742437.192 6  86292835.60849  21073595.84849
  23747002.297 4 124791332.585 4  97240044.58648  23747013.66048
  20404927.453 6 107228618.973 6  83554787.07048  20404934.66848
  23415206.703 1 123047739.147 1  95881383.93845  23415215.04345
  22846982.734 5 120061699.998 5  93554615.35147  22846993.05147
  24489991.992 5 128695773.111 5 100282467.71447  24490001.47347
 20  5 16  3 34  0.0000000  0  9G01G04G07G08G09G11G16G27G30          0.000360226
  21840125.539 6 114770635.197 6  89431694.40049  21840137.32849
  24093905.609 5 126614326.995 5  98660557.25047  24093916.45747
  21945662.625 6 115325230.630 6  89863839.08449  21945670.29749
  21073916.992 6 110744179.306 6  86294193.10149  21073927.40249
  23747401.070 4 124793425.663 4  97241675.55048  23747411.93448
  20404812.555 6 107228014.104 6  83554315.75348  20404819.67248
  23415557.531 1 123049586.874 1  95882823.68845  23415566.46545
  22847545.133 5 120064653.813 5  93556917.00347  22847554.93847
  24489389.406 4 128692605.101 4 100279999.12547  24489399.09047
 20  5 16  3 34  1.0000000  0  9G01G04G07G08G09G11G16G27G30          0.000360365
  21839577.430 6 114767754.717 6  89429449.86449  21839589.40649
  24094446.984 5 126617171.438 5  98662773.69047  24094457.64847
  21945226.836 6 115322940.175 6  89862054.31449  21945234.01649
  21074248.625 6 110745921.913 6  86295550.97649  21074259.34849
  23747798.836 4 124795519.286 4  97243306.93848  23747810.03548
  20404697.602 6 107227410.099 6  83553845.09248  20404704.53548
  23415909.836 1 123051435.009 1  95884263.77145  23415918.00845
  22848106.656 5 120067607.993 5  93559218.92248  22848117.51248
  24488786.328 4 128689437.568 4 100277530.92747  24488796.21947
 20  5 16  3 34  2.0000000  0  9G01G04G07G08G09G11G16G27G30          0.000360504
  21839029.375 6 114764874.901 6  89427205.85249  21839041.33649
  24094988.336 5 126620016.163 5  98664990.34547  24094999.16847
  21944791.031 6 115320650.442 6  89860270.10649  21944798.75849
  21074580.234 6 110747665.146 6  86296909.34149  21074591.12149
  23748197.195 4 124797613.407 4  97244938.71948  23748208.62948
  20404582.820 6 107226806.981 6  83553375.13148  20404589.77748
  23416262.961 1 123053283.627 1  95885704.33645  23416270.18045
  22848669.781 5 120070562.524 5  93561521.13548  22848679.73448
  24488183.258 4 128686270.518 4 100275063.10347  24488193.33647
 20  5 16  3 34  3.0000000  0  9G01G04G07G08G09G11G16G27G30          0.000360641
  21838481.273 6 114761995.802 6  89424962.40049  21838492.63749
  24095529.586 5 126622861.092 5  98667207.16347  24095540.18847
  21944355.023 6 115318361.441 6  89858486.47249  21944362.59849
  21074912.133 6 110749408.877 6  86298268.09449  21074922.62149
  23748596.047 4 124799708.051 4  97246570.90448  23748607.36348
  20404467.945 6 107226204.742 6  83552905.84748  20404474.88348
  23416614.641 1 123055132.556 1  95887145.14745  23416622.04345
  22849231.273 5 120073517.368 5  93563823.59948  22849242.19148
  24487581.063 5 128683103.893 5 100272595.61347  24487590.98847
 20  5 16  3 34  4.0000000  0  9G01G04G07G08G09G11G16G27G30          0.000360781
  21837934.461 6 114759117.356 6  89422719.45449  21837945.49249
  24096071.398 5 126625706.302 5  98669424.19647  24096081.85947
  21943919.820 6 115316073.146 6  89856703.37949  21943927.34449
  21075244.398 6 110751153.137 6  86299627.25649  21075254.67649
  23748995.063 4 124801803.219 4  97248203.49648  23749006.04348
  20404353.500 6 107225603.353 6  83552437.22748  20404360.99248
  23416967.211 1 123056982.029 1  95888586.27045  23416973.93445
  22849794.070 5 120076472.534 5  93566126.32348  22849804.87548
  24486977.641 4 128679937.709 4 100270128.46447  24486988.56647
 20  5 16  3 34  5.0000000  0  9G01G04G07G08G09G11G16G27G30          0.000360920
  21837386.102 6 114756239.663 6  89420477.09549  21837397.96549
  24096613.055 5 126628551.774 5  98671641.45446  24096623.43046
  21943484.500 6 115313785.599 6  89854920.87849  21943491.85949
  21075576.117 6 110752897.941 6  86300986.84449  21075586.79749
  23749393.383 4 124803898.883 4  97249836.48748  23749405.00048
  20404239.250 6 107225002.872 6  83551969.31548  20404246.68048
  23417317.664 1 123058831.858 1  95890027.68145  23417326.03545
  22850356.102 5 120079428.086 5  93568429.37147  22850367.36747
  24486375.367 4 128676772.019 4 100267661.68947  24486386.07047
 20  5 16  3 34  6.0000000  0  9G01G04G07G08G09G11G16G27G30          0.000361059
  21836838.789 6 114753362.677 6  89418235.28549  21836850.51249
  24097154.086 4 126631397.562 4  98673858.96946  24097164.60246
  21943049.109 6 115311498.813 6  89853138.97549  21943056.88749
  21075908.188 6 110754643.319 6  86302346.88549  21075918.91049
  23749791.766 4 124805995.091 4  97251469.90948  23749803.75448
  20404125.445 6 107224403.315 6  83551502.13348  20404132.38748
  23417669.695 1 123060682.168 1  95891469.41955  23417678.43445
  22850918.984 5 120082383.992 5  93570732.71147  22850929.85947
  24485772.906 4 128673606.804 4 100265195.28047  24485783.55947
 20  5 16  3 34  7.0000000  0  9G01G04G07G08G09G11G16G27G30          0.000361200
  21836291.391 6 114750486.361 6  89415994.00649  21836303.06349
  24097695.789 5 126634243.563 5  98676076.64046  24097706.37546
  21942614.023 6 115309212.713 6  89851357.60649  21942621.58249
  21076240.453 6 110756389.182 6  86303707.30049  21076251.00049
  23750191.484 4 124808091.813 4  97253103.73848  23750202.55548
  20404011.695 6 107223804.593 6  83551035.59948  20404018.68448
  23418022.250 1                                
  22851481.375 5 120085340.159 5  93573036.24547  22851492.15247
  24485171.484 5 128670442.041 5 100262729.23348  24485181.65648
 20  5 16  3 34  8.0000000  0  9G01G04G07G08G09G11G16G27G30          0.000361340
  21835744.359 6 114747610.804 6  89413753.31349  21835755.99249
  24098236.813 4 126637089.857 4  98678294.53446  24098247.50046
  21942179.383 6 115306927.406 6  89849576.85449  21942186.77049
  21076572.797 6 110758135.640 6  86305068.18449  21076583.40649
  23750590.195 4 124810189.142 4  97254738.02548  23750601.95748
  20403897.695 6 107223206.810 6  83550569.80348  20403904.65648
  23418373.484 1 123064384.12311  95894354.00955  23418382.60945
  22852044.320 5 120088296.720 5  93575340.06747  22852054.52747
  24484568.258 4 128667277.817 4 100260263.61447  24484579.44147
 20  5 16  3 34  9.0000000  0  9G01G04G07G08G09G11G16G27G30          0.000361479
  21835197.320 6 114744735.895 6  89411513.12849  21835209.13749
  24098779.219 5 126639936.374 5  98680512.59246  24098789.52746
  21941744.484 6 115304642.792 6  89847796.63949  21941751.73849
  21076905.078 6 110759882.620 6  86306429.47049  21076915.93049
  23750989.031 4 124812286.937 4  97256372.67448  23751001.08248
  20403784.047 6 107222609.868 6  83550104.64748  20403790.82848
  23418726.305 1 123066235.640 1  95895796.76545  23418734.87945
  22852607.086 5 120091253.604 5  93577644.12547  22852617.41847
  24483966.766 4 128664113.942 4 100257798.25847  24483977.32847
 20  5 16  3 34 10.0000000  0  9G01G04G07G08G09G11G16G27G30          0.000361620
  21834650.211 6 114741861.712 6  89409273.51149  21834661.74249
  24099320.711 5 126642783.165 5  98682730.86646  24099331.43046
  21941310.500 6 115302358.953 6  89846017.02049  21941317.55149
  21077237.844 6 110761630.166 6  86307791.18849  21077248.60949
  23751388.953 4 124814385.245 4  97258007.71448  23751400.44948
  20403670.570 6 107222013.858 6  83549640.22248  20403677.28948
  23419078.367 1 123068087.665 1  95897239.91845  23419087.39545
  22853169.867 5 120094210.840 5  93579948.44647  22853180.01247
  24483364.945 4 128660950.605 4 100255333.31647  24483375.41447
 20  5 16  3 34 11.0000000  0  9G01G04G07G08G09G11G16G27G30          0.000361761
  21834103.641 6 114738988.287 6  89407034.47549  21834115.06349
  24099862.281 4 126645630.287 4  98684949.38446  24099872.91846
  21940875.313 6 115300075.867 6  89844237.98749  21940883.14849
  21077570.297 6 110763378.270 6  86309153.34549  21077580.92649
  23751788.313 4 124816484.165 4  97259643.23348  23751799.89548
  20403557.516 6 107221418.742 6  83549176.49748  20403564.03148
  23419431.016 1 123069940.204 1  95898683.43145  23419439.97745
  22853732.766 5 120097168.437 5  93582253.06047  22853742.67647
  24482763.273 4 128657787.749 4 100252868.75647  24482773.32447
 20  5 16  3 34 12.0000000  0  9G01G04G07G08G09G11G16G27G30          0.000361900
  21833556.688 6 114736115.709 6  89404796.10549  21833568.04349
  24100404.055 4 126648477.848 4  98687168.27646  24100414.55146
  21940441.469 6 115297793.668 6  89842459.64849  21940448.50049
  21077903.430 6 110765127.054 6  86310516.01849  21077914.21549
  23752187.805 4 124818583.733 4  97261279.24548  23752199.44948
  20403444.359 6 107220824.684 6  83548713.59948  20403451.34448
  23419784.797 1 123071793.364 1                
  22854295.867 5 120100126.521 5  93584558.07047  22854305.73847
  24482161.930 4 128654625.507 4 100250404.67147  24482171.58647
 20  5 16  3 34 13.0000000  0  9G01G04G07G08G09G11G16G27G30          0.000362041
  21833010.039 6 114733243.736 6  89402558.20949  21833021.41449
  24100946.242 5 126651325.516 5  98689387.24146  24100956.88346
  21940007.141 6 115295512.122 6  89840681.81149  21940014.82849
  21078236.008 6 110766876.261 6  86311879.02449  21078246.53149
  23752587.500 4 124820683.752 4  97262915.61448  23752598.92648
  20403331.813 6 107220231.424 6  83548251.31948  20403338.56348
  23420137.797 1 123073646.66411                
  22854858.320 5 120103084.920 5  93586863.29448  22854868.42248
  24481560.406 4 128651463.683 4 100247940.91447  24481570.02047
 20  5 16  3 34 14.0000000  0  9G01G04G07G08G09G11G16G27G30          0.000362183
  21832464.242 6 114730372.466 6  89400320.85649  21832475.32849
  24101487.898 4 126654173.425 4  98691606.38646  24101498.75446
  21939572.914 6 115293231.301 6  89838904.53749  21939580.56349
  21078569.070 7 110768626.043 7  86313242.47249  21078579.82449
  23752986.586 4 124822784.285 4  97264552.36448  23752998.60948
  20403218.469 6 107219638.989 6  83547789.68848  20403225.72748
  23420488.922 3 123075500.382 3                
  22855421.289 6 120106043.639 6  93589168.77449  22855431.01649
  24480958.477 4 128648302.301 4 100245477.53047  24480968.57847
 20  5 16  3 34 15.0000000  0  9G01G04G07G08G09G11G16G27G30          0.000362324
  21831917.773 6 114727501.813 6  89398083.98849  21831929.28949
  24102030.336 4 126657021.542 4  98693825.65546  24102040.69946
  21939139.227 6 115290951.168 6  89837127.81149  21939146.56649
  21078902.180 7 110770376.248 7  86314606.24649  21078912.72349
  23753387.148 4 124824885.275 4  97266189.49748  23753398.68048
  20403106.359 6 107219047.420 6  83547328.72048  20403113.21548
  23420842.164 3 123077354.617 3                
  22855984.227 6 120109002.545 6  93591474.41049  22855994.37949
  24480356.828 3 128645141.251 3 100243014.40147  24480367.01247
 20  5 16  3 34 16.0000000  0  9G01G04G07G08G09G11G16G27G30          0.000362467
  21831371.523 6 114724631.954 6  89395847.73649  21831383.20349
  24102572.375 3 126659870.053 3  98696045.27846  24102582.88346
  21938705.211 6 115288671.847 6  89835351.70349  21938712.68849
  21079235.078 7 110772127.161 7  86315970.59449  21079246.16849
  23753787.039 4 124826986.907 4  97267827.13348  23753798.70348
  20402994.203 6 107218456.805 6  83546868.50548  20403001.07048
  23421195.219 1 123079209.262 1                
  22856547.281 6 120111961.968 6  93593780.45549  22856557.37549
  24479755.969 4 128641980.817 4 100240551.74248  24479765.35248
 20  5 16  3 34 17.0000000  0  9G01G04G07G08G09G11G16G27G30          0.000362608
  21830825.570 6 114721762.891 6  89393612.11249  21830837.04749
  24103114.414 4 126662718.890 4  98698265.14446  24103124.94146
  21938271.719 6 115286393.338 6  89833576.25149  21938279.15249
  21079568.586 7 110773878.656 7  86317335.40449  21079579.25849
  23754186.844 4 124829089.068 4  97269465.18348  23754198.31648
  20402881.477 6 107217867.179 6  83546409.04948  20402888.27048
  23421548.336 4 123081064.482 4                
  22857110.797 5 120114921.741 5  93596086.77549  22857120.67649
  24479154.047 4 128638820.911 4 100238089.47147  24479164.04347
 20  5 16  3 34 18.0000000  0  9G01G04G07G08G09G11G16G27G30          0.000362751
  21830279.438 6 114718894.551 6  89391377.05249  21830291.14549
  24103656.617 4 126665567.948 4  98700485.18146  24103666.85546
  21937838.609 6 115284115.563 6  89831801.36149  21937845.94149
  21079901.984 7 110775630.695 7  86318700.64649  21079912.68849
  23754586.516 4 124831191.799 4  97271103.68048  23754598.56648
  20402769.578 6 107217278.433 6  83545950.28548  20402776.48848
  23421900.813 5 123082920.147 5                
  22857673.867 5 120117881.897 5  93598393.41949  22857683.97349
  24478552.641 4 128635661.488 4 100235627.58447  24478563.03947
 20  5 16  3 34 19.0000000  0  9G01G04G07G08G09G11G16G27G30          0.000362892
  21829734.125 6 114716026.843 6  89389142.47949  21829745.58649
  24104199.109 4 126668417.300 4  98702705.44646  24104209.09446
  21937405.117 6 115281838.490 6  89830027.02549  21937412.21149
  21080235.578 6 110777383.256 6  86320066.27749  21080246.07849
  23754987.242 4 124833295.025 4  97272742.56048  23754998.67648
  20402657.203 6 107216690.536 6  83545492.17848  20402664.44148
  23422254.898 5 123084776.198 5  95910241.87256  23422261.77746
  22858237.391 6 120120842.324 6  93600700.25449  22858247.05949
  24477951.578 4 128632502.485 4 100233166.01648  24477962.00048
 20  5 16  3 34 20.0000000  0  9G01G04G07G08G09G11G16G27G30          0.000363035
  21829188.516 6 114713159.825 6  89386908.44249  21829200.02349
  24104741.047 4 126671266.840 4  98704925.86846  24104751.26646
  21936972.047 6 115279562.094 6  89828253.20749  21936979.19549
  21080568.984 7 110779136.256 7  86321432.25749  21080579.82849
  23755387.477 4 124835398.725 4  97274381.79848  23755399.28948
  20402545.797 6 107216103.475 6  83545034.72748  20402552.91048
  23422607.617 5 123086632.647 5  95911688.45746  23422614.58646
  22858800.563 5 120123803.057 5  93603007.31749  22858811.07049
  24477349.852 4 128629343.869 4 100230704.75248  24477360.99248
 20  5 16  3 34 21.0000000  0  9G01G04G07G08G09G11G16G27G30          0.000363178
  21828643.211 6 114710293.409 6  89384674.87249  21828654.12149
  24105283.352 4 126674116.566 4  98707146.43446  24105294.01246
  21936538.977 6 115277286.376 6  89826479.92149  21936545.99249
  21080902.820 7 110780889.755 7  86322798.61649  21080913.64849
  23755787.648 4 124837502.830 4  97276021.35648  23755799.19548
  20402434.695 6 107215517.210 6  83544577.89448  20402441.61348
  23422961.281 5 123088489.445 5  95913135.33246  23422968.34846
  22859364.453 5 120126764.057 5  93605314.58449  22859374.23449
  24476749.766 4 128626185.679 4 100228243.83248  24476759.69948
 20  5 16  3 34 22.0000000  0  9G01G04G07G08G09G11G16G27G30          0.000363319
  21828097.961 6 114707427.726 6  89382441.86949  21828108.99249
  24105825.672 4 126676966.566 4  98709367.21846  24105836.17246
  21936106.063 6 115275011.367 6  89824707.18749  21936113.11749
  21081236.617 7 110782643.798 7  86324165.40149  21081247.42649
  23756188.516 4 124839607.502 4  97277661.35148  23756199.91448
  20402323.094 6 107214931.854 6  83544121.77548  20402330.16848
  23423313.906 5 123090346.653 5  95914582.51746  23423321.69546
  22859927.555 5 120129725.388 5  93607622.10649  22859937.83649
  24476148.633 4 128623027.920 4 100225783.23848  24476159.05948
 20  5 16  3 34 23.0000000  0  9G01G04G07G08G09G11G16G27G30          0.000363462
  21827552.633 6 114704562.715 6  89380209.39249  21827563.55549
  24106368.492 4 126679816.788 4  98711588.17246  24106378.48046
  21935673.398 6 115272737.119 6  89822935.04149  21935680.35249
  21081570.445 6 110784398.393 6  86325532.61149  21081580.87149
  23756588.703 4 124841712.695 4  97279301.76248  23756600.19148
  20402211.555 6 107214347.378 6  83543666.33648  20402219.09448
  23423667.859 5 123092204.335 5  95916030.06346  23423675.14846
  22860491.555 5 120132687.053 5  93609929.89349  22860501.39849
  24475547.422 3 128619870.690 3 100223323.06147  24475558.24247
 20  5 16  3 34 24.0000000  0  9G01G04G07G08G09G11G16G27G30          0.000363605
  21827007.828 6 114701698.415 6  89377977.46949  21827018.49249
  24106910.109 4 126682667.281 4  98713809.33046  24106921.08246
  21935240.664 6 115270463.583 6  89821163.45249  21935247.90249
  21081904.391 6 110786153.516 6  86326900.23749  21081915.08249
  23756989.813 4 124843818.395 4  97280942.56348  23757001.03148
  20402100.742 6 107213763.803 6  83543211.60448  20402107.85248
  23424021.672 5 123094062.420 5  95917477.91146  23424029.00046
  22861054.867 5 120135649.064 5  93612237.95649  22861065.48849
  24474946.750 3 128616713.894 3 100220863.22247  24474957.66447
 20  5 16  3 34 25.0000000  0  9G01G04G07G08G09G11G16G27G30          0.000363750
  21826462.445 6 114698834.896 6  89375746.15649  21826473.73849
  24107453.211 4 126685518.158 4  98716030.79746  24107463.62546
  21934808.313 6 115268190.844 6  89819392.48949  21934815.26649
  21082238.641 6 110787909.205 6  86328268.31149  21082249.23049
  23757389.898 4 124845924.690 4  97282583.83648  23757400.97348
  20401989.633 6 107213181.181 6  83542757.61648  20401996.99648
  23424375.109 5 123095921.011 5  95918926.15046  23424382.51246
  22861618.703 6 120138611.495 6  93614546.34149  22861628.83649
  24474346.039 3 128613557.575 3 100218403.75348  24474356.93048
 20  5 16  3 34 26.0000000  0  9G01G04G07G08G09G11G16G27G30          0.000363894
  21825917.508 6 114695972.261 6  89373515.53149  21825929.31349
  24107995.891 4 126688369.396 4  98718252.52146  24108006.48846
  21934375.734 6 115265919.021 6  89817622.24049  21934382.88349
  21082572.797 6 110789665.624 6  86329636.94249  21082583.35949
  23757791.500 4 124848031.653 4  97284225.62248  23757802.85248
  20401879.359 6 107212599.565 6  83542304.41148  20401886.08248
  23424729.219 5 123097780.142 5  95920374.82146  23424736.33646
  22862181.938 5 120141574.420 5  93616855.11249  22862192.54349
  24473745.656 3 128610401.952 3 100215944.82947  24473756.37147
 20  5 16  3 34 27.0000000  0  9G01G04G07G08G09G11G16G27G30          0.000364037
  21825373.133 6 114693110.207 6  89371285.36249  21825384.59049
  24108538.125 4 126691220.840 4  98720474.42046  24108548.92246
  21933943.586 6 115263647.829 6  89815852.47949  21933950.66849
  21082906.820 6 110791422.463 6  86331005.91149  21082917.55149
  23758192.234 4 124850139.085 4  97285867.78048  23758203.64548
  20401768.398 6 107212018.776 6  83541851.84848  20401775.37948
  23425082.813 5 123099639.674 5  95921823.80546  23425090.12546
  22862746.305 5 120144537.559 5  93619164.05349  22862756.22349
  24473145.406 3 128607246.724 3 100213486.22147  24473156.06647
 20  5 16  3 34 28.0000000  0  9G01G04G07G08G09G11G16G27G30          0.000364182
  21824828.477 6 114690248.791 6  89369055.68849  21824840.20749
  24109080.930 4 126694072.420 4  98722696.41646  24109091.70346
  21933511.648 6 115261377.260 6  89814083.20849  21933518.74649
  21083241.680 6 110793179.761 6  86332375.22949  21083251.96549
  23758593.227 4 124852246.924 4  97287510.24848  23758605.23048
  20401658.094 6 107211438.763 6  83541399.88748  20401665.09048
  23425436.922 5 123101499.501 5  95923273.01646  23425443.82046
  22863310.375 5 120147500.943 5  93621473.18149  22863320.58249
  24472545.156 4 128604091.781 4 100211027.82647  24472555.71947
 20  5 16  3 34 29.0000000  0  9G01G04G07G08G09G11G16G27G30          0.000364326
  21824284.227 6 114687387.966 6  89366826.47349  21824295.68449
  24109623.695 4 126696924.157 4  98724918.55446  24109634.31346
  21933079.508 6 115259107.377 6  89812314.46749  21933086.60949
  21083576.102 6 110794937.537 6  86333744.92749  21083586.64849
  23758994.570 4 124854355.193 4  97289153.05148  23759006.01248
  20401547.945 6 107210859.562 6  83540948.56048  20401554.88748
  23425790.945 5 123103359.716 5  95924722.53246  23425798.13746
  22863874.023 6 120150464.599 6  93623782.52149  22863884.25049
  24471945.359 4 128600937.269 4 100208569.76247  24471955.62947
 20  5 16  3 34 30.0000000  0  9G01G04G07G08G09G11G16G27G30          0.000364470
  21823739.445 6 114684527.752 6  89364597.73949  21823751.10249
  24110165.734 3 126699776.071 3  98727140.82646  24110177.37946
  21932647.945 6 115256838.103 6  89810546.20149  21932654.83649
  21083910.531 6 110796695.737 6  86335114.95249  21083921.12949
  23759395.766 4 124856463.934 4  97290796.22348  23759407.17248
  20401438.023 6 107210281.142 6  83540497.84448  20401444.93448
  23426145.086 5 123105220.236 5  95926172.29546  23426151.95346
  22864437.984 5 120153428.507 5  93626092.06049  22864448.10249
  24471344.492 4 128597783.150 4 100206112.00447  24471355.06647
 20  5 16  3 34 31.0000000  0  9G01G04G07G08G09G11G16G27G30          0.000364614
  21823196.047 6 114681668.317 6  89362369.60949  21823207.22749
  24110708.891 4 126702628.332 4  98729363.36146  24110720.44546
  21932216.383 6 115254569.651 6  89808778.57149  21932223.62549
  21084245.094 6 110798454.557 6  86336485.46249  21084255.81349
  23759797.063 4 124858573.206 4  97292439.80948  23759808.43448
  20401328.219 6 107209703.698 6  83540047.88748  20401335.11348
  23426498.742 5 123107081.263 5  95927622.44846  23426506.26646
  22865002.445 5 120156392.825 5  93628401.91749  22865012.05149
  24470744.297 4 128594629.508 4 100203654.61847  24470754.84847
 20  5 16  3 34 32.0000000  0  9G01G04G07G08G09G11G16G27G30          0.000364759
  21822651.578 6 114678809.545 6  89360141.99949  21822662.96549
  24111251.242 4 126705480.822 4  98731586.08446  24111262.71546
  21931784.258 6 115252301.859 6  89807011.46149  21931791.77049
  21084579.633 6 110800213.836 6  86337856.32949  21084590.72349
  23760198.766 4 124860682.984 4  97294083.79248  23760209.55548
  20401218.344 6 107209127.067 6  83539598.56448  20401225.49248
  23426853.250 5 123108942.666 5  95929072.89646  23426860.17646
  22865566.555 6 120159357.396 6  93630711.97349  22865576.48049
  24470144.461 4 128591476.283 4 100201197.55548  24470154.71548
 20  5 16  3 34 33.0000000  0  9G01G04G07G08G09G11G16G27G30          0.000364904
  21822108.094 6 114675951.424 6  89357914.89349  21822119.41049
  24111793.953 4 126708333.495 4  98733808.93746  24111805.66446
  21931353.070 6 115250034.764 6  89805244.89649  21931360.16049
  21084915.109 6 110801973.623 6  86339227.59249  21084925.39549
  23760600.016 4 124862793.170 4  97295728.08948  23760611.48048
  20401108.883 6 107208551.271 6  83539149.89648  20401115.78548
  23427207.086 5 123110804.465 5  95930523.64046  23427214.48046
  22866130.703 5 120162322.271 5  93633022.26349  22866140.34849
  24469544.273 4 128588323.545 4 100198740.88148  24469554.85948
 20  5 16  3 34 34.0000000  0  9G01G04G07G08G09G11G16G27G30          0.000365049
  21821563.844 6 114673093.998 6  89355688.32949  21821575.39849
  24112337.719 4 126711186.413 4  98736031.98346  24112348.80946
  21930922.000 6 115247768.395 6  89803478.89349  21930928.93449
  21085250.227 6 110803733.934 6  86340599.26449  21085260.69549
  23761002.398 4 124864903.980 4  97297372.87448  23761013.12548
  20400999.094 6 107207976.354 6  83538701.90748  20401006.33648
  23427561.695 5 123112666.636 5  95931974.68146  23427569.03546
  22866695.078 5 120165287.469 5  93635332.80349  22866705.07849
  24468944.508 4 128585171.229 4 100196284.53548  24468954.97348
 20  5 16  3 34 35.0000000  0  9G01G04G07G08G09G11G16G27G30          0.000365194
  21821020.641 6 114670237.397 6  89353462.40849  21821032.11349
  24112879.977 4 126714039.711 4  98738255.33546  24112891.49646
  21930490.563 6 115245502.885 6  89801713.56449  21930497.95349
  21085585.070 6 110805494.912 6  86341971.45049  21085595.39149
  23761403.188 3 124867015.335 3  97299018.08348  23761414.84048
  20400890.055 6 107207402.448 6  83538254.70848  20400896.82048
  23427916.016 5 123114529.380 5  95933426.17546  23427923.69546
  22867259.383 5 120168253.121 5  93637643.70349  22867268.96949
  24468344.820 4 128582019.491 4 100193828.63448  24468355.25448
 20  5 16  3 34 36.0000000  0  9G01G04G07G08G09G11G16G27G30          0.000365339
  21820476.703 6 114667381.494 6  89351237.03149  21820488.38349
  24113423.703 4 126716893.261 4  98740478.87146  24113434.41446
  21930060.180 6 115243238.070 6  89799948.77149  21930067.02349
  21085920.195 6 110807256.392 6  86343344.03149  21085931.00449
  23761805.883 3 124869127.237 3  97300663.72148  23761817.12948
  20400781.000 6 107206829.400 6  83537808.17948  20400787.80148
  23428270.828 5 123116392.515 5  95934877.97146  23428278.16846
  22867823.883 5 120171219.101 5  93639954.85449  22867833.66849
  24467745.305 4 128578868.196 4 100191373.07748  24467755.32448
 20  5 16  3 34 37.0000000  0  9G01G04G07G08G09G11G16G27G30          0.000365486
  21819933.625 6 114664526.022 6  89349011.98449  21819944.99649
  24113966.484 4 126719746.816 4  98742702.42146  24113977.81646
  21929629.125 6 115240973.765 6  89798184.38149  21929636.13749
  21086255.563 6 110809018.161 6  86344716.83749  21086265.60949
  23762207.438 3 124871239.400 3  97302309.56148  23762218.78948
  20400672.258 6 107206256.994 6  83537362.14948  20400679.34448
  23428625.539 4 123118255.893 4  95936329.94646  23428632.77046
  22868388.031 5 120174185.170 5  93642266.07449  22868397.96949
  24467145.844 4 128575717.111 4 100188917.68848  24467155.78548
 20  5 16  3 34 38.0000000  0  9G01G04G07G08G09G11G16G27G30          0.000365631
  21819391.000 6 114661671.405 6  89346787.60549  21819401.69549
  24114509.938 4 126722600.739 4  98744926.25046  24114520.95746
  21929198.297 6 115238710.318 6  89796420.65349  21929205.72749
  21086590.930 6 110810780.615 6  86346090.18549  21086601.64849
  23762610.227 4 124873352.227 4  97303955.91048  23762620.93848
  20400563.438 6 107205685.616 6  83536916.91748  20400570.34448
  23428979.969 4 123120119.780 4  95937782.32446  23428987.29746
  22868952.648 5 120177151.721 5  93644577.67049  22868962.29749
  24466546.320 3 128572566.654 3 100186462.78748  24466556.43448
 20  5 16  3 34 39.0000000  0  9G01G04G07G08G09G11G16G27G30          0.000365778
  21818847.242 6 114658817.508 6  89344563.78949  21818858.79349
  24115053.305 4 126725454.984 4  98747150.33146  24115063.84846
  21928767.531 6 115236447.634 6  89794657.51649  21928774.92649
  21086926.391 6 110812543.606 6  86347463.94349  21086936.37549
  23763011.664 3 124875465.601 3  97305602.69148  23763023.04748
  20400454.945 6 107205115.146 6  83536472.39848  20400462.02048
  23429334.305 4 123121984.113 4  95939235.05346  23429342.05146
  22869517.500 6 120180118.585 6  93646889.51749  22869527.05549
  24465946.773 4 128569416.685 4 100184008.26848  24465957.00848
 20  5 16  3 34 40.0000000  0  9G01G04G07G08G09G11G16G27G30          0.000365923
  21818304.281 6 114655964.285 6  89342340.50149  21818315.64549
  24115596.148 4 126728309.432 4  98749374.57646  24115607.02746
  21928337.391 6 115234185.660 6  89792894.94049  21928344.82449
  21087261.680 6 110814307.134 6  86348838.11849  21087271.98849
  23763413.906 3 124877579.470 3  97307249.85648  23763425.22348
  20400346.461 6 107204545.512 6  83536028.52248  20400353.67648
  23429689.500 4 123123848.901 4  95940688.13846  23429696.96946
  22870081.977 5 120183085.781 5  93649201.61349  22870091.89149
  24465347.344 4 128566267.131 4 100181554.06448  24465357.64848
 20  5 16  3 34 41.0000000  0  9G01G04G07G08G09G11G16G27G30          0.000366070
  21817761.797 6 114653111.895 6  89340117.86249  21817772.92649
  24116139.414 4 126731164.281 4  98751599.13646  24116150.41446
  21927906.859 6 115231924.523 6  89791133.00949  21927914.18849
  21087597.484 6 110816071.302 6  86350212.79349  21087607.65649
  23763817.563 4 124879693.928 4  97308897.48048  23763827.87948
  20400237.969 6 107203976.897 6  83535585.45048  20400245.28548
  23430044.086 4 123125714.164 4  95942141.58446  23430052.01246
  22870646.617 5 120186053.438 5  93651514.07649  22870656.53549
  24464748.789 4 128563118.147 4 100179100.31447  24464758.43847
 20  5 16  3 34 42.0000000  0  9G01G04G07G08G09G11G16G27G30          0.000366217
  21817219.047 6 114650260.159 6  89337895.73149  21817230.48849
  24116682.516 4 126734019.330 4  98753823.84846  24116693.95746
  21927476.719 6 115229664.108 6  89789371.65049  21927484.12949
  21087933.352 6 110817835.970 6  86351587.86349  21087943.77749
  23764219.602 4 124881808.926 4  97310545.52448  23764230.05148
  20400130.234 6 107203409.109 6  83535143.02048  20400136.97348
  23430399.469 4 123127579.881 4  95943595.38546  23430406.89146
  22871211.781 5 120189021.377 5  93653826.75749  22871221.37549
  24464148.594 4 128559969.646 4 100176646.94047  24464159.62947
 20  5 16  3 34 43.0000000  0  9G01G04G07G08G09G11G16G27G30          0.000366364
  21816676.492 6 114647409.146 6  89335674.16749  21816687.72349
  24117226.094 4 126736874.625 4  98756048.73446  24117237.00046
  21927046.922 6 115227404.404 6  89787610.84649  21927053.93449
  21088269.281 6 110819601.195 6  86352963.36449  21088279.64149
  23764622.008 4 124883924.412 4  97312193.95348  23764632.69948
  20400022.203 6 107202842.231 6  83534701.29648  20400029.60548
  23430754.836 4 123129446.004 4  95945049.50246  23430761.84046
  22871775.914 5 120191989.681 5  93656139.71949  22871785.98049
  24463549.617 4 128556821.551 4 100174193.87848  24463560.28548
 20  5 16  3 34 44.0000000  0  9G01G04G07G08G09G11G16G27G30          0.000366510
  21816134.047 6 114644558.802 6  89333453.12249  21816145.02049
  24117769.438 4 126739730.177 4  98758273.83046  24117780.28146
  21926617.148 6 115225145.433 6  89785850.60949  21926624.10249
  21088605.234 6 110821366.929 6  86354339.25449  21088615.64849
  23765024.047 4 124886040.417 4  97313842.79148  23765035.41048
  20399914.742 6 107202276.210 6  83534260.23648  20399921.80548
  23431109.766 5 123131312.549 5  95946503.94846  23431117.26246
  22872341.172 5 120194958.269 5  93658452.89649  22872350.87949
  24462950.617 4 128553673.947 4 100171741.20348  24462961.35548
 20  5 16  3 34 45.0000000  0  9G01G04G07G08G09G11G16G27G30          0.000366657
  21815590.969 6 114641709.166 6  89331232.62949  21815603.00449
  24118312.906 4 126742585.944 4  98760499.09746  24118324.10546
  21926187.438 6 115222887.166 6  89784090.92149  21926194.31349
  21088941.563 6 110823133.190 6  86355715.56849  21088952.12949
  23765427.609 4 124888156.912 4  97315492.00548  23765437.64848
  20399807.078 6 107201711.037 6  83533819.84648  20399813.96148
  23431465.383 5 123133179.477 5  95947958.69846  23431472.52346
  22872906.648 5 120197927.185 5  93660766.33749  22872916.02349
  24462351.164 4 128550526.791 4 100169288.87248  24462362.18448
 20  5 16  3 34 46.0000000  0  9G01G04G07G08G09G11G16G27G30          0.000366806
  21815049.781 6 114638860.201 6  89329012.65849  21815060.84449
  24118856.031 4 126745441.960 4  98762724.56346  24118867.27746
  21925757.516 6 115220629.611 6  89782331.78249  21925764.62949
  21089277.664 6 110824899.930 6  86357092.24749  21089288.23849
  23765830.195 4 124890273.892 4  97317141.60348  23765841.29348
  20399699.484 6 107201146.744 6  83533380.13448  20399706.80148
  23431820.914 5 123135046.821 5  95949413.77346  23431827.84446
  22873471.359 5 120200896.411 5  93663080.02149  22873481.16049
  24461753.352 4 128547380.062 4 100166836.87348  24461763.45748
 20  5 16  3 34 47.0000000  0  9G01G04G07G08G09G11G16G27G30          0.000366953
  21814507.430 6 114636011.900 6  89326793.20249  21814518.90249
  24119399.359 4 126748298.179 4  98764950.17946  24119410.86746
  21925327.938 6 115218372.768 6  89780573.20449  21925335.19549
  21089613.609 6 110826667.183 6  86358469.32849  21089624.43449
  23766232.961 4 124892391.341 4  97318791.55948  23766243.96948
  20399592.570 6 107200583.301 6  83532941.08548  20399599.46948
  23432176.344 5 123136914.546 5  95950869.13946  23432183.02746
  22874036.328 6 120203865.913 6  93665393.91949  22874046.12149
  24461154.055 4 128544233.752 4 100164385.21148  24461165.04348
 20  5 16  3 34 48.0000000  0  9G01G04G07G08G09G11G16G27G30          0.000367100
  21813965.641 6 114633164.329 6  89324574.31249  21813977.04349
  24119943.336 4 126751154.721 4  98767176.05746  24119954.56646
  21924898.766 6 115216116.667 6  89778815.20549  21924906.16049
  21089950.391 6 110828434.986 6  86359846.83549  21089960.67249
  23766636.320 4 124894509.364 4  97320441.96148  23766647.03948
  20399485.594 6 107200020.751 6  83532502.73748  20399492.60248
  23432531.688 5 123138782.759 5  95952324.89646  23432538.47746
  22874601.305 5 120206835.832 5  93667708.14149  22874611.16449
  24460556.031 4 128541087.922 4 100161933.91448  24460566.31348
 20  5 16  3 34 49.0000000  0  9G01G04G07G08G09G11G16G27G30          0.000367249
  21813424.000 6 114630317.495 6  89322356.00149  21813435.44549
  24120486.641 4 126754011.510 4  98769402.12846  24120497.92646
  21924470.164 6 115213861.364 6  89777057.82649  21924476.78549
  21090286.961 6 110830203.343 6  86361224.77249  21090297.40249
  23767039.469 3 124896627.920 3  97322092.78148  23767049.79748
  20399378.555 6 107199459.133 6  83532065.11148  20399385.80148
  23432886.961 5 123140651.404 5  95953780.97646  23432894.40646
  22875166.742 5 120209806.094 5  93670022.63149  22875176.18849
  24459957.430 4 128537942.643 4 100159483.05248  24459967.86748
 20  5 16  3 34 50.0000000  0  9G01G04G07G08G09G11G16G27G30          0.000367397
  21812882.195 6 114627471.390 6  89320138.25749  21812893.72349
  24121030.586 3 126756868.586 3  98771628.42346  24121041.76246
  21924040.383 6 115211606.778 6  89775301.00649  21924047.66049
  21090623.414 6 110831972.271 6  86362603.15849  21090633.61749
  23767441.844 4 124898747.013 4  97323744.01848  23767453.18848
  20399271.891 6 107198898.401 6  83531628.17948  20399278.98048
  23433242.953 5 123142520.504 5  95955237.41446  23433249.93446
  22875732.039 5 120212776.676 5  93672337.36449  22875741.58649
  24459358.836 4 128534797.773 4 100157032.51048  24459369.17248
 20  5 16  3 34 51.0000000  0  9G01G04G07G08G09G11G16G27G30          0.000367546
  21812340.867 6 114624626.054 6  89317921.11849  21812352.16049
  24121574.055 3 126759725.996 3  98773854.97846  24121585.41446
  21923611.781 6 115209353.030 6  89773544.83849  21923618.64149
  21090960.117 6 110833741.811 6  86363982.02049  21090970.59049
  23767845.703 4 124900866.715 4  97325395.72948  23767856.91448
  20399165.563 6 107198338.660 6  83531192.01448  20399172.39548
  23433598.609 5 123144390.100 5  95956694.24446  23433605.91046
  22876297.094 6 120215747.687 6  93674652.43849  22876307.03949
  24458759.852 4 128531653.503 4 100154582.43348  24458770.77748
 20  5 16  3 34 52.0000000  0  9G01G04G07G08G09G11G16G27G30          0.000367695
  21811799.664 6 114621781.418 6  89315704.51649  21811811.00849
  24122118.070 4 126762583.685 4  98776081.73246  24122129.44946
  21923183.180 6 115207100.006 6  89771789.23149  21923190.25049
  21091296.844 6 110835511.851 6  86365361.27649  21091307.45349
  23768249.016 4 124902986.914 4  97327047.83048  23768260.10548
  20399059.000 6 107197779.776 6  83530756.52648  20399066.27348
  23433954.664 5 123146260.131 5  95958151.40946  23433961.66046
  22876862.570 5 120218719.025 5  93676967.76549  22876872.14549
  24458162.844 4 128528509.709 4 100152132.73448  24458172.75048
 20  5 16  3 34 53.0000000  0  9G01G04G07G08G09G11G16G27G30          0.000367844
  21811258.547 6 114618937.504 6  89313488.47849  21811269.83649
  24122662.102 4 126765441.590 4  98778308.65646  24122673.22746
  21922754.313 6 115204847.728 6  89770034.21449  21922761.76649
  21091634.016 6 110837282.441 6  86366740.95049  21091644.36349
  23768652.641 4 124905107.634 4  97328700.34148  23768663.60248
  20398952.984 6 107197221.802 6  83530321.73948  20398959.69948
  23434310.445 5 123148130.586 5  95959608.90146  23434317.67646
  22877428.258 5 120221690.739 5  93679283.38349  22877438.03149
  24457563.914 4 128525366.353 4 100149683.37548  24457574.47348
 20  5 16  3 34 54.0000000  0  9G01G04G07G08G09G11G16G27G30          0.000367992
  21810717.555 6 114616094.293 6  89311272.99249  21810728.77049
  24123206.281 4 126768299.750 4  98780535.79046  24123217.03946
  21922325.836 6 115202596.160 6  89768279.74849  21922332.91049
  21091970.977 6 110839053.562 6  86368121.04949  21091981.25449
  23769056.383 4 124907228.921 4  97330353.29148  23769067.67648
  20398847.102 6 107196664.691 6  83529887.62348  20398853.84048
  23434666.117 5 123150001.459 5  95961066.72246  23434674.00446
  22877993.578 5 120224662.715 5  93681599.20849  22878003.67649
  24456966.234 4 128522223.485 4 100147234.40048  24456976.23848
 20  5 16  3 34 55.0000000  0  9G01G04G07G08G09G11G16G27G30          0.000368141
  21810176.625 6 114613251.788 6  89309058.05149  21810188.35549
  24123749.914 3 126771158.195 3  98782763.14946  24123760.74646
  21921897.695 6 115200345.343 6  89766525.86349  21921904.74249
  21092308.109 6 110840825.203 6  86369501.54349  21092318.18849
  23769459.859 4 124909350.676 4  97332006.60448  23769470.94948
  20398741.555 6 107196108.452 6  83529454.19248  20398748.18448
  23435022.336 5 123151872.789 5  95962524.90346  23435030.03946
  22878559.414 5 120227635.085 5  93683915.33949  22878569.29349
  24456367.750 5 128519081.112 5 100144785.80348  24456378.40648
 20  5 16  3 34 56.0000000  0  9G01G04G07G08G09G11G16G27G30          0.000368292
  21809635.828 6 114610409.885 6  89306843.58549  21809647.18449
  24124293.984 4 126774016.792 4  98784990.62246  24124304.96546
  21921469.648 6 115198095.187 6  89764772.49149  21921476.31349
  21092645.031 6 110842597.291 6  86370882.39549  21092655.76649
  23769863.828 4 124911472.838 4  97333660.22848  23769875.04748
  20398635.492 6 107195553.019 6  83529021.38848  20398642.22348
  23435378.688 5 123153744.438 5  95963983.32346  23435385.74646
  22879125.031 5 120230607.653 5  93686231.62849  22879135.11349
  24455770.188 5 128515939.042 5 100142337.44948  24455780.65248
 20  5 16  3 34 57.0000000  0  9G01G04G07G08G09G11G16G27G30          0.000368441
  21809094.727 6 114607568.497 6  89304629.51649  21809106.45749
  24124837.383 4 126776875.445 4  98787218.14546  24124849.14546
  21921041.531 6 115195845.549 6  89763019.52549  21921048.52349
  21092982.719 6 110844369.730 6  86372263.51549  21092992.82449
  23770267.813 4 124913595.398 4  97335314.16648  23770279.10248
  20398530.148 6 107194998.269 6  83528589.11848  20398536.60548
  23435734.703 5 123155616.305 5  95965441.91846  23435742.27346
  22879690.664 5 120233580.374 5  93688548.03049  22879700.20749
  24455172.789 5 128512797.271 5 100139889.32948  24455183.07848
 20  5 16  3 34 58.0000000  0  9G01G04G07G08G09G11G16G27G30          0.000368589
  21808554.367 6 114604727.721 6  89302415.92849  21808565.88749
  24125381.398 4 126779734.246 4  98789445.77646  24125393.22346
  21920613.391 6 115193596.548 6  89761267.06149  21920620.53149
  21093320.188 6 110846142.623 6  86373644.99149  21093330.45349
  23770671.352 4 124915718.251 4  97336968.33548  23770683.06648
  20398424.406 6 107194444.317 6  83528157.46848  20398431.25448
  23436091.313 5 123157488.520 5  95966900.79046  23436098.21146
  22880256.086 5 120236553.348 5  93690864.63549  22880266.63349
  24454574.844 5 128509655.874 5 100137441.49148  24454585.20348
 20  5 16  3 34 59.0000000  0  9G01G04G07G08G09G11G16G27G30          0.000368740
  21808013.805 6 114601887.646 6  89300202.88249  21808025.46149
  24125925.984 4 126782593.354 4  98791673.64346  24125937.35946
  21920185.648 6 115191348.309 6  89759515.18849  21920192.61349
  21093657.484 6 110847916.060 6  86375026.89449  21093667.80149
  23771075.727 3 124917841.786 3  97338623.03748  23771087.07848
  20398318.953 6 107193891.274 6  83527726.52548  20398325.60248
  23436447.977 5 123159361.188 5  95968360.01846  23436454.64146
  22880822.016 5 120239526.676 5  93693181.51149  22880832.15249
  24453976.211 5 128506514.979 5 100134994.04948  24453987.63348
 20  5 16  3 35  0.0000000  0  9G01G04G07G08G09G11G16G27G30          0.000368891
  21807473.570 6 114599048.314 6  89297990.41249  21807485.25449
  24126470.141 4 126785452.660 4  98793901.66646  24126481.08646
  21919758.133 6 115189100.796 6  89757763.87849  21919765.02349
  21093994.828 6 110849690.025 6  86376409.20549  21094005.51649
  23771479.758 4 124919965.732 4  97340278.05948  23771491.07848
  20398214.039 6 107193339.081 6  83527296.24648  20398220.88348
  23436803.727 5 123161234.254 5  95969819.55546  23436810.95346
  22881388.063 5 120242500.292 5  93695498.61949  22881397.71149
  24453379.063 5 128503374.479 5 100132546.91248  24453390.02348
 20  5 16  3 35  1.0000000  0  9G01G04G07G08G09G11G16G27G30          0.000369040
  21806933.328 6 114596209.571 6  89295778.41149  21806944.57049
  24127014.289 4 126788312.141 4  98796129.82446  24127025.12146
  21919329.977 6 115186853.923 6  89756013.06549  21919337.60249
  21094332.641 6 110851464.453 6  86377791.87449  21094342.94949
  23771883.852 4 124922090.137 4  97341933.43848  23771895.30548
  20398109.320 6 107192787.685 6  83526866.58548  20398115.89548
  23437160.586 5 123163107.664 5  95971279.36146  23437167.45746
  22881953.672 5 120245474.169 5  93697815.92549  22881963.98049
  24452781.602 4 128500234.390 4 100130100.08848  24452792.07848
 20  5 16  3 35  2.0000000  0  9G01G04G07G08G09G11G16G27G30          0.000369190
  21806393.719 6 114593371.486 6  89293566.91549  21806404.52749
  24127558.672 4 126791171.853 4  98798358.17946  24127569.63746
  21918902.688 6 115184607.747 6  89754262.80149  21918910.03149
  21094670.195 6 110853239.381 6  86379174.93149  21094680.33649
  23772288.664 3 124924215.015 3  97343589.17948  23772299.65648
  20398004.508 6 107192237.160 6  83526437.60248  20398011.25448
  23437516.727 5 123164981.483 5  95972739.47346  23437524.35546
  22882520.195 5 120248448.353 5  93700133.46649  22882529.98449
  24452184.148 4 128497094.724 4 100127653.59448  24452194.85948
 20  5 16  3 35  3.0000000  0  9G01G04G07G08G09G11G16G27G30          0.000369341
  21805853.781 6 114590534.100 6  89291355.96749  21805864.92249
  24128102.883 4 126794031.764 4  98800586.68446  24128113.62146
  21918475.844 6 115182362.262 6  89752513.07049  21918482.59849
  21095008.516 6 110855014.785 6  86380558.36049  21095018.72349
  23772693.219 3 124926340.384 3  97345245.30448  23772703.89548
  20397900.008 6 107191687.471 6  83526009.27548  20397906.40648
  23437873.016 5 123166855.680 5  95974199.88246  23437880.91046
  22883085.703 5 120251422.813 5  93702451.22649  22883095.69549
  24451586.594 4 128493955.505 4 100125207.45048  24451597.62948
 20  5 16  3 35  4.0000000  0  9G01G04G07G08G09G11G16G27G30          0.000369492
  21805313.469 6 114587697.440 6  89289145.58949  21805325.22349
  24128647.063 4 126796891.979 4  98802815.42546  24128658.03146
  21918048.305 6 115180117.545 6  89750763.93849  21918055.62949
  21095346.219 6 110856790.738 6  86381942.22149  21095356.48849
  23773097.977 4 124928466.264 4  97346901.83148  23773108.68848
  20397795.195 6 107191138.676 6  83525581.64148  20397802.40648
  23438230.945 5 123168730.322 5  95975660.63146  23438237.68446
  22883651.984 5 120254397.625 5  93704769.26149  22883661.75849
  24450989.375 4 128490816.745 4 100122761.66048  24451000.07448
 20  5 16  3 35  5.0000000  0  9G01G04G07G08G09G11G16G27G30          0.000369642
  21804773.867 6 114584861.502 6  89286935.76849  21804785.12149
  24129191.422 4 126799752.509 4  98805044.39646  24129202.18446
  21917621.578 6 115177873.622 6  89749015.42749  21917628.45749
  21095684.242 6 110858567.275 6  86383326.53749  21095694.25849
  23773502.680 4 124930592.721 4  97348558.80948  23773513.12948
  20397691.289 6 107190590.825 6  83525154.74448  20397697.98048
  23438587.430 5 123170605.453 5  95977121.76346  23438594.64146
  22884218.633 5 120257372.846 5  93707087.61649  22884227.91449
  24450392.344 4 128487678.517 4 100120316.27848  24450403.06348
 20  5 16  3 35  6.0000000  0  9G01G04G07G08G09G11G16G27G30          0.000369795
  21804234.547 6 114582026.221 6  89284726.45649  21804245.89549
  24129736.273 4 126802613.154 4  98807273.45946  24129746.46946
  21917194.609 6 115175630.335 6  89747267.41149  21917201.93049
  21096022.219 6 110860344.273 6  86384711.21149  21096032.79349
  23773906.969 4 124932719.599 4  97350216.11748  23773917.39548
  20397586.734 6 107190043.773 6  83524728.47448  20397593.95748
  23438944.148 5 123172480.953 5  95978583.18646  23438951.48446
  22884784.789 5 120260348.282 5  93709406.13649  22884794.15249
  24449795.867 4 128484540.661 4 100117871.19548  24449805.88748
 20  5 16  3 35  7.0000000  0  9G01G04G07G08G09G11G16G27G30          0.000369946
  21803695.727 6 114579191.650 6  89282517.69949  21803706.82449
  24130280.391 4 126805474.104 4  98809502.76846  24130291.39146
  21916767.945 6 115173387.795 6  89745519.97849  21916774.71149
  21096360.500 6 110862121.831 6  86386096.32349  21096371.25449
  23774312.406 4 124934847.031 4  97351873.85548  23774322.59048
  20397483.039 6 107189497.601 6  83524302.88048  20397489.64148
  23439301.289 5 123174356.862 5  95980044.94746  23439308.31646
  22885351.063 5 120263324.132 5  93711724.97949  22885360.08249
  24449198.484 4 128481403.307 4 100115426.49948  24449209.07448
 20  5 16  3 35  8.0000000  0  9G01G04G07G08G09G11G16G27G30          0.000370098
  21803155.859 6 114576357.762 6  89280309.47449  21803167.13349
  24130825.016 4 126808335.262 4  98811732.24446  24130835.67246
  21916340.977 6 115171145.980 6  89743773.10749  21916348.12149
  21096699.383 6 110863899.865 6  86387481.80349  21096709.73049
  23774716.500 4 124936974.945 4  97353531.96948  23774727.59448
  20397379.313 6 107188952.328 6  83523877.99548  20397386.19148
  23439658.656 5 123176233.196 5  95981507.02146  23439665.70346
  22885917.250 5 120266300.239 5  93714044.02249  22885926.82449
  24448601.320 4 128478266.390 4 100112982.14648  24448611.85248
 20  5 16  3 35  9.0000000  0  9G01G04G07G08G09G11G16G27G30          0.000370249
  21802616.344 6 114573524.568 6  89278101.79449  21802628.03149
  24131369.305 4 126811196.722 4  98813961.95946  24131380.08246
  21915914.969 6 115168904.911 6  89742026.82349  21915922.10949
  21097037.438 6 110865678.472 6  86388867.73449  21097048.01249
  23775121.773 4 124939103.388 4  97355190.49748  23775132.59448
  20397275.422 6 107188407.929 6  83523453.78848  20397282.66848
  23440015.500 5 123178109.934 5  95982969.40946  23440022.38346
  22886483.414 5 120269276.685 5  93716363.32649  22886493.07049
  24448005.242 4 128475129.950 4 100110538.16948  24448015.34448
 20  5 16  3 35 10.0000000  0  9G01G04G07G08G09G11G16G27G30          0.000370401
  21802077.805 6 114570692.048 6  89275894.63849  21802088.93049
  24131914.031 4 126814058.339 4  98816191.79246  24131924.40246
  21915488.602 6 115166664.517 6  89740281.06049  21915495.43849
  21097375.922 6 110867457.535 6  86390254.01149  21097386.41449
  23775527.180 4 124941232.308 4  97356849.39348  23775538.09848
  20397172.367 6 107187864.370 6  83523030.23648  20397179.13348
  23440372.961 5 123179987.075 5  95984432.11746  23440379.60246
  22887049.906 5 120272253.423 5  93718682.86049  22887059.48849
  24447407.953 4 128471993.883 4 100108094.48448  24447418.34848
 20  5 16  3 35 11.0000000  0  9G01G04G07G08G09G11G16G27G30          0.000370554
  21801538.703 6 114567860.216 6  89273688.01549  21801550.14549
  24132458.648 4 126816920.205 4  98818421.81346  24132469.53146
  21915062.250 6 115164424.818 6  89738535.84249  21915069.35249
  21097714.781 6 110869237.080 6  86391640.67349  21097725.07449
  23775932.188 4 124943361.674 4  97358508.63648  23775943.11748
  20397068.914 6 107187321.646 6  83522607.33348  20397075.60248
  23440729.930 5 123181864.605 5  95985895.12746  23440737.12546
  22887616.164 5 120275230.459 5  93721002.62949  22887625.85549
  24446811.391 4 128468858.303 4 100105651.17248  24446821.74248
 20  5 16  3 35 12.0000000  0  9G01G04G07G08G09G11G16G27G30          0.000370705
  21801000.008 6 114565029.112 6  89271481.95849  21801011.46949
  24133003.336 4 126819782.378 4  98820652.06446  24133014.34846
  21914636.414 6 115162185.941 6  89736791.26049  21914643.31649
  21098053.500 6 110871017.245 6  86393027.81349  21098064.03949
  23776337.719 4 124945491.629 4  97360168.34048  23776348.33648
  20396966.297 6 107186779.869 6  83522185.16848  20396973.01248
  23441087.164 5 123183742.619 5  95987358.51746  23441094.68046
  22888183.016 5 120278207.886 5  93723322.69849  22888192.67649
  24446214.672 4 128465723.250 4 100103208.27448  24446224.42648
 20  5 16  3 35 13.0000000  0  9G01G04G07G08G09G11G16G27G30          0.000370857
  21800461.266 6 114562198.748 6  89269276.48149  21800472.85249
  24133547.781 4 126822644.776 4  98822882.50246  24133558.71146
  21914210.430 6 115159947.778 6  89735047.23549  21914217.66449
  21098392.320 6 110872797.932 6  86394415.36149  21098402.88749
  23776743.133 4 124947622.117 4  97361828.45948  23776753.98448
  20396863.102 6 107186238.979 6  83521763.69548  20396869.81648
  23441444.500 5 123185621.063 5  95988822.23746  23441451.55146
  22888749.164 5 120281185.652 5  93725643.04149  22888759.70749
  24445618.609 4 128462588.670 4 100100765.74648  24445628.21148
 20  5 16  3 35 14.0000000  0  9G01G04G07G08G09G11G16G27G30          0.000371012
  21799922.422 6 114559369.031 6  89267071.51149  21799934.30149
  24134092.883 4 126825507.411 4  98825113.13446  24134103.52046
  21913784.461 6 115157710.333 6  89733303.77149  21913791.77749
  21098731.391 6 110874579.095 6  86395803.27649  21098741.64849
  23777148.500 4 124949753.048 4  97363488.91948  23777159.28948
  20396760.445 6 107185698.922 6  83521342.87048  20396767.12548
  23441801.672 5 123187499.886 5  95990286.25846  23441808.74646
  22889316.445 5 120284163.680 5  93727963.58549  22889326.14849
  24445021.742 4 128459454.463 4 100098323.50248  24445031.85248
 20  5 16  3 35 15.0000000  0  9G01G04G07G08G09G11G16G27G30          0.000371164
  21799384.570 6 114556539.950 6  89264867.03649  21799395.80549
  24134637.555 4 126828370.206 4  98827343.88446  24134648.18446
  21913358.820 6 115155473.515 6  89731560.79449  21913365.88349
  21099070.438 6 110876360.705 6  86397191.54849  21099081.14849
  23777553.922 4 124951884.396 4  97365149.71248  23777565.10548
  20396657.734 6 107185159.670 6  83520922.67948  20396664.62148
  23442159.883 5 123189379.081 5  95991750.56746  23442166.71946
  22889882.969 5 120287141.985 5  93730284.33949  22889892.78949
  24444425.977 4 128456320.692 4 100095881.60848  24444435.22748
 20  5 16  3 35 16.0000000  0  9G01G04G07G08G09G11G16G27G30          0.000371317
  21798846.328 6 114553711.448 6  89262663.01249  21798857.65249
  24135182.250 4 126831233.092 4  98829574.70446  24135193.09846
  21912933.617 6 115153237.316 6  89729818.30249  21912940.73049
  21099409.609 6 110878142.748 6  86398580.14849  21099419.74649
  23777959.383 4 124954016.196 4  97366810.85848  23777970.84048
  20396555.047 6 107184621.193 6  83520503.08448  20396561.88348
  23442517.078 5 123191258.565 5  95993215.10746  23442524.33646
  22890450.094 5 120290120.452 5  93732605.21949  22890459.46949
  24443829.234 4 128453187.199 4 100093439.93048  24443839.04348
 20  5 16  3 35 17.0000000  0  9G01G04G07G08G09G11G16G27G30          0.000371469
  21798308.188 6 114550883.551 6  89260459.45249  21798319.59449
  24135726.656 4 126834096.195 4  98831805.69446  24135738.03546
  21912508.305 6 115151001.765 6  89728076.31449  21912515.00849
  21099748.945 6 110879925.199 6  86399969.07649  21099758.62949
  23778365.484 4 124956148.404 4  97368472.31048  23778376.76248
  20396452.836 6 107184083.484 6  83520084.09348  20396459.92248
  23442875.414 5 123193138.368 5  95994679.89546  23442882.01246
  22891017.141 5 120293099.210 5  93734926.32849  22891026.43849
  24443233.219 4 128450054.199 4 100090998.63748  24443242.85248
 20  5 16  3 35 18.0000000  0  9G01G04G07G08G09G11G16G27G30          0.000371624
  21797770.219 6 114548056.365 6  89258256.44849  21797781.43449
  24136271.688 4 126836959.538 4  98834036.87346  24136282.78946
  21912082.953 6 115148766.936 6  89726334.89349  21912089.79749
  21100087.805 6 110881708.203 6  86401358.42949  21100098.25849
  23778771.328 4 124958281.054 4  97370134.11148  23778782.91448
  20396350.742 6 107183546.654 6  83519665.78648  20396357.38748
  23443232.938 5 123195018.603 5  95996145.00546  23443239.95346
  22891583.547 6 120296078.241 6  93737247.65249  22891593.50449
  24442636.602 4 128446921.540 4 100088557.60648  24442646.64148
 20  5 16  3 35 19.0000000  0  9G01G04G07G08G09G11G16G27G30          0.000371777
  21797232.688 6 114545229.842 6  89256053.96349  21797243.88749
  24136816.461 4 126839823.087 4  98836268.19746  24136827.91446
  21911657.961 6 115146532.800 6  89724594.01049  21911664.85949
  21100427.352 6 110883491.705 6  86402748.16849  21100437.53949
  23779177.227 4 124960414.228 4  97371796.32348  23779188.73848
  20396248.891 6 107183010.651 6  83519248.11348  20396255.25448
  23443591.141 5 123196899.232 5  95997610.43246  23443597.77046
  22892150.609 6 120299057.611 6  93739569.23649  22892160.43049
  24442040.852 4 128443789.340 4 100086116.93048  24442050.79748
 20  5 16  3 35 20.0000000  0  9G01G04G07G08G09G11G16G27G30          0.000371931
  21796694.539 6 114542403.975 6  89253851.99249  21796706.28949
  24137361.563 4 126842686.813 4  98838499.66746  24137372.94546
  21911232.695 6 115144299.373 6  89722853.67849  21911239.70349
  21100767.086 6 110885275.685 6  86404138.28149  21100777.30549
  23779583.164 4 124962547.866 4  97373458.89648  23779594.91848
  20396146.703 6 107182475.527 6  83518831.13348  20396153.57848
  23443948.703 5 123198780.230 5  95999076.14346  23443955.39146
  22892717.375 6 120302037.263 6  93741891.04249  22892727.12149
  24441444.695 4 128440657.588 4 100083676.60748  24441454.48848
 20  5 16  3 35 21.0000000  0  9G01G04G07G08G09G11G16G27G30          0.000372084
  21796157.039 6 114539578.703 6  89251650.47849  21796168.46949
  24137906.805 4 126845550.711 4  98840731.27546  24137918.02346
  21910807.477 6 115142066.571 6  89721113.83049  21910814.78949
  21101106.555 6 110887060.082 6  86405528.72249  21101116.54349
  23779988.758 4 124964681.916 4  97375121.79048  23780001.17648
  20396045.156 6 107181941.178 6  83518414.76448  20396052.11348
  23444307.094 5 123200661.574 5  96000542.12546  23444313.71146
  22893284.852 6 120305017.116 6  93744213.00749  22893294.33649
  24440848.922 4 128437526.189 4 100081236.56348  24440858.90248
 20  5 16  3 35 22.0000000  0  9G01G04G07G08G09G11G16G27G30          0.000372238
  21795619.523 6 114536754.159 6  89249449.54049  21795630.75849
  24138451.430 4 126848414.837 4  98842963.04846  24138462.87946
  21910383.094 6 115139834.496 6  89719374.55349  21910389.89549
  21101446.086 6 110888844.992 6  86406919.56349  21101456.42649
  23780396.117 4 124966816.438 4  97376785.04548  23780407.09048
  20395943.539 6 107181407.686 6  83517999.05848  20395950.62148
  23444664.750 5 123202543.314 5  96002008.39546  23444671.64846
  22893851.883 6 120307997.304 6  93746535.22749  22893860.93449
  24440253.289 4 128434395.219 4 100078796.84848  24440263.49248
 20  5 16  3 35 23.0000000  0  9G01G04G07G08G09G11G16G27G30          0.000372393
  21795082.320 6 114533930.282 6  89247249.11349  21795093.50449
  24138996.813 4 126851279.194 4  98845195.01346  24139008.10946
  21909958.305 6 115137603.133 6  89717635.82349  21909965.53549
  21101785.617 6 110890630.425 6  86408310.80949  21101795.82849
  23780801.828 4 124968951.475 4  97378448.71348  23780813.50448
  20395842.141 6 107180875.050 6  83517584.01548  20395849.21948
  23445022.398 5 123204425.449 5  96003475.00346  23445029.59446
  22894418.773 6 120310977.792 6  93748857.68349  22894428.66049
  24439656.672 4 128431264.724 4 100076357.50148  24439667.39148
 20  5 16  3 35 24.0000000  0  9G01G04G07G08G09G11G16G27G30          0.000372547
  21794544.781 6 114531107.110 6  89245049.23649  21794556.33249
  24139541.391 4 126854143.834 4  98847427.18846  24139553.58646
  21909533.680 6 115135372.508 6  89715897.67649  21909541.21549
  21102125.836 6 110892416.371 6  86409702.45549  21102136.22749
  23781208.367 4 124971087.021 4  97380112.77248  23781220.11348
  20395741.172 6 107180343.309 6  83517169.67348  20395747.77348
  23445381.469 5 123206308.037 5  96004941.95446  23445387.99246
  22894986.383 5 120313958.636 5  93751180.41649  22894995.54749
  24439061.477 4 128428134.721 4 100073918.53748  24439072.22348
 20  5 16  3 35 25.0000000  0  9G01G04G07G08G09G11G16G27G30          0.000372702
  21794008.031 6 114528284.579 6  89242849.86649  21794019.42249
  24140086.352 4 126857008.589 4  98849659.46346  24140098.42246
  21909109.258 6 115133142.537 6  89714160.03749  21909116.76649
  21102465.781 6 110894202.771 6  86411094.45349  21102475.89549
  23781614.547 4 124973222.985 4  97381777.16448  23781626.67248
  20395640.320 6 107179812.357 6  83516755.94848  20395646.51248
  23445739.758 5 123208190.962 5  96006409.16646  23445746.42646
  22895553.422 6 120316939.693 6  93753503.31949  22895562.73849
  24438465.617 4 128425005.056 4 100071479.83948  24438476.32448
 20  5 16  3 35 26.0000000  0  9G01G04G07G08G09G11G16G27G30          0.000372856
  21793470.586 6 114525462.823 6  89240651.09949  21793482.18849
  24140631.625 4 126859873.690 4  98851892.00346  24140643.76646
  21908685.234 6 115130913.370 6  89712423.02149  21908692.92249
  21102805.891 6 110895989.769 6  86412486.92049  21102816.19549
  23782021.555 4 124975359.583 4  97383442.04348  23782033.22748
  20395539.750 6 107179282.358 6  83516342.96248  20395546.00448
  23446097.938 5 123210074.378 5  96007876.76546  23446104.77346
  22896121.039 6 120319921.165 6  93755826.54149  22896130.41449
  24437870.516 4 128421875.965 4 100069041.59348  24437880.90248
 20  5 16  3 35 27.0000000  0  9G01G04G07G08G09G11G16G27G30          0.000373011
  21792934.023 6 114522641.763 6  89238452.87049  21792945.07049
  24141176.977 4 126862739.079 4  98854124.77846  24141188.89546
  21908261.359 6 115128684.978 6  89710686.61449  21908268.75449
  21103145.906 6 110897777.339 6  86413879.83349  21103156.05949
  23782428.281 4 124977496.653 4  97385107.28748  23782439.66848
  20395438.516 6 107178753.277 6  83515930.69048  20395445.50048
  23446456.008 5 123211958.260 5  96009344.72246  23446462.83646
  22896688.539 6 120322902.990 6  93758150.04349  22896697.78949
  24437275.367 4 128418747.325 4 100066603.69048  24437285.74248
 20  5 16  3 35 28.0000000  0  9G01G04G07G08G09G11G16G27G30          0.000373167
  21792397.352 6 114519821.217 6  89236255.05049  21792408.28549
  24141722.164 4 126865604.437 4  98856357.52946  24141734.50046
  21907837.406 6 115126457.088 6  89708950.59649  21907844.91049
  21103485.820 6 110899565.209 6  86415272.97949  21103496.38349
  23782834.211 4 124979634.036 4  97386772.78048  23782846.54748
  20395338.086 6 107178224.836 6  83515518.91848  20395345.05548
  23446814.719 5 123213842.323 5  96010812.81946  23446821.64846
  22897255.992 6 120325884.914 6  93760473.62449  22897265.12549
  24436679.539 4 128415618.967 4 100064166.01648  24436690.37148
 20  5 16  3 35 29.0000000  0  9G01G04G07G08G09G11G16G27G30          0.000373322
  21791860.695 6 114517001.336 6  89234057.73549  21791872.25449
  24142267.398 4 126868470.058 4  98858590.47047  24142279.72747
  21907413.836 6 115124229.888 6  89707215.11249  21907420.68449
  21103826.039 6 110901353.554 6  86416666.49549  21103836.84849
  23783241.195 4 124981771.923 4  97388438.66948  23783253.23448
  20395237.461 6 107177697.229 6  83515107.79448  20395244.14148
  23447173.883 5 123215726.778 5  96012281.23146  23447180.32046
  22897823.055 6 120328867.144 6  93762797.44049  22897832.55149
  24436084.305 4 128412491.020 4 100061728.65548  24436094.66848
 20  5 16  3 35 30.0000000  0  9G01G04G07G08G09G11G16G27G30          0.000373476
  21791324.016 6 114514182.093 6  89231860.92849  21791335.25849
  24142812.984 4 126871335.846 4  98860823.54046  24142825.29346
  21906989.813 6 115122003.369 6  89705480.16149  21906996.89849
  21104166.898 6 110903142.376 6  86418060.37849  21104177.00849
  23783648.672 4 124983910.216 4  97390104.86748  23783660.23448
  20395137.484 6 107177170.487 6  83514697.34848  20395144.30148
  23447532.461 5 123217611.621 5  96013749.93746  23447539.27046
  22898390.703 6 120331849.639 6  93765121.46249  22898400.02349
  24435489.828 4 128409363.490 4 100059291.62448  24435499.99648
 20  5 16  3 35 31.0000000  0  9G01G04G07G08G09G11G16G27G30          0.000373632
  21790787.938 6 114511363.476 6  89229664.60549  21790799.35949
  24143358.430 4 126874201.844 4  98863056.77246  24143370.53146
  21906566.688 6 115119777.537 6  89703745.75049  21906573.37149
  21104507.141 6 110904931.646 6  86419454.61849  21104517.77749
  23784055.352 4 124986048.947 4  97391771.41148  23784067.51648
  20395037.195 6 107176644.505 6  83514287.49148  20395043.89548
  23447890.938 5 123219496.803 5  96015218.90346  23447897.77046
  22898958.602 6 120334832.388 6  93767445.68149  22898967.93449
  24434894.664 4 128406236.366 4 100056854.91348  24434905.09448
 20  5 16  3 35 32.0000000  0  9G01G04G07G08G09G11G16G27G30          0.000373789
  21790251.477 6 114508545.543 6  89227468.81349  21790262.77349
  24143903.516 4 126877068.034 4  98865290.15846  24143915.76646
  21906142.938 6 115117552.383 6  89702011.86449  21906149.98849
  21104847.719 6 110906721.413 6  86420849.24549  21104858.16449
  23784462.773 4 124988188.197 4  97393438.35848  23784474.84048
  20394937.406 6 107176119.402 6  83513878.31948  20394944.11348
  23448249.414 5 123221382.357 5  96016688.16846  23448256.60946
  22899526.234 6 120337815.395 6  93769770.09749  22899535.41449
  24434298.484 4 128403109.630 4 100054418.49548  24434309.79748
 20  5 16  3 35 33.0000000  0  9G01G04G07G08G09G11G16G27G30          0.000373943
  21789715.500 6 114505728.214 6  89225273.48849  21789727.18049
  24144448.828 4 126879934.373 4  98867523.67946  24144461.62946
  21905719.570 6 115115327.828 6  89700278.44649  21905726.68449
  21105188.281 6 110908511.600 6  86422244.19349  21105198.41449
  23784869.414 4 124990327.813 4  97395105.58448  23784881.70348
  20394837.688 6 107175595.052 6  83513469.73648  20394844.33648
  23448608.844 5 123223268.280 5  96018157.72346  23448616.02746
  22900093.828 6 120340798.670 6  93772094.72649  22900103.02349
  24433704.508 4 128399983.272 4 100051982.36748  24433714.96948
 20  5 16  3 35 34.0000000  0  9G01G04G07G08G09G11G16G27G30          0.000374100
  21789179.320 6 114502911.576 6  89223078.70849  21789190.74649
  24144993.563 4 126882800.903 4  98869757.34346  24145006.96946
  21905296.508 6 115113104.055 6  89698545.64449  21905304.03149
  21105529.477 6 110910302.292 6  86423639.53649  21105539.96149
  23785276.828 4 124992467.922 4  97396773.21248  23785289.13748
  20394738.391 6 107175071.544 6  83513061.80948  20394744.81348
  23448967.438 5 123225154.546 5  96019627.54646  23448974.77746
  22900661.422 6 120343782.229 6  93774419.57549  22900671.19949
  24433109.727 4 128396857.364 4 100049546.60748  24433120.43848
 20  5 16  3 35 35.0000000  0  9G01G04G07G08G09G11G16G27G30          0.000374256
  21788643.648 6 114500095.676 6  89220884.50149  21788655.00849
  24145539.570 3 126885667.801 3  98871991.27646  24145552.18446
  21904873.359 6 115110881.005 6  89696813.39549  21904880.66049
  21105870.023 6 110912093.551 6  86425035.31849  21105880.40249
  23785683.680 4 124994608.576 4  97398441.25448  23785695.83248
  20394638.547 6 107174549.011 6  83512654.64148  20394645.47748
  23449326.758 5 123227041.325 5  96021097.76046  23449333.34846
  22901229.086 6 120346766.146 6  93776744.70549  22901238.59849
  24432514.969 4 128393731.969 4 100047111.23748  24432525.80548
 20  5 16  3 35 36.0000000  0  9G01G04G07G08G09G11G16G27G30          0.000374413
  21788107.758 6 114497280.435 6  89218690.80149  21788119.50849
  24146085.352 3 126888534.800 3  98874225.26846  24146097.93846
  21904450.359 6 115108658.678 6  89695081.70549  21904457.53949
  21106211.188 6 110913885.331 6  86426431.51149  21106221.58249
  23786091.570 4 124996749.715 4  97400109.66848  23786103.48448
  20394539.109 6 107174027.291 6  83512248.10648  20394546.14548
  23449685.477 5 123228928.522 5  96022568.30746  23449692.59846
  22901796.813 6 120349750.364 6  93779070.06849  22901806.65649
  24431919.977 4 128390607.004 4 100044676.20348  24431930.68448
 20  5 16  3 35 37.0000000  0  9G01G04G07G08G09G11G16G27G30          0.000374569
  21787572.281 6 114494465.826 6  89216497.60149  21787584.31349
  24146630.906 2 126891402.033 2  98876459.46646  24146643.76646
  21904027.063 6 115106436.987 6  89693350.51749  21904034.72749
  21106552.156 6 110915677.500 6  86427828.01649  21106562.24649
  23786499.219 4 124998891.259 4  97401778.40748  23786510.80548
  20394440.422 6 107173506.345 6  83511842.16848  20394446.88748
  23450044.438 4 123230815.973 4  96024039.02746  23450051.84046
  22902365.281 6 120352734.847 6  93781395.64449  22902374.59849
  24431325.484 4 128387482.432 4 100042241.47448  24431336.12148
 20  5 16  3 35 38.0000000  0  9G01G04G07G08G09G11G16G27G30          0.000374725
  21787037.031 5 114491651.950 5  89214304.97949  21787048.31349
  24147176.695 2 126894269.590 2  98878693.89546  24147189.18846
  21903605.039 6 115104216.038 6  89691619.90449  21903612.19149
  21106893.063 6 110917470.225 6  86429224.94549  21106904.01649
  23786906.742 4 125001033.307 4  97403447.52948  23786918.17248
  20394341.242 6 107172986.301 6  83511436.94548  20394347.95748
  23450404.328 4 123232703.941 4  96025510.20646  23450411.28546
  22902932.719 5 120355719.664 5  93783721.47949  22902942.17649
  24430730.938 4 128384358.306 4 100039807.07748  24430742.00448
 20  5 16  3 35 39.0000000  0  9G01G04G07G08G09G11G16G27G30          0.000374884
  21786501.344 5 114488838.690 5  89212112.84549  21786512.73049
  24147722.742 2 126897137.200 2  98880928.41846  24147734.84846
  21903182.484 6 115101995.739 6  89689889.79649  21903189.56349
  21107234.453 6 110919263.361 6  86430622.18849  21107245.14549
  23787314.086 3 125003175.790 3  97405117.00548  23787326.08648
  20394242.352 6 107172467.054 6  83511032.34148  20394249.23848
  23450763.516 4 123234592.192 4  96026981.58746  23450770.73846
  22903501.375 5 120358704.678 5  93786047.46849  22903510.51649
  24430136.594 4 128381234.538 4 100037372.96448  24430147.32848
 20  5 16  3 35 40.0000000  0  9G01G04G07G08G09G11G16G27G30          0.000375040
  21785966.344 5 114486026.121 5  89209921.23849  21785977.71149
  24148268.141 1 126900005.127 1  98883163.19546  24148280.87546
  21902759.883 6 115099776.195 6  89688160.28749  21902767.30149
  21107575.844 6 110921057.078 6  86432019.87749  21107586.43449
  23787722.563 3 125005318.847 3  97406786.93248  23787734.49248
  20394143.609 6 107171948.731 6  83510628.45948  20394150.67648
  23451123.094 4 123236480.925 4  96028453.32946  23451129.82046
  22904069.469 5 120361690.054 5  93788373.72949  22904078.62149
  24429541.852 4 128378111.301 4 100034939.27147  24429552.75047
 20  5 16  3 35 41.0000000  0  9G01G04G07G08G09G11G16G27G30          0.000375196
  21785431.625 5 114483214.127 5  89207730.07849  21785442.78549
  24148813.734 2 126902873.140 2  98885397.99546  24148826.77046
  21902337.891 6 115097557.270 6  89686431.25149  21902345.60249
  21107917.063 6 110922851.169 6  86433417.86549  21107927.24649
  23788130.750 4 125007462.254 4  97408457.11648  23788142.19148
  20394045.375 6 107171431.093 6  83510225.09848  20394052.40248
  23451482.602 5 123238369.912 5  96029925.24846  23451489.11746
  22904637.188 5 120364675.629 5  93790700.15149  22904646.95349
  24428947.984 3 128374988.370 3 100032505.82747  24428958.59447
 20  5 16  3 35 42.0000000  0  9G01G04G07G08G09G11G16G27G30          0.000375355
  21784896.344 5 114480402.797 5  89205539.42049  21784907.82049
  24149360.195 2 126905741.350 2  98887632.93346  24149372.76246
  21901916.008 6 115095338.974 6  89684702.71249  21901922.91849
  21108258.758 6 110924645.750 6  86434816.24049  21108269.24249
  23788537.672 3 125009606.034 3  97410127.59048  23788550.37948
  20393946.828 6 107170914.306 6  83509822.40148  20393953.58648
  23451842.570 5 123240259.278 5  96031397.48246  23451849.02346
  22905205.516 5 120367661.461 5  93793026.78149  22905215.12149
  24428353.969 3 128371865.854 3 100030072.71647  24428364.30147
 20  5 16  3 35 43.0000000  0  9G01G04G07G08G09G11G16G27G30          0.000375511
  21784361.672 5 114477592.142 5  89203349.28849  21784372.80949
  24149905.813 1                                
  21901493.664 6 115093121.348 6  89682974.69449  21901501.11749
  21108600.461 7 110926440.742 7  86436214.93749  21108610.68449
  23788946.578 4 125011750.286 4  97411798.41548  23788958.05148
  20393848.523 6 107170398.344 6  83509420.36748  20393855.37548
  23452201.641 6 123242148.990 6  96032869.93947  23452208.73847
  22905773.203 6 120370647.565 6  93795353.58949  22905783.42649
  24427759.773 3 128368743.724 3 100027639.90048  24427769.99648
 20  5 16  3 35 44.0000000  0  9G01G04G07G08G09G11G16G27G30          0.000375669
  21783826.461 6 114474781.965 6  89201159.53549  21783838.42649
  24150451.547 2 126911478.10712  98892103.11855  24150464.20745
  21901072.156 6 115090904.410 6  89681247.20949  21901079.40249
  21108941.852 6 110928236.232 6  86437614.02649  21108952.14149
  23789354.953 4 125013895.020 4  97413469.61948  23789366.79348
  20393750.859 6 107169883.150 6  83509018.91448  20393757.37548
  23452561.203 5 123244039.078 5  96034342.70646  23452568.38346
  22906342.227 6 120373633.865 6  93797680.55849  22906351.39849
  24427165.203 4 128365621.961 4 100025207.36948  24427176.27348
 20  5 16  3 35 45.0000000  0  9G01G04G07G08G09G11G16G27G30          0.000375828
  21783292.313 6 114471972.575 6  89198970.40049  21783303.58649
  24150997.711 3 126914346.873 3  98894338.49546  24151010.43446
  21900650.031 6 115088688.184 6  89679520.27949  21900657.42649
  21109283.992 6 110930032.191 6  86439013.48149  21109294.34049
  23789762.422 5 125016040.215 5  97415141.19248  23789774.48048
  20393653.141 6 107169368.799 6  83508618.12448  20393659.85948
  23452921.430 5 123245929.516 5  96035815.77746  23452928.33646
  22906910.164 6 120376620.527 6  93800007.83249  22906919.85549
  24426571.539 4 128362500.703 4 100022775.23548  24426582.40248
 20  5 16  3 35 46.0000000  0  9G01G04G07G08G09G11G16G27G30          0.000375986
  21782757.508 6 114469163.882 6  89196781.81349  21782768.94149
  24151543.750 3 126917215.874 3  98896574.07046  24151556.38746
  21900228.547 6 115086472.690 6  89677793.92449  21900235.90649
  21109625.805 6 110931828.696 6  86440413.36249  21109635.84449
  23790170.789 4 125018185.901 4  97416813.16148  23790182.55148
  20393555.086 6 107168855.385 6  83508218.05648  20393561.96548
  23453281.102 5 123247820.386 5  96037289.20646  23453288.04346
  22907478.711 6 120379607.456 6  93802335.30249  22907488.30549
  24425978.180 5 128359379.912 5 100020343.45248  24425988.43448
 20  5 16  3 35 47.0000000  0  9G01G04G07G08G09G11G16G27G30          0.000376144
  21782222.969 6 114466355.822 6  89194593.72349  21782234.27349
  24152089.758 3 126920085.008 3  98898809.76146  24152102.58246
  21899807.047 6 115084257.837 6  89676068.06249  21899814.31349
  21109967.727 6 110933625.646 6  86441813.57749  21109978.00449
  23790579.813 5 125020331.995 5  97418485.44948  23790590.87548
  20393457.711 6 107168342.710 6  83507818.55648  20393464.42248
  23453641.086 5 123249711.624 5  96038762.90346  23453647.89146
  22908047.078 6 120382594.657 6  93804663.00849  22908056.70349
  24425384.375 5 128356259.461 5 100017911.93148  24425394.84048
 20  5 16  3 35 48.0000000  0  9G01G04G07G08G09G11G16G27G30          0.000376303
  21781689.094 5 114463548.350 5  89192406.08149  21781700.89149
  24152635.625 3 126922954.298 3  98901045.58846  24152648.28146
  21899385.508 6 115082043.659 6  89674342.73149  21899392.74649
  21110309.797 6 110935423.008 6  86443214.12049  21110319.90649
  23790988.352 5 125022478.510 5  97420158.06348  23790999.69148
  20393360.086 6 107167830.847 6  83507419.71048  20393366.83648
  23454000.563 5 123251603.192 5  96040236.82946  23454007.45346
  22908615.703 5 120385582.085 5  93806990.88449  22908625.62949
  24424790.688 4 128353139.384 4 100015480.71648  24424801.22748
 20  5 16  3 35 49.0000000  0  9G01G04G07G08G09G11G16G27G30          0.000376461
  21781154.766 6 114460741.465 6  89190218.89949  21781166.25449
  24153181.594 3 126925823.665 3  98903281.45446  24153193.97346
  21898964.578 6 115079830.007 6  89672617.80249  21898972.02749
  21110651.664 6 110937220.778 6  86444614.97749  21110661.95349
  23791396.516 4 125024625.407 4  97421830.95848  23791408.18848
  20393262.422 6 107167319.721 6  83507021.43849  20393269.75449
  23454360.563 5 123253494.993 5  96041710.96246  23454367.79746
  22909184.156 6 120388569.696 6  93809318.89649  22909193.60249
  24424196.672 4 128350019.626 4 100013049.75448  24424207.60548
 20  5 16  3 35 50.0000000  0  9G01G04G07G08G09G11G16G27G30          0.000376619
  21780620.938 6 114457935.199 6  89188032.18849  21780632.49249
  24153728.305 3 126928693.373 3  98905517.58846  24153740.41046
  21898543.844 6 115077617.104 6  89670893.46349  21898550.74649
  21110994.164 6 110939019.004 6  86446016.19049  21111004.44549
  23791804.758 4 125026772.744 4  97423504.20448  23791816.16048
  20393165.523 6 107166809.430 6  83506623.80849  20393173.02749
  23454720.797 5 123255387.253 5  96043185.46046  23454728.04346
  22909752.281 5 120391557.618 5  93811647.14349  22909762.77349
  24423603.055 4 128346900.258 4 100010619.08048  24423613.69548
 20  5 16  3 35 51.0000000  0  9G01G04G07G08G09G11G16G27G30          0.000376778
  21780086.766 5 114455129.628 5  89185846.02749  21780098.69149
  24154274.438 3 126931563.179 3  98907753.77746  24154286.59446
  21898122.375 6 115075404.860 6  89669169.63649  21898129.55149
  21111336.008 6 110940817.735 6  86447417.80049  21111346.35249
  23792213.969 3 125028920.600 3  97425177.86848  23792224.81348
  20393069.148 7 107166299.943 7  83506226.79549  20393076.03949
  23455080.602 5 123257279.773 5  96044660.14546  23455087.96946
  22910321.359 6 120394545.758 6  93813975.53749  22910331.13349
  24423009.539 4 128343781.350 4 100008188.75248  24423019.83648
 20  5 16  3 35 52.0000000  0  9G01G04G07G08G09G11G16G27G30          0.000376936
  21779553.297 6 114452324.757 6  89183660.41349  21779564.66849
  24154820.148 3 126934433.177 3  98909990.13846  24154832.60946
  21897701.789 6 115073193.357 6  89667446.38749  21897708.85249
  21111678.508 6 110942616.950 6  86448819.78049  21111689.18049
  23792622.406 3 125031068.850 3  97426851.82948  23792633.94548
  20392972.180 6 107165791.351 6  83505830.48249  20392978.92649
  23455441.383 5 123259172.827 5  96046135.24346  23455448.17646
  22910889.789 6 120397534.251 6  93816304.22949  22910899.66049
  24422416.992 4 128340662.880 4 100005758.75448  24422426.43448
 20  5 16  3 35 53.0000000  0  9G01G04G07G08G09G11G16G27G30          0.000377096
  21779019.281 5 114449520.532 5  89181475.31149  21779030.93049
  24155366.805 3 126937303.414 3  98912226.68846  24155379.05146
  21897280.844 6 115070982.544 6  89665723.67549  21897287.99249
  21112021.078 6 110944416.682 6  86450222.16449  21112031.38749
  23793031.781 3 125033217.658 3  97428526.22748  23793042.88748
  20392875.172 6 107165283.592 6  83505434.82648  20392882.23448
  23455801.594 5 123261066.215 5  96047610.60946  23455808.84846
  22911459.289 6 120400523.008 6  93818633.13149  22911468.57849
  24421823.172 4 128337544.811 4 100003329.07648  24421833.15248
 20  5 16  3 35 54.0000000  0  9G01G04G07G08G09G11G16G27G30          0.000377254
  21778486.000 6 114446716.949 6  89179290.70049  21778497.41049
  24155912.781 3 126940173.730 3  98914463.29646  24155924.91046
  21896860.234 6 115068772.341 6  89664001.44049  21896867.60549
  21112363.820 6 110946216.776 6  86451624.83049  21112373.88349
  23793440.523 3 125035366.772 3  97430200.85148  23793451.56348
  20392779.164 6 107164776.572 6  83505039.75148  20392786.17648
  23456161.789 4 123262959.883 4  96049086.22246  23456168.87946
  22912027.852 6 120403511.979 6  93820962.20749  22912037.43449
  24421229.836 4 128334427.174 4 100000899.76648  24421239.73448
 20  5 16  3 35 55.0000000  0  9G01G04G07G08G09G11G16G27G30          0.000377415
  21777952.297 6 114443913.871 6  89177106.48449  21777963.94549
  24156459.055 3 126943044.189 3  98916700.03546  24156471.27346
  21896439.742 6 115066562.738 6  89662279.67449  21896447.10549
  21112706.141 7 110948017.266 7  86453027.81149  21112716.55949
  23793850.031 4 125037516.293 4  97431875.79948  23793861.07448
  20392683.023 6 107164270.305 6  83504645.25748  20392689.47748
  23456522.125 4 123264853.875 4  96050562.07746  23456529.51646
  22912596.133 6 120406501.163 6  93823291.45349  22912606.19549
  24420636.070 4 128331309.797 4  99998470.63048  24420646.46948
 20  5 16  3 35 56.0000000  0  9G01G04G07G08G09G11G16G27G30          0.000377575
  21777419.602 6 114441111.474 6  89174922.79749  21777430.90249
  24157004.906 2 126945914.905 2  98918936.96346  24157017.70746
  21896019.445 6 115064353.792 6  89660558.42149  21896026.67649
  21113048.977 6 110949818.203 6  86454431.14049  21113059.35549
  23794258.664 3 125039666.283 3  97433551.11247  23794270.01647
  20392586.281 6 107163764.863 6  83504251.41148  20392593.13748
  23456883.164 4 123266748.206 4  96052038.16646  23456889.94146
  22913165.195 5 120409490.563 5  93825620.86049  22913175.28549
  24420043.406 4 128328192.790 4  99996041.79448  24420053.72348
 20  5 16  3 35 57.0000000  0  9G01G04G07G08G09G11G16G27G30          0.000377733
  21776886.133 5 114438309.771 5  89172739.64949  21776897.41449
  24157551.820 1 126948785.813 1  98921174.02546  24157563.58246
  21895599.383 6 115062145.535 6  89658837.69549  21895606.33249
  21113391.969 6 110951619.610 6  86455834.84349  21113402.20749
  23794668.258 2 125041816.720 2  97435226.77647  23794679.77047
  20392490.273 6 107163260.249 6  83503858.21348  20392497.11748
  23457243.031 5 123268642.875 5  96053514.50846  23457250.49646
  22913733.891 6 120412480.213 6  93827950.43649  22913744.04749
  24419450.344 3 128325076.233 3  99993613.35048  24419460.61348
 20  5 16  3 35 58.0000000  0  9G01G04G07G08G09G11G16G27G30          0.000377893
  21776353.313 5 114435508.653 5  89170556.95349  21776364.27749
  24158098.180 1 126951656.892 1  98923411.24645  24158109.93845
  21895179.016 6 115059937.958 6  89657117.49049  21895186.27749
  21113734.586 6 110953421.485 6  86457238.90949  21113745.15649
  23795078.117 3 125043967.570 3  97436902.74647  23795089.14547
  20392394.531 6 107162756.478 6  83503465.67848  20392401.37148
  23457604.195 5 123270537.940 5  96054991.16046  23457610.87146
  22914303.500 6 120415470.161 6  93830280.24748  22914312.56648
  24418857.188 3 128321960.150 3  99991185.27048  24418867.46548
 20  5 16  3 35 59.0000000  0  9G01G04G07G08G09G11G16G27G30          0.000378054
  21775820.125 5 114432708.124 5  89168374.73349  21775831.01649
  24158645.164 1                                
  21894759.313 6 115057731.003 6  89655397.77349  21894766.49249
  21114077.461 6 110955223.793 6  86458643.30549  21114087.91449
  23795487.789 3 125046118.830 3  97438579.04747  23795498.74247
  20392298.625 6 107162253.450 6  83503073.70248  20392305.66448
  23457964.828 5 123272433.349 5  96056468.08846  23457971.85246
  22914872.336 6 120418460.323 6  93832610.24348  22914881.35248
  24418264.484 4 128318844.359 4  99988757.36548  24418274.50848
 20  5 16  3 36  0.0000000  0  9G01G04G07G08G09G11G16G27G30          0.000378214
  21775287.430 5 114429908.296 5  89166193.05249  21775298.76649
  24159190.422 1                                
  21894339.477 6 115055524.764 6  89653678.62449  21894347.00849
  21114420.563 6 110957026.614 6  86460048.09549  21114430.91049
  23795897.359 3 125048270.566 3  97440255.72447  23795908.59047
  20392203.156 6 107161751.273 6  83502682.40448  20392210.35248
  23458325.133 5 123274329.146 5  96057945.33146  23458332.59446
  22915441.086 6 120421450.803 6  93834940.48248  22915451.08648
  24417671.508 4 128315729.017 4  99986329.80848  24417681.66048
 20  5 16  3 36  1.0000000  0  9G01G04G07G08G09G11G16G27G30          0.000378374
  21774754.508 5 114427109.141 5  89164011.90049  21774766.00049
  24159736.367 1 126960270.90611                
  21893919.586 6 115053319.261 6  89651960.05549  21893926.62149
  21114763.727 6 110958829.937 6  86461453.27249  21114774.34849
  23796305.945 3 125050422.776 3  97441932.78047  23796317.97347
  20392108.125 6 107161249.951 6  83502291.76248  20392114.84448
  23458686.484 5 123276225.355 5  96059422.89646  23458693.16046
  22916010.758 6 120424441.588 6  93837270.97848  22916020.17248
  24417078.734 4 128312614.118 4  99983902.61448  24417088.94548
 20  5 16  3 36  2.0000000  0  9G01G04G07G08G09G11G16G27G30          0.000378534
  21774222.336 5 114424310.575 5  89161831.21349  21774233.73449
  24160282.539 1 126963142.617 1                
  21893500.164 6 115051114.323 6  89650241.92449  21893507.25449
  21115107.063 6 110960633.630 6  86462858.74849  21115117.38349
  23796715.883 4 125052575.352 4  97443610.12047  23796727.42647
  20392012.734 6 107160749.369 6  83501901.68748  20392019.69948
  23459046.859 5 123278121.817 5  96060900.65346  23459054.22746
  22916579.563 6 120427432.532 6  93839601.59048  22916589.03948
  24416485.789 4 128309499.524 4  99981475.64648  24416496.48848
 20  5 16  3 36  3.0000000  0  9G01G04G07G08G09G11G16G27G30          0.000378695
  21773689.609 5 114421512.696 5  89159651.04649  21773701.03549
  24160830.094 1 126966014.582 1                
  21893080.625 6 115048910.155 6  89648524.39849  21893087.92649
  21115450.211 6 110962437.854 6  86464264.64149  21115460.64149
  23797125.602 3 125054728.438 3  97445287.85347  23797137.44947
  20391917.586 6 107160249.642 6  83501512.29548  20391924.40648
  23459408.008 5 123280018.711 5  96062378.76646  23459414.94146
  22917149.000 6 120430423.810 6  93841932.44248  22917158.35948
  24415893.359 4 128306385.405 4  99979049.05548  24415904.08248
 20  5 16  3 36  4.0000000  0  9G01G04G07G08G09G11G16G27G30          0.000378855
  21773157.320 6 114418715.387 6  89157471.31649  21773168.99649
  24161376.688 1 126968886.555 1                
  21892661.438 6 115046706.538 6  89646807.29149  21892668.69949
  21115793.664 6 110964242.455 6  86465670.82349  21115804.07049
  23797534.469 3 125056881.807 3  97446965.80047  23797547.33647
  20391822.352 6 107159750.646 6  83501123.47148  20391829.36348
  23459769.000 5 123281915.865 5  96063857.06346  23459776.03546
  22917718.031 6 120433415.238 6  93844263.41549  22917727.98449
  24415300.844 3 128303271.609 3  99976622.73247  24415311.07047
 20  5 16  3 36  5.0000000  0  9G01G04G07G08G09G11G16G27G30          0.000379017
  21772625.102 6 114415918.644 6  89155292.02749  21772636.31649
  24161922.664 1 126971758.763 1                
  21892241.906 6 115044503.537 6  89645090.66649  21892249.31349
  21116136.852 6 110966047.431 6  86467077.29849  21116147.55949
  23797945.211 3 125059035.629 3  97448644.08647  23797957.35547
  20391727.398 6 107159252.417 6  83500735.25048  20391734.89148
  23460130.281 5 123283813.304 5  96065335.58546  23460137.57846
  22918287.617 6 120436406.851 6  93846594.54948  22918297.14148
  24414708.500 3 128300158.132 3  99974196.66047  24414718.73447
 20  5 16  3 36  6.0000000  0  9G01G04G07G08G09G11G16G27G30          0.000379177
  21772092.633 5 114413122.427 5  89153113.16549  21772104.59049
  24162468.977 1 126974630.968 1                
  21891822.984 6 115042301.126 6  89643374.49449  21891830.50449
  21116480.391 6 110967852.809 6  86468484.08549  21116491.13349
  23798355.047 3 125061189.720 3  97450322.58847  23798366.58647
  20391632.742 6 107158754.896 6  83500347.57348  20391640.05148
  23460491.820 5 123285711.031 5  96066814.33446  23460498.32846
  22918856.680 6 120439398.666 6  93848925.84648  22918866.05948
  24414116.055 3 128297044.957 3  99971770.81847  24414125.66847
 20  5 16  3 36  7.0000000  0  9G01G04G07G08G09G11G16G27G30          0.000379337
  21771561.016 6 114410326.943 6  89150934.86649  21771572.32449
  24163017.156 1                                
  21891404.453 6 115040099.422 6  89641658.88249  21891411.41849
  21116823.633 6 110969658.656 6  86469891.23749  21116834.53549
  23798765.227 3 125063344.415 3  97452001.56747  23798776.51647
  20391538.773 6 107158258.247 6  83499960.57448  20391545.62548
  23460852.602 5 123287609.174 5  96068293.41146  23460859.79746
  22919426.109 6 120442390.763 6  93851257.35748  22919435.43848
  24413523.938 3 128293932.271 3  99969345.34447  24413533.69147
 20  5 16  3 36  8.0000000  0  9G01G04G07G08G09G11G16G27G30          0.000379499
  21771029.281 6 114407532.173 6  89148757.12449  21771040.78149
  24163563.039 1                                
  21890985.227 6 115037898.470 6  89639943.85149  21890992.32849
  21117167.656 6 110971465.023 6  86471298.79949  21117178.80549
  23799175.102 3 125065499.523 3  97453680.87447  23799186.24247
  20391444.172 6 107157762.470 6  83499574.25448  20391451.55548
  23461213.922 5 123289507.707 5  96069772.79046  23461220.85246
  22919995.633 6 120445383.214 6  93853589.12649  22920005.09849
  24412931.391 3 128290820.027 3  99966920.22447  24412941.56347
 20  5 16  3 36  9.0000000  0  9G01G04G07G08G09G11G16G27G30          0.000379662
  21770497.609 6 114404738.000 6  89146579.83849  21770508.86749
  24164108.773 1 126983248.78911                
  21890566.711 6 115035698.133 6  89638229.30749  21890573.82849
  21117511.930 6 110973271.816 6  86472706.69549  21117522.43049
  23799585.086 3 125067655.102 3  97455360.54347  23799596.73447
  20391350.055 6 107157267.481 6  83499188.55148  20391357.45748
  23461575.000 5 123291406.586 5  96071252.44346  23461582.32046
  22920565.078 6 120448375.867 6  93855921.04748  22920574.66848
  24412339.211 3 128287708.103 3  99964495.35447  24412349.45747
 20  5 16  3 36 10.0000000  0  9G01G04G07G08G09G11G16G27G30          0.000379822
  21769965.453 5 114401944.369 5  89144402.98949  21769976.86349
  24164655.852 1                                
  21890147.680 6 115033498.425 6  89636515.25249  21890155.52749
  21117855.781 7 110975079.005 7  86474114.89149  21117865.87549
  23799995.680 3 125069810.958 3  97457040.41247  23800006.66847
  20391255.680 6 107156773.239 6  83498803.42248  20391262.89148
  23461936.422 5 123293305.794 5  96072732.34046  23461943.71946
  22921134.773 6 120451368.719 6  93858253.13749  22921144.12549
  24411746.992 3 128284596.641 3  99962070.83947  24411757.13347
 20  5 16  3 36 11.0000000  0  8G01G07G08G09G11G16G27G30             0.000379984
  21769435.266 6 114399151.359 6  89142226.63649  21769446.27749
  21889729.328 6 115031299.344 6  89634801.68949  21889736.50849
  21118199.828 6 110976886.580 6  86475523.38449  21118210.02349
  23800405.438 3 125071967.266 3  97458720.65047  23800416.80547
  20391162.039 6 107156279.786 6  83498418.91948  20391169.06648
  23462297.852 5 123295205.303 5  96074212.48246  23462305.09846
  22921704.195 6 120454361.818 6  93860585.42349  22921713.77349
  24411154.719 2 128281485.524 2  99959646.60447  24411165.63747
 20  5 16  3 36 12.0000000  0  8G01G07G08G09G11G16G27G30             0.000380146
  21768903.250 6 114396359.042 6  89140050.80149  21768914.53149
  21889310.805 6 115029100.951 6  89633088.66449  21889317.96949
  21118543.500 6 110978694.670 6  86476932.28649  21118554.19149
  23800815.977 2 125074124.118 2  97460401.33647  23800826.57447
  20391068.219 6 107155787.160 6  83498035.05748  20391075.05548
  23462659.438 5 123297105.203 5  96075692.91146  23462667.04346
  22922273.609 6 120457355.154 6  93862917.89549  22922283.54349
  24410563.297 3 128278374.764 3  99957222.62347  24410573.28547
 20  5 16  3 36 13.0000000  0  8G01G07G08G09G11G16G27G30             0.000380308
  21768372.039 6 114393567.345 6  89137875.43949  21768383.31649
  21888892.984 6 115026903.241 6  89631376.16049  21888900.30949
  21118888.141 6 110980503.267 6  86478341.58449  21118898.75849
  23801226.023 2 125076281.271 2  97462082.24647  23801237.28147
  20390974.563 6 107155295.339 6  83497651.81348  20390981.64548
  23463021.188 5 123299005.487 5  96077173.64946  23463028.41846
  22922843.141 6 120460348.771 6  93865250.58849  22922853.07849
  24409971.203 3 128275264.452 3  99954799.00747  24409981.34047
 20  5 16  3 36 14.0000000  0  8G01G07G08G09G11G16G27G30             0.000380470
  21767840.602 5 114390776.290 5  89135700.59449  21767851.92649
  21888475.000 6 115024706.169 6  89629664.15249  21888481.94149
  21119232.414 6 110982312.205 6  86479751.14349  21119242.63349
  23801636.586 3 125078438.946 3  97463763.55347  23801647.83647
  20390880.977 6 107154804.308 6  83497269.19548  20390888.36348
  23463383.367 5 123300906.028 5  96078654.58946  23463390.34446
  22923412.664 6 120463342.571 6  93867583.42549  22923422.61749
  24409379.648 4 128272154.511 4  99952375.68948  24409390.16448
 20  5 16  3 36 15.0000000  0  8G01G07G08G09G11G16G27G30             0.000380632
  21767309.867 6 114387985.948 6  89133526.29749  21767321.19549
  21888056.969 6 115022509.877 6  89627952.75849  21888064.14549
  21119576.492 6 110984121.739 6  86481161.17049  21119586.88749
  23802047.789 2 125080597.132 2  97465445.25247  23802058.62947
  20390787.828 6 107154314.192 6  83496887.28548  20390794.94148
  23463744.727 5 123302807.076 5  96080135.91646  23463751.83246
  22923982.328 6 120466336.801 6  93869916.59648  22923992.53548
  24408787.461 5 128269045.070 5  99949952.74548  24408797.79748
 20  5 16  3 36 16.0000000  0  8G01G07G08G09G11G16G27G30             0.000380795
  21766779.203 6 114385196.208 6  89131352.47449  21766790.34449
  21887639.094 6 115020314.166 6  89626241.81349  21887646.23049
  21119920.664 6 110985931.647 6  86482571.48849  21119931.52049
  23802458.648 2 125082755.615 2  97467127.18247  23802469.28547
  20390694.805 6 107153824.792 6  83496505.93448  20390701.79348
  23464106.469 5 123304708.388 5  96081617.45546  23464113.67246
  22924553.180 6 120469331.170 6  93872249.85948  22924562.70348
  24408195.883 5 128265935.934 5  99947530.03149  24408206.39549
 20  5 16  3 36 17.0000000  0  8G01G07G08G09G11G16G27G30             0.000380959
  21766248.125 6 114382407.020 6  89129179.08549  21766259.51649
  21887221.273 6 115018119.084 6  89624531.35649  21887228.44949
  21120265.242 6 110987741.928 6  86483982.09849  21120275.93449
  23802869.422 2 125084914.475 2  97468809.39847  23802879.89547
  20390601.688 6 107153336.145 6  83496125.17048  20390608.72348
  23464468.617 5 123306610.002 5  96083099.22946  23464475.44946
  22925122.813 6 120472325.735 6  93874583.28348  22925132.36748
  24407604.148 5 128262827.133 5  99945107.58549  24407614.98049
 20  5 16  3 36 18.0000000  0  8G01G07G08G09G11G16G27G30             0.000381121
  21765717.023 6 114379618.539 6  89127006.24549  21765728.68449
  21886803.695 6 115015924.720 6  89622821.46449  21886811.14549
  21120610.000 6 110989552.767 6  86485393.13949  21120620.18049
  23803280.297 2 125087073.923 2  97470492.06247  23803290.84447
  20390509.219 6 107152848.399 6  83495745.10848  20390516.19548
  23464830.516 5 123308512.040 5  96084581.33446  23464837.35946
  22925692.539 5 120475320.655 5  93876916.98748  22925701.95348
  24407013.031 5 128259718.828 5  99942685.52949  24407023.50849
 20  5 16  3 36 19.0000000  0  8G01G07G08G09G11G16G27G30             0.000381283
  21765186.898 6 114376830.744 6  89124833.93849  21765198.16449
  21886386.359 6 115013731.073 6  89621112.13049  21886393.63749
  21120954.047 6 110991364.082 6  86486804.55349  21120964.75449
  23803690.969 2 125089233.829 2  97472175.09847  23803701.72347
  20390416.367 6 107152361.480 6  83495365.68748  20390423.62948
  23465191.969 5 123310414.496 5  96086063.77146  23465199.54346
  22926262.094 6 120478315.824 6  93879250.88048  22926272.13348
  24406421.664 5 128256610.924 5  99940263.79448  24406432.13348
 20  5 16  3 36 20.0000000  0  8G01G07G08G09G11G16G27G30             0.000381447
  21764656.992 6 114374043.551 6  89122662.09749  21764668.23849
  21885968.891 6 115011538.056 6  89619403.28249  21885976.19549
  21121299.203 6 110993175.784 6  86488216.27149  21121309.98849
  23804102.078 2 125091394.074 2  97473858.40547  23804112.55147
  20390323.781 6 107151875.329 6  83494986.86948  20390330.83248
  23465554.992 5 123312317.231 5  96087546.41846  23465561.27746
  22926831.938 6 120481311.202 6  93881584.94448  22926842.03148
  24405829.820 4 128253503.362 4  99937842.32648  24405840.69948
 20  5 16  3 36 21.0000000  0  8G01G07G08G09G11G16G27G30             0.000381609
  21764126.414 6 114371256.860 6  89120490.65149  21764137.55549
  21885551.430 6 115009345.570 6  89617694.85449  21885558.62549
  21121644.172 6 110994987.832 6  86489628.25249  21121654.82049
  23804513.156 2 125093554.630 2  97475541.94847  23804523.70347
  20390231.328 6 107151389.878 6  83494608.60248  20390238.72348
  23465916.516 5 123314220.227 5  96089029.27446  23465923.76646
  22927402.375 6 120484306.728 6  93883919.12248  22927412.09048
  24405238.430 4 128250396.099 4  99935421.09148  24405248.87148
 20  5 16  3 36 22.0000000  0  8G01G07G08G09G11G16G27G30             0.000381773
  21763596.297 6 114368470.846 6  89118319.72949  21763607.24249
  21885134.547 6 115007153.778 6  89615986.96949  21885141.80549
  21121989.383 6 110996800.376 6  86491040.62649  21121999.65249
  23804925.141 2 125095715.687 2  97477225.89747  23804935.07847
  20390139.094 6 107150905.254 6  83494230.96848  20390146.42248
  23466279.305 5 123316123.584 5  96090512.40146  23466286.11346
  22927972.656 6 120487302.521 6  93886253.50248  22927982.27048
  24404647.547 3 128247289.253 3  99933000.15747  24404658.33247
 20  5 16  3 36 23.0000000  0  8G01G07G08G09G11G16G27G30             0.000381937
  21763066.320 6 114365685.479 6  89116149.31849  21763077.64549
  21884717.523 6 115004962.689 6  89614279.61949  21884724.87949
  21122334.281 6 110998613.391 6  86492453.36649  21122344.65649
  23805336.398 2 125097877.185 2  97478910.19247  23805346.62947
  20390047.367 6 107150421.450 6  83493853.97648  20390054.50448
  23466641.125 5 123318027.318 5  96091995.83746  23466647.69946
  22928543.031 6 120490298.597 6  93888588.11248  22928552.47348
  24404056.266 3 128244182.851 3  99930579.55947  24404067.14147
 20  5 16  3 36 24.0000000  0  8G01G07G08G09G11G16G27G30             0.000382099
  21762536.102 6 114362900.612 6  89113979.29749  21762547.21149
  21884300.797 6 115002772.124 6  89612572.68849  21884308.12949
  21122679.367 6 111000426.740 6  86493866.35949  21122689.53149
  23805748.281 2 125100038.961 2  97480594.70447  23805757.78947
  20389954.859 6 107149938.323 6  83493477.51148  20389961.99648
  23467003.789 5 123319931.275 5  96093479.42946  23467010.12546
  22929113.125 6 120493294.816 6  93890922.83248  22929122.82448
  24403465.555 3 128241076.704 3  99928159.16447  24403475.87947
 20  5 16  3 36 25.0000000  0  8G01G07G08G09G11G16G27G30             0.000382263
  21762006.039 6 114360116.438 6  89111809.80449  21762017.94949
  21883884.297 6 115000582.268 6  89610866.30649  21883891.46149
  21123023.992 6 111002240.559 6  86495279.73149  21123034.69949
  23806158.398 2 125102201.178 2  97482279.54747  23806169.35547
  20389863.266 6 107149456.024 6  83493101.69648  20389870.16848
  23467366.055 5 123321835.649 5  96094963.35547  23467372.50847
  22929683.086 6 120496291.307 6  93893257.75349  22929693.02049
  24402874.719 3 128237970.976 3  99925739.12547  24402884.91447
 20  5 16  3 36 26.0000000  0  8G01G07G08G09G11G16G27G30             0.000382427
  21761476.773 5 114357332.936 5  89109640.83349  21761488.48449
  21883467.500 6 114998393.098 6  89609160.46349  21883474.69149
  21123369.539 6 111004054.841 6  86496693.45649  21123380.13349
  23806571.617 2 125104363.862 2  97483964.75447  23806580.99247
  20389771.953 6 107148974.597 6  83492726.55948  20389778.98048
  23467728.422 5 123323740.348 5  96096447.53646  23467735.23846
  22930252.773 6 120499288.058 6  93895592.85749  22930262.77349
  24402283.797 4 128234865.721 4  99923319.46147  24402294.06647
 20  5 16  3 36 27.0000000  0  8G01G07G08G09G11G16G27G30             0.000382591
  21760947.328 5 114354550.132 5  89107472.41149  21760958.68849
  21883050.672 6 114996204.634 6  89607455.16549  21883058.22749
  21123715.258 6 111005869.605 6  86498107.56649  21123725.24249
  23806982.859 1 125106527.036 1  97485650.32047  23806992.75047
  20389680.313 6 107148494.003 6  83492352.06848  20389687.25448
  23468090.938 5 123325645.437 5  96097932.01846  23468097.59846
  22930823.555 6 120502285.066 6  93897928.19548  22930833.58648
  24401692.305 4 128231760.848 4  99920900.08347  24401703.66447
 20  5 16  3 36 28.0000000  0  8G01G07G08G09G11G16G27G30             0.000382755
  21760418.008 5 114351767.757 5  89105304.32549  21760429.03149
  21882634.313 6 114994016.669 6  89605750.26549  21882642.22349
  21124060.141 6 111007684.698 6  86499521.92349  21124070.92649
  23807393.641 1 125108690.500 1  97487336.10947  23807404.86747
  20389588.828 6 107148014.043 6  83491978.07148  20389596.17248
  23468453.281 5 123327550.763 5  96099416.69446  23468460.84046
  22931393.828 6 120505282.210 6  93900263.64649  22931403.46149
  24401101.820 3 128228656.288 3  99918480.96247  24401112.40647
 20  5 16  3 36 29.0000000  0  8G01G07G08G09G11G16G27G30             0.000382921
  21759888.484 6 114348986.065 6  89103136.78549  21759900.12949
  21882218.469 6 114991829.359 6  89604045.86749  21882225.92649
  21124405.977 6 111009500.202 6  86500936.60749  21124416.47349
  23807805.414 1 125110854.318 1  97489022.19647  23807816.27347
  20389497.695 6 107147534.902 6  83491604.71448  20389504.78148
  23468816.469 5 123329456.387 5  96100901.59746  23468823.28946
  22931964.797 6 120508279.578 6  93902599.26548  22931974.16848
  24400511.586 3 128225552.057 3  99916062.10347  24400521.46947
 20  5 16  3 36 30.0000000  0  8G01G07G08G09G11G16G27G30             0.000383085
  21759359.266 5 114346204.751 5  89100969.53349  21759370.42649
  21881802.156 6 114989642.530 6  89602341.85149  21881809.54349
  21124751.086 6 111011315.936 6  86502351.46449  21124761.74249
  23808217.859 1 125113018.393 1  97490708.47747  23808228.09047
  20389406.703 6 107147056.343 6  83491231.81248  20389414.13748
  23469178.688 5 123331362.177 5  96102386.61646  23469185.64846
  22932534.727 6 120511277.003 6  93904934.92648  22932544.50048
  24399920.844 4 128222448.071 4  99913643.43847  24399930.85947
 20  5 16  3 36 31.0000000  0  8G01G07G08G09G11G16G27G30             0.000383249
  21758830.219 5 114343424.253 5  89098802.91849  21758841.31649
  21881386.055 6 114987456.500 6  89600638.45649  21881393.61349
  21125096.977 6 111013132.272 6  86503766.78949  21125107.29349
  23808629.609 1 125115183.046 1  97492395.21347  23808640.50447
  20389315.492 6 107146578.737 6  83490859.65448  20389323.10948
  23469541.781 4 123333268.478 4  96103872.03746  23469548.65646
  22933105.734 6 120514274.801 6  93907270.87748  22933114.98048
  24399330.203 4 128219344.610 4  99911225.16648  24399340.64148
 20  5 16  3 36 32.0000000  0  8G01G07G08G09G11G16G27G30             0.000383413
  21758301.086 5 114340644.384 5  89096636.79249  21758312.18049
  21880970.125 6 114985271.146 6  89598935.57949  21880977.85949
  21125442.906 6 111014949.065 6  86505182.47249  21125453.06649
  23809042.148 1 125117348.145 1  97494082.30247  23809052.09447
  20389224.844 6 107146101.952 6  83490488.13848  20389231.84848
  23469904.836 5 123335175.146 5  96105357.75646  23469911.12146
  22933675.734 6 120517272.895 6  93909607.05549  22933685.56649
  24398739.703 4 128216241.512 4  99908807.17148  24398749.71148
 20  5 16  3 36 33.0000000  0  8G01G07G08G09G11G16G27G30             0.000383579
  21757772.023 5 114337865.048 5  89094471.07049  21757783.39549
  21880554.469 6 114983086.341 6  89597233.13249  21880561.78549
  21125788.516 6 111016766.191 6  86506598.40849  21125798.82849
  23809453.539 1 125119513.580 1  97495769.64547  23809464.22747
  20389134.648 6 107145625.843 6  83490117.14348  20389141.88748
  23470267.242 4 123337082.043 4  96106843.64346  23470274.39546
  22934246.016 6 120520271.055 6  93911943.28249  22934256.02349
  24398148.383 5 128213138.724 5  99906389.41948  24398159.66048
 20  5 16  3 36 34.0000000  0  8G01G07G08G09G11G16G27G30             0.000383743
  21757243.258 5 114335086.273 5  89092305.78749  21757254.83649
  21880138.867 6 114980902.155 6  89595531.15749  21880146.15249
  21126134.266 6 111018583.722 6  86508014.66449  21126144.64849
  23809866.141 2 125121679.380 2  97497457.27047  23809876.39147
  20389043.906 6 107145150.503 6  83489746.75148  20389050.84048
  23470630.266 5 123338989.241 5  96108329.76846  23470637.37546
  22934817.227 6 120523269.483 6  93914279.72049  22934826.90649
  24397558.469 4 128210036.272 4  99903971.92048  24397568.96948
 20  5 16  3 36 35.0000000  0  8G01G07G08G09G11G16G27G30             0.000383909
  21756714.734 5 114332308.217 5  89090141.06949  21756726.29749
  21879723.438 6 114978718.674 6  89593829.74449  21879731.21949
  21126480.461 6 111020401.750 6  86509431.30849  21126490.77049
  23810279.000 2 125123845.634 2  97499145.25747  23810288.37147
  20388953.828 6 107144676.012 6  83489377.02248  20388961.18048
  23470992.648 5 123340896.808 5  96109816.19746  23471000.36746
  22935387.688 5 120526268.171 5  93916616.35648  22935396.75848
  24396968.727 4 128206934.244 4  99901554.74948  24396978.34048
 20  5 16  3 36 36.0000000  0  8G01G07G08G09G11G16G27G30             0.000384073
  21756186.148 6 114329530.706 6  89087976.77249  21756197.32049
  21879308.109 6 114976535.830 6  89592128.82649  21879315.44149
  21126826.383 6 111022220.174 6  86510848.25849  21126836.88749
  23810690.617 2 125126012.261 2  97500833.53847  23810701.18847
  20388863.648 6 107144202.266 6  83489007.86848  20388870.68048
  23471356.203 5 123342804.669 5  96111302.83746  23471363.41846
  22935958.234 5 120529267.046 5  93918953.13148  22935967.69948
  24396378.102 3 128203832.534 3  99899137.84547  24396388.38347
 20  5 16  3 36 37.0000000  0  8G01G07G08G09G11G16G27G30             0.000384239
  21755657.883 6 114326753.917 6  89085813.04949  21755669.04749
  21878892.328 6 114974353.660 6  89590428.43549  21878900.51249
  21127172.359 6 111024039.089 6  86512265.59549  21127182.77749
  23811102.109 2 125128179.286 2  97502522.12547  23811113.35247
  20388773.578 6 107143729.361 6  83488639.36848  20388780.98448
  23471718.719 5 123344712.944 5  96112789.81546  23471726.32846
  22936529.250 5 120532266.220 5  93921290.13349  22936538.55549
  24395787.828 3 128200731.243 3  99896721.23247  24395798.10547
 20  5 16  3 36 38.0000000  0  8G01G07G08G09G11G16G27G30             0.000384405
  21755129.484 6 114323977.779 6  89083649.81849  21755140.66449
  21878477.805 6 114972172.201 6  89588728.60449  21878485.14849
  21127518.695 6 111025858.481 6  86513683.31249  21127528.92249
  23811515.125 2 125130346.878 2  97504211.15947  23811526.13747
  20388683.922 6 107143257.276 6  83488271.51048  20388690.77348
  23472082.297 5 123346621.592 5  96114277.07346  23472089.68046
  22937099.289 5 120535265.641 5  93923627.34149  22937109.38749
  24395198.273 3 128197630.397 3  99894304.95447  24395208.44547
 20  5 16  3 36 39.0000000  0  8G01G07G08G09G11G16G27G30             0.000384571
  21754601.375 6 114321202.224 6  89081487.04349  21754612.71949
  21878062.875 6 114969991.380 6  89587029.26449  21878070.19949
  21127865.047 6 111027678.305 6  86515101.35649  21127875.52749
  23811927.406 2 125132514.850 2  97505900.49047  23811938.65647
  20388594.414 6 107142785.982 6  83487904.26348  20388601.41048
  23472445.133 5 123348530.565 5  96115764.59146  23472453.09046
  22937670.336 6 120538265.344 6  93925964.76348  22937680.13348
  24394607.203 3 128194529.924 3  99891888.99247  24394618.51647
 20  5 16  3 36 40.0000000  0  8G01G07G08G09G11G16G27G30             0.000384737
  21754073.383 6 114318427.414 6  89079324.85349  21754084.29749
  21877647.398 6 114967811.279 6  89585330.48549  21877655.35949
  21128211.102 6 111029498.629 6  86516519.78949  21128221.56649
  23812340.086 2 125134683.232 2  97507590.13347  23812351.02747
  20388504.305 6 107142315.552 6  83487537.70048  20388511.90648
  23472808.438 5 123350439.955 5  96117252.42246  23472816.32046
  22938240.797 6 120541265.326 6  93928302.41549  22938251.18049
  24394017.742 4 128191429.933 4  99889473.43447  24394028.44147
 20  5 16  3 36 41.0000000  0  8G01G07G08G09G11G16G27G30             0.000384903
  21753545.016 6 114315653.113 6  89077163.06349  21753556.21949
  21877232.938 6 114965631.756 6  89583632.15849  21877240.80549
  21128557.719 6 111031319.295 6  86517938.48949  21128568.16049
  23812752.898 1 125136852.012 1  97509280.09447  23812763.36347
  20388415.383 6 107141845.850 6  83487171.69748  20388422.33248
  23473171.922 5 123352349.607 5  96118740.46246  23473180.00846
  22938811.992 6 120544265.442 6  93930640.17848  22938821.72748
  24393427.844 4 128188330.229 4  99887058.06747  24393438.80147
 20  5 16  3 36 42.0000000  0  8G01G07G08G09G11G16G27G30             0.000385069
  21753017.781 6 114312879.383 6  89075001.71349  21753028.73449
  21876818.320 6 114963452.807 6  89581934.26549  21876825.86749
  21128904.680 6 111033140.326 6  86519357.47249  21128915.03949
  23813166.719 2 125139021.107 2  97510970.28947  23813176.62547
  20388325.891 6 107141376.851 6  83486806.24548  20388332.93848
  23473535.703 5 123354259.521 5  96120228.68846  23473543.73446
  22939383.023 6 120547265.727 6  93932978.07648  22939392.85948
  24392837.758 4 128185230.820 4  99884642.91748  24392849.24648
 20  5 16  3 36 43.0000000  0  8G01G07G08G09G11G16G27G30             0.000385235
  21752489.875 6 114310106.199 6  89072840.79649  21752500.74249
  21876404.109 6 114961274.478 6  89580236.86349  21876411.71949
  21129251.320 6 111034961.729 6  86520776.73849  21129261.32049
  23813579.320 2 125141190.634 2  97512660.82847  23813589.00047
  20388236.789 6 107140908.603 6  83486441.37548  20388244.08248
  23473899.180 5 123356169.707 5  96121717.14246  23473907.13346
  22939954.320 6 120550266.210 6  93935316.12448  22939963.39148
  24392248.258 4 128182131.819 4  99882228.10347  24392259.09847
 20  5 16  3 36 44.0000000  0  8G01G07G08G09G11G16G27G30             0.000385401
  21751962.352 6 114307333.773 6  89070680.48849  21751973.05149
  21875989.375 6 114959096.875 6  89578540.04049  21875997.14549
  21129597.711 6 111036783.663 6  86522196.43049  21129607.73849
  23813992.508 2 125143360.575 2  97514351.68847  23814002.13747
  20388148.188 6 107140441.227 6  83486077.19748  20388155.21148
  23474263.500 5 123358080.355 5  96123205.96046  23474270.55146
  22940524.445 5 120553267.044 5  93937654.43648  22940534.70348
  24391658.969 3 128179033.229 3  99879813.62447  24391669.62147
 20  5 16  3 36 45.0000000  0  8G01G07G08G09G11G16G27G30             0.000385567
  21751434.930 6 114304561.894 6  89068520.59249  21751445.59849
  21875575.133 6 114956919.901 6  89576843.70549  21875582.94949
  21129944.328 6 111038605.998 6  86523616.43449  21129954.61749
  23814403.992 3 125145530.861 3  97516042.81247  23814415.03547
  20388059.383 6 107139974.618 6  83485713.60748  20388066.27748
  23474626.234 5 123359991.267 5  96124694.98246  23474634.28546
  22941096.320 5 120556268.046 5  93939992.86848  22941106.21948
  24391069.242 3 128175935.024 3  99877399.45147  24391080.00047
 20  5 16  3 36 46.0000000  0  8G01G07G08G09G11G16G27G30             0.000385735
  21750907.430 6 114301790.625 6  89066361.15949  21750918.32849
  21875161.055 6 114954743.509 6  89575147.82349  21875168.80549
  21130291.125 6 111040428.690 6  86525036.71449  21130301.30149
  23814817.953 3 125147701.604 3  97517734.29247  23814828.33247
  20387970.398 6 107139508.747 6  83485350.59248  20387977.78548
  23474990.164 5 123361902.470 5  96126184.23346  23474997.88346
  22941667.188 5 120559269.252 5  93942331.46148  22941677.32048
  24390479.820 3 128172837.136 3  99874985.52647  24390490.18847
 20  5 16  3 36 47.0000000  0  8G01G07G08G09G11G16G27G30             0.000385900
  21750379.922 5 114299019.957 5  89064202.19949  21750391.02049
  21874746.844 6 114952567.747 6  89573452.42549  21874754.32049
  21130638.063 6 111042251.801 6  86526457.31449  21130648.47749
  23815231.008 3 125149872.698 3  97519426.05747  23815241.76247
  20387881.922 6 107139043.644 6  83484988.17348  20387889.34448
  23475353.813 5 123363813.981 5  96127673.72346  23475361.87946
  22942238.070 5 120562270.640 5  93944670.19748  22942248.31648
  24389890.414 3 128169739.582 3  99872571.86447  24389901.36347
 20  5 16  3 36 48.0000000  0  8G01G07G08G09G11G16G27G30             0.000386068
  21749852.836 6 114296249.905 6  89062043.71349  21749863.98049
  21874333.133 6 114950392.681 6  89571757.57049  21874340.89549
  21130985.555 6 111044075.365 6  86527878.27949  21130995.64149
  23815642.930 3 125152044.212 3  97521118.16047  23815654.60247
  20387793.953 6 107138579.353 6  83484626.38748  20387800.71148
  23475717.922 5 123365725.885 5  96129163.49846  23475725.88346
  22942809.539 6 120565272.256 6  93947009.10748  22942819.50448
  24389301.602 4 128166642.494 4  99870158.56347  24389312.34847
 20  5 16  3 36 49.0000000  0  8G01G07G08G09G11G16G27G30             0.000386234
  21749326.016 6 114293480.553 6  89059885.77249  21749336.69149
  21873919.398 6 114948218.290 6  89570063.22949  21873926.75449
  21131332.484 7 111045899.413 7  86529299.61749  21131342.71549
  23816056.961 2 125154216.195 2  97522810.62847  23816067.74247
  20387705.422 6 107138115.881 6  83484265.23448  20387712.60948
  23476081.477 5 123367638.143 5  96130653.58446  23476089.32846
  22943381.266 6 120568274.187 6  93949348.29549  22943390.83649
  24388711.633 4 128163545.840 4  99867745.58548  24388722.41848
 20  5 16  3 36 50.0000000  0  8G01G07G08G09G11G16G27G30             0.000386402
  21748799.336 6 114290711.826 6  89057728.30749  21748809.96949
  21873505.656 6 114946044.579 6  89568369.42749  21873513.18449
  21131679.945 7 111047723.932 7  86530721.31349  21131689.77049
  23816470.031 2 125156388.630 2  97524503.43947  23816481.83247
  20387617.516 6 107137653.243 6  83483904.73648  20387623.98848
  23476445.117 5 123369550.779 5  96132143.95546  23476453.34446
  22943952.273 6 120571276.361 6  93951687.65849  22943962.12549
  24388122.742 5 128160449.566 5  99865332.91448  24388133.14148
 20  5 16  3 36 51.0000000  0  8G01G07G08G09G11G16G27G30             0.000386570
  21748272.609 6 114287943.664 6  89055571.28049  21748283.47349
  21873092.156 6 114943871.464 6  89566676.08649  21873100.02049
  21132026.969 7 111049548.807 7  86532143.29149  21132037.02049
  23816883.992 3 125158561.378 3  97526196.50147  23816894.87147
  20387529.570 6 107137191.328 6  83483544.80648  20387536.64148
  23476809.531 5 123371463.710 5  96133634.54746  23476817.25846
  22944523.523 6 120574278.737 6  93954027.17949  22944533.60949
  24387533.664 5 128157353.620 5  99862920.48448  24387544.21148
 20  5 16  3 36 52.0000000  0  8G01G07G08G09G11G16G27G30             0.000386736
  21747745.867 6 114285176.081 6  89053414.71949  21747756.47749
  21872678.570 6 114941698.933 6  89564983.20649  21872686.33649
  21132374.359 7 111051374.003 7  86533565.52249  21132384.38749
  23817296.852 3 125160734.495 3  97527889.84547  23817308.43447
  20387441.797 6 107136730.107 6  83483185.41148  20387448.74648
  23477173.727 5 123373376.843 5  96135125.31746  23477181.71946
  22945094.461 5 120577281.218 5  93956366.77649  22945104.97349
  24386944.758 5 128154257.979 5  99860508.30148  24386955.09848
 20  5 16  3 36 53.0000000  0  8G01G07G08G09G11G16G27G30             0.000386904
  21747219.531 6 114282409.132 6  89051258.66649  21747230.15249
  21872265.773 6 114939527.097 6  89563290.87049  21872272.84849
  21132721.805 7 111053199.735 7  86534988.17149  21132732.19149
  23817711.078 3 125162908.031 3  97529583.50647  23817721.76247
  20387354.250 6 107136269.757 6  83482826.69448  20387360.84048
  23477537.281 5 123375290.393 5  96136616.38646  23477545.21146
  22945665.484 6 120580283.995 6  93958706.60248  22945676.30548
  24386355.398 5 128151162.744 5  99858096.44048  24386366.01248
 20  5 16  3 36 54.0000000  0  8G01G07G08G09G11G16G27G30             0.000387072
  21746693.016 6 114279642.849 6  89049103.12949  21746703.46949
  21871852.070 6 114937355.926 6  89561599.05549  21871859.82049
  21133069.078 6 111055025.901 6  86536411.15749  21133079.20749
  23818124.273 3 125165082.075 3  97531277.55447  23818135.76247
  20387266.500 6 107135810.219 6  83482468.61848  20387273.55948
  23477901.969 5 123377204.329 5  96138107.76746  23477909.59846
  22946237.906 5 120583287.045 5  93961046.64049  22946247.50049
  24385766.375 4 128148067.954 4  99855684.92948  24385777.09448
 20  5 16  3 36 55.0000000  0  8G01G07G08G09G11G16G27G30             0.000387239
  21746167.055 6 114276877.159 6  89046948.04649  21746177.53149
  21871439.297 6 114935185.410 6  89559907.73849  21871447.02349
  21133416.578 7 111056852.520 7  86537834.49949  21133426.66049
  23818537.430 1 125167256.593 1  97532971.97147  23818549.74647
  20387179.258 6 107135351.434 6  83482111.12448  20387186.38748
  23478266.266 5 123379118.591 5  96139599.40547  23478274.33247
  22946808.984 6 120586290.359 6  93963386.87449  22946819.27349
  24385177.172 4 128144973.438 4  99853273.64748  24385188.01248
 20  5 16  3 36 56.0000000  0  8G01G07G08G09G11G16G27G30             0.000387407
  21745640.508 6 114274112.145 6  89044793.48149  21745651.73449
  21871026.211 6 114933015.551 6  89558216.93149  21871033.98049
  21133764.617 7 111058679.557 7  86539258.16049  21133774.59049
  23818952.492 1 125169431.322 1  97534666.54847  23818963.03947
  20387092.469 6 107134893.476 6  83481754.27148  20387098.90248
  23478630.969 5 123381033.180 5  96141091.28246  23478638.82046
  22947380.648 6 120589293.843 6  93965727.22349  22947390.98449
  24384588.125 3 128141879.421 3  99850862.72548  24384599.29748
 20  5 16  3 36 57.0000000  0  8G01G07G08G09G11G16G27G30             0.000387575
  21745114.461 5 114271347.740 5  89042639.39149  21745125.35949
  21870613.484 6 114930846.341 6  89556526.63849  21870621.55549
  21134112.117 7 111060507.010 7  86540682.15049  21134122.32449
  23819366.430 1 125171606.573 1  97536361.53147  23819376.94147
  20387005.242 6 107134436.321 6  83481398.04248  20387011.72748
  23478994.727 5 123382948.078 5  96142583.42046  23479002.82446
  22947952.109 5 120592297.560 5  93968067.78548  22947961.94948
  24384000.258 3 128138785.752 3  99848452.05748  24384010.89148
 20  5 16  3 36 58.0000000  0  8G01G07G08G09G11G16G27G30             0.000387743
  21744588.539 5 114268583.853 5  89040485.71449  21744599.39849
  21870200.984 6 114928677.697 6  89554836.79149  21870208.57449
  21134460.133 7 111062334.813 7  86542106.41649  21134470.43049
  23819780.844 1 125173782.096 1  97538056.74147  23819791.12547
  20386918.320 6 107133979.838 6  83481042.33648  20386925.43048
  23479358.883 5 123384863.252 5  96144075.77046  23479367.01246
  22948523.430 5 120595301.426 5  93970408.46948  22948533.55148
  24383411.352 3 128135692.369 3  99846041.62448  24383422.38748
 20  5 16  3 36 59.0000000  0  8G01G07G08G09G11G16G27G30             0.000387913
  21744063.070 5 114265820.547 5  89038332.49249  21744073.64549
  21869788.242 6 114926509.672 6  89553147.42149  21869795.76249
  21134808.016 6 111064162.990 6  86543530.97449  21134818.12949
  23820195.492 1 125175957.973 1  97539752.23447  23820205.64547
  20386831.859 6 107133524.107 6  83480687.21848  20386838.78148
  23479723.602 5 123386778.727 5  96145568.34446  23479731.80546
  22949095.805 5 120598305.490 5  93972749.31748  22949105.62548
  24382822.688 3 128132599.325 3  99843631.43648  24382833.76648
 20  5 16  3 37  0.0000000  0  8G01G07G08G09G11G16G27G30             0.000388081
  21743536.977 5 114263057.860 5  89036179.75049  21743547.69949
  21869375.648 6 114924342.308 6  89551458.57149  21869383.62549
  21135155.859 7 111065991.592 7  86544955.85149  21135165.90649
  23820609.875 1 125178134.285 1  97541448.06347  23820619.71547
  20386744.703 6 107133069.174 6  83480332.72648  20386752.00848
  23480088.047 5 123388694.538 5  96147061.17846  23480096.22746
  22949666.758 5 120601309.801 5  93975090.34248  22949677.49648
  24382233.805 3 128129506.656 3  99841221.55648  24382245.07448
 20  5 16  3 37  1.0000000  0  8G01G07G08G09G11G16G27G30             0.000388248
  21743011.141 5 114260295.889 5  89034027.57849  21743022.03949
  21868963.484 6 114922175.615 6  89549770.23749  21868971.19149
  21135504.242 6 111067820.691 6  86546381.12249  21135514.43449
  23821023.773 1 125180311.123 1  97543144.30646  23821033.82446
  20386658.977 6 107132615.067 6  83479978.88148  20386665.57048
  23480453.055 5 123390610.711 5  96148554.30346  23480460.90246
  22950238.773 5 120604314.364 5  93977431.55248  22950249.13748
  24381645.273 3 128126414.464 3  99838812.07547  24381656.69547
 20  5 16  3 37  2.0000000  0  8G01G07G08G09G11G16G27G30             0.000388418
  21742486.070 5 114257534.391 5  89031875.76949  21742496.72349
  21868551.609 6 114920009.503 6  89548082.35549  21868558.62949
  21135852.344 7 111069650.053 7  86547806.59649  21135862.34049
  23821438.344 1 125182488.202 1  97544840.71947  23821448.18047
  20386572.359 6 107132161.632 6  83479625.55248  20386579.00048
  23480817.586 5 123392527.158 5  96150047.62446  23480825.71146
  22950810.891 6 120607319.073 6  93979772.88048  22950820.62148
  24381057.367 3 128123322.467 3  99836402.73047  24381068.11747
 20  5 16  3 37  3.0000000  0  8G01G07G08G09G11G16G27G30             0.000388586
  21741960.742 5 114254773.433 5  89029724.36749  21741971.22749
  21868138.898 6 114917843.920 6  89546394.87849  21868146.88349
  21136200.289 6 111071479.756 6  86549232.34349  21136210.64549
  23821853.523 1 125184665.652 1  97546537.42747  23821862.52747
  20386486.383 6 107131708.903 6  83479272.77348  20386493.57848
  23481182.875 5 123394443.812 5  96151541.13046  23481190.42646
  22951382.688 6 120610323.908 6  93982114.30448  22951392.76248
  24380469.133 3 128120230.844 3  99833993.67347  24380479.80947
 20  5 16  3 37  4.0000000  0  8G01G07G08G09G11G16G27G30             0.000388756
  21741435.016 5 114252012.934 5  89027573.33349  21741446.27349
  21867727.047 6 114915678.838 6  89544707.79649  21867734.69549
  21136549.047 6 111073309.744 6  86550658.30249  21136559.01649
  23822267.391 1 125186843.299 1  97548234.29246  23822276.59446
  20386400.406 6 107131256.801 6  83478920.48748  20386407.24648
  23481547.914 5 123396360.646 5  96153034.77246  23481554.95746
  22951954.594 6 120613328.816 6  93984455.79848  22951964.17248
  24379880.539 4 128117139.383 4  99831584.72848  24379891.59048
 20  5 16  3 37  5.0000000  0  8G01G07G08G09G11G16G27G30             0.000388926
  21740909.883 5 114249253.124 5  89025422.83248  21740921.19548
  21867315.453 6 114913514.489 6  89543021.28549  21867322.94949
  21136896.836 6 111075140.200 6  86552084.63249  21136906.89549
  23822682.086 1 125189021.276 1  97549931.41347  23822691.65247
  20386314.758 6 107130805.525 6  83478568.84148  20386321.55948
  23481912.477 5 123398277.896 5  96154528.72446  23481920.08246
  22952526.227 6 120616334.056 6  93986797.54949  22952536.16849
  24379292.359 4 128114048.333 4  99829176.11348  24379303.23048
 20  5 16  3 37  6.0000000  0  8G01G07G08G09G11G16G27G30             0.000389093
  21740384.406 5 114246493.915 5  89023272.80749  21740395.66849
  21866903.445 6 114911350.770 6  89541335.28149  21866911.21949
  21137245.188 7 111076971.081 7  86553511.29649  21137255.57049
  23823095.211 2 125191199.831 2  97551629.01147  23823105.68047
  20386228.922 6 107130354.996 6  83478217.79148  20386235.54748
  23482277.148 4 123400195.446 4  96156022.91946  23482284.68846
  22953097.875 6 120619339.432 6  93989139.36449  22953108.56649
  24378704.891 4 128110957.714 4  99826767.86847  24378715.41847
 20  5 16  3 37  7.0000000  0  8G01G07G08G09G11G16G27G30             0.000389263
  21739860.461 5 114243735.318 5  89021123.25049  21739871.19949
  21866492.102 6 114909187.652 6  89539649.74749  21866499.39549
  21137593.969 7 111078802.394 7  86554938.28949  21137604.16449
  23823510.305 1 125193378.603 1  97553326.76947  23823520.33247
  20386142.789 6 107129905.285 6  83477867.36748  20386150.06648
  23482641.516 4 123402113.284 4  96157517.35146  23482649.57846
  22953669.820 6 120622345.046 6  93991481.37749  22953680.14149
  24378116.750 4 128107867.431 4  99824359.86448  24378127.15648
 20  5 16  3 37  8.0000000  0  8G01G07G08G09G11G16G27G30             0.000389433
  21739335.094 5 114240977.399 5  89018974.21749  21739346.41849
  21866080.734 6 114907025.289 6  89537964.78949  21866088.32449
  21137942.336 6 111080634.198 6  86556365.66949  21137952.48049
  23823924.992 1 125195558.060 1  97555025.06747  23823934.82447
  20386057.813 6 107129456.417 6  83477517.60548  20386064.62148
  23483006.695 5 123404031.546 5  96159012.10646  23483015.18846
  22954242.047 6 120625350.961 6  93993823.63349  22954252.28949
  24377528.852 4 128104777.639 4  99821952.24048  24377539.43048
 20  5 16  3 37  9.0000000  0  8G01G07G08G09G11G16G27G30             0.000389603
  21738810.570 5 114238220.152 5  89016825.70549  21738822.00049
  21865669.570 6 114904863.604 6  89536280.35249  21865677.25849
  21138290.984 7 111082466.465 7  86557793.40749  21138301.45349
  23824339.133 1 125197737.796 1  97556723.55347  23824349.98047
  20385972.492 6 107129008.397 6  83477168.50148  20385979.41848
  23483371.617 5 123405950.195 5  96160507.16946  23483379.69146
  22954814.109 6 120628357.139 6  93996166.11349  22954823.89849
  24376940.805 4 128101688.221 4  99819544.90848  24376951.33248
 20  5 16  3 37 10.0000000  0  8G01G07G08G09G11G16G27G30             0.000389772
  21738285.992 5 114235463.479 5  89014677.65549  21738296.89849
  21865258.078 6 114902702.521 6  89534596.39649  21865265.55149
  21138639.547 7 111084299.104 7  86559221.44249  21138649.99249
  23824752.500 2 125199917.871 2  97558422.30247  23824764.60547
  20385887.242 6 107128561.107 6  83476819.96948  20385894.20348
  23483737.133 5 123407869.087 5  96162002.40647  23483745.24647
  22955386.141 6 120631363.441 6  93998508.69649  22955396.00049
  24376352.703 4 128098599.105 4  99817137.81648  24376363.53948
 20  5 16  3 37 11.0000000  0  8G01G07G08G09G11G16G27G30             0.000389942
  21737761.813 5 114232707.444 5  89012530.10448  21737772.34848
  21864846.961 6 114900542.035 6  89532912.90449  21864854.68849
  21138988.633 6 111086132.115 6  86560649.75449  21138998.94949
  23825168.805 3 125202098.415 3  97560121.36547  23825179.74247
  20385802.453 6 107128114.563 6  83476472.00448  20385809.42248
  23484102.305 4 123409788.280 4  96163497.87846  23484110.44546
  22955958.406 6 120634369.960 6  94000851.45748  22955968.06348
  24375764.023 2 128095510.434 2  99814731.07447  24375775.72347
 20  5 16  3 37 12.0000000  0  8G01G07G08G09G11G16G27G30             0.000390112
  21737237.320 5 114229952.017 5  89010383.03048  21737248.42648
  21864435.766 6 114898382.242 6  89531229.94349  21864443.46949
  21139337.156 7 111087965.604 7  86562078.45249  21139347.31349
  23825583.914 3 125204279.347 3  97561820.72947  23825594.87147
  20385717.758 6 107127668.832 6  83476124.67248  20385724.70748
  23484468.258 5 123411707.854 5  96164993.63746  23484475.94146
  22956530.406 6 120637376.773 6  94003194.45448  22956540.48448
  24375176.930 2 128092422.094 2  99812324.57447  24375187.81347
 20  5 16  3 37 13.0000000  0  8G01G07G08G09G11G16G27G30             0.000390282
  21736712.914 5 114227197.123 5  89008236.36649  21736723.79749
  21864025.023 6 114896223.067 6  89529547.47149  21864032.62549
  21139686.719 7 111089799.496 7  86563507.45849  21139696.73849
  23825998.594 3 125206460.626 3  97563520.39547  23826010.01647
  20385633.297 6 107127223.830 6  83475777.91348  20385639.87948
  23484833.016 5 123413627.729 5  96166489.63446  23484840.94146
  22957102.766 5 120640383.722 5  94005537.54948  22957112.38748
  24374589.563 3 128089334.097 3  99809918.33747  24374600.20347
 20  5 16  3 37 14.0000000  0  9G01G04G07G08G09G11G16G27G30          0.000390451
  21736188.484 5 114224442.758 5  89006090.10449  21736199.38749
  24199703.461 1                                
  21863614.414 6 114894064.379 6  89527865.37449  21863621.60549
  21140035.500 7 111091633.655 7  86564936.67949  21140045.93449
  23826414.188 3 125208642.229 3  97565220.34747  23826425.05147
  20385548.609 6 107126779.477 6  83475431.66148  20385555.38748
  23485198.148 5 123415547.802 5  96167985.78346  23485205.93046
  22957674.977 5 120643390.782 5  94007880.71848  22957684.80548
  24374002.125 3 128086246.364 3  99807512.31047  24374012.99647
 20  5 16  3 37 15.0000000  0  9G01G04G07G08G09G11G16G27G30          0.000390621
  21735664.789 5 114221689.126 5  89003944.40948  21735675.60948
  24200252.805 1 127173175.28711                
  21863203.781 6 114891906.490 6  89526183.90049  21863211.48849
  21140384.758 7 111093468.365 7  86566366.33049  21140394.91049
  23826828.672 3 125210824.289 3  97566920.66547  23826840.02747
  20385463.781 6 107126336.038 6  83475086.13248  20385470.86348
  23485564.438 5 123417468.325 5  96169482.29446  23485572.12946
  22958247.078 5 120646398.182 5  94010224.14548  22958257.44948
  24373414.977 3 128083159.127 3  99805106.65947  24373425.30947
 20  5 16  3 37 16.0000000  0  9G01G04G07G08G09G11G16G27G30          0.000390793
  21735140.289 5 114218936.102 5  89001799.19048  21735151.55148
  24200800.633 1 127176057.521 1                
  21862792.844 6 114889749.214 6  89524502.90349  21862800.60549
  21140734.023 6 111095303.455 6  86567796.26749  21140744.20349
  23827243.852 4 125213006.760 4  97568621.30747  23827255.58647
  20385379.391 6 107125893.340 6  83474741.17748  20385386.72348
  23485929.172 5 123419389.129 5  96170979.02546  23485937.16846
  22958819.602 5 120649405.801 5  94012567.73848  22958829.36348
  24372827.266 3 128080072.217 3  99802701.27647  24372837.49647
 20  5 16  3 37 17.0000000  0  9G01G04G07G08G09G11G16G27G30          0.000390963
  21734617.203 5 114216183.652 5  88999654.42548  21734627.96548
  24201349.203 1 127178939.849 1                
  21862382.617 6 114887592.529 6  89522822.37149  21862390.14849
  21141082.711 6 111097138.933 6  86569226.50849  21141093.23449
  23827659.953 4 125215189.569 4  97570322.19847  23827670.77747
  20385295.516 6 107125451.385 6  83474396.79648  20385302.62948
  23486294.773 5 123421310.226 5  96172475.98746  23486303.02346
  22959392.422 6 120652413.585 6  94014911.46048  22959401.94548
  24372239.703 2 128076985.648 2  99800296.15847  24372250.93447
 20  5 16  3 37 18.0000000  0  9G01G04G07G08G09G11G16G27G30          0.000391134
  21734093.383 5 114213431.917 5  88997510.21148  21734104.05948
  24201898.180 1 127181822.435 1                
  21861972.391 6 114885436.592 6  89521142.42449  21861980.07849
  21141432.289 7 111098974.911 7  86570657.14549  21141442.62949
  23828075.766 4 125217372.930 4  97572023.52147  23828086.43847
  20385211.344 6 107125010.317 6  83474053.10748  20385218.73048
  23486660.180 5 123423231.751 5  96173973.27746  23486668.16446
  22959964.430 5 120655421.684 5  94017255.42448  22959974.21548
  24371652.461 3 128073899.519 3  99797891.38448  24371663.55548
 20  5 16  3 37 19.0000000  0  9G01G04G07G08G09G11G16G27G30          0.000391304
  21733569.633 5 114210680.727 5  88995366.43149  21733580.66049
  24202445.688 1 127184705.077 1                
  21861562.313 6 114883281.221 6  89519462.91349  21861570.15649
  21141781.672 7 111100811.253 7  86572088.06349  21141792.44149
  23828491.250 4 125219556.563 4  97573725.04248  23828501.89848
  20385127.539 6 107124569.964 6  83473709.97748  20385135.19948
  23487026.273 5 123425153.537 5  96175470.76546  23487034.20746
  22960536.969 6 120658429.972 6  94019599.53148  22960546.98048
  24371065.258 3 128070813.739 3  99795486.89148  24371076.14548
 20  5 16  3 37 20.0000000  0  9G01G04G07G08G09G11G16G27G30          0.000391476
  21733046.445 5 114207930.178 5  88993223.14849  21733057.35949
  24202994.758 1 127187587.875 1                
  21861152.320 6 114881126.550 6  89517783.95549  21861159.74649
  21142131.336 6 111102648.049 6  86573519.33249  21142141.93849
  23828906.523 4 125221740.654 4  97575426.94048  23828917.43848
  20385043.813 6 107124130.424 6  83473367.47348  20385051.48848
  23487392.109 5 123427075.707 5  96176968.56146  23487399.76646
  22961109.406 6 120661438.476 6  94021943.80848  22961119.10548
  24370478.375 2 128067728.382 2  99793082.72947  24370489.00047
 20  5 16  3 37 21.0000000  0  9G01G04G07G08G09G11G16G27G30          0.000391647
  21732523.109 5 114205180.270 5  88991080.36649  21732534.02349
  24203542.078 1 127190470.819 1                
  21860742.344 6 114878972.537 6  89516105.50049  21860750.03149
  21142481.141 7 111104485.301 7  86574950.95349  21142491.41449
  23829322.539 4 125223925.147 4  97577129.14348  23829333.02348
  20384960.539 6 107123691.658 6  83473025.58048  20384967.84848
  23487757.961 5 123428998.171 5  96178466.58046  23487766.39846
  22961681.758 6 120664447.217 6  94024288.28549  22961691.70749
  24369891.406 2 128064643.397 2  99790678.83947  24369901.93047
 20  5 16  3 37 22.0000000  0  9G01G04G07G08G09G11G16G27G30          0.000391819
  21731999.758 5 114202430.956 5  88988938.04648  21732010.83248
  24204091.891 1 127193353.907 1                
  21860332.297 6 114876819.124 6  89514427.51749  21860340.08249
  21142830.500 6 111106322.924 6  86576382.87049  21142840.66449
  23829737.938 4 125226110.035 4  97578831.65047  23829748.62547
  20384877.516 6 107123253.682 6  83472684.29848  20384884.54348
  23488123.633 5 123430920.934 5  96179964.84646  23488131.85246
  22962254.406 6 120667456.134 6  94026632.90949  22962264.37949
  24369303.828 2 128061558.774 2  99788275.24147  24369314.94547
 20  5 16  3 37 23.0000000  0  9G01G04G07G08G09G11G16G27G30          0.000391989
  21731477.328 5 114199682.200 5  88986796.16349  21731487.73049
  24204640.805 1 127196237.045 1                
  21859923.156 6 114874666.303 6  89512749.99149  21859930.30149
  21143180.492 6 111108160.929 6  86577815.07849  21143190.82849
  23830154.852 4 125228295.207 4  97580534.37947  23830164.89547
  20384793.969 6 107122816.406 6  83472343.56648  20384800.71148
  23488489.406 5 123432844.012 5  96181463.35446  23488497.87146
  22962827.250 6 120670465.255 6  94028977.68549  22962837.17649
  24368717.188 3 128058474.493 3  99785871.90148  24368727.70748
 20  5 16  3 37 24.0000000  0  9G01G04G07G08G09G11G16G27G30          0.000392160
  21730953.969 5 114196934.064 5  88984654.76549  21730964.90649
  24205189.883 1 127199120.327 1                
  21859513.516 6 114872514.140 6  89511072.98049  21859520.90649
  21143530.266 7 111109999.341 7  86579247.60749  21143540.43449
  23830570.125 4 125230480.818 4  97582237.45347  23830580.14147
  20384710.711 6 107122379.913 6  83472003.44748  20384717.86348
  23488855.195 5 123434767.401 5  96182962.10146  23488863.97746
  22963399.836 6 120673474.553 6  94031322.59248  22963409.52348
  24368129.883 3 128055390.496 3  99783468.77247  24368141.22347
 20  5 16  3 37 25.0000000  0  9G01G04G07G08G09G11G16G27G30          0.000392332
  21730430.961 5 114194186.600 5  88982513.87648  21730442.43848
  24205737.844 1 127202003.821 1                
  21859104.172 6 114870362.668 6  89509396.50849  21859111.60249
  21143880.414 7 111111838.254 7  86580680.52349  21143890.82849
  23830986.180 3 125232666.834 3  97583940.84047  23830996.44147
  20384628.016 6 107121944.262 6  83471663.98248  20384635.01248
  23489221.930 5 123436691.191 5  96184461.16346  23489230.08246
  22963972.609 6 120676484.180 6  94033667.75548  22963982.26248
  24367543.461 3 128052307.060 3  99781066.09647  24367554.10247
 20  5 16  3 37 26.0000000  0  9G01G04G07G08G09G11G16G27G30          0.000392504
  21729908.383 5 114191439.799 5  88980373.51648  21729919.38748
  24206285.555 1 127204887.448 1                
  21858694.633 6 114868211.898 6  89507720.58649  21858702.36349
  21144230.422 7 111113677.613 7  86582113.79749  21144240.58249
  23831401.531 2 125234853.354 2  97585644.62647  23831412.00447
  20384545.219 6 107121509.445 6  83471325.15248  20384552.11348
  23489588.211 4 123438615.336 4  96185960.47946  23489596.23446
  22964545.086 6 120679494.049 6  94036013.10248  22964555.29348
  24366956.641 3 128049223.975 3  99778663.69647  24366967.62147
 20  5 16  3 37 27.0000000  0  9G01G04G07G08G09G11G16G27G30          0.000392677
  21729386.148 5 114188693.548 5  88978233.58548  21729396.98848
  24206834.977 1 127207771.202 1                
  21858285.813 6 114866061.717 6  89506045.11849  21858293.30549
  21144580.258 7 111115517.354 7  86583547.35449  21144590.85549
  23831817.852 2 125237040.221 2  97587348.67046  23831828.39846
  20384462.883 6 107121075.358 6  83470986.89548  20384469.68448
  23489953.969 4 123440539.767 4  96187460.03046  23489961.93446
  22965118.133 6 120682504.086 6  94038358.58548  22965128.04348
  24366370.156 3 128046141.228 3  99776261.55148  24366380.96148
 20  5 16  3 37 28.0000000  0  9G01G04G07G08G09G11G16G27G30          0.000392849
  21728863.086 5 114185947.865 5  88976094.09248  21728875.18048
  24207385.336 1 127210654.994 1                
  21857876.508 6 114863912.106 6  89504370.09749  21857883.86349
  21144930.797 7 111117357.414 7  86584981.17149  21144940.87149
  23832233.453 1 125239227.378 1  97589052.96246  23832244.60546
  20384380.398 6 107120641.957 6  83470649.18148  20384387.12548
  23490320.586 4 123442464.429 4  96188959.77146  23490328.41046
  22965690.844 5 120685514.235 5  94040704.16548  22965700.41448
  24365783.688 4 128043058.766 4  99773859.61748  24365794.15248
 20  5 16  3 37 29.0000000  0  9G01G04G07G08G09G11G16G27G30          0.000393021
  21728340.492 5 114183202.737 5  88973955.03948  21728352.51248
  24207933.766 1 127213538.860 1                
  21857467.602 6 114861763.089 6  89502695.53449  21857475.02049
  21145280.906 7 111119197.824 7  86586415.25749  21145290.96949
  23832650.656 1 125241414.893 1  97590757.57946  23832660.71146
  20384298.063 6 107120209.271 6  83470312.02048  20384305.25048
  23490686.469 4 123444389.382 4  96190459.74746  23490694.98846
  22966263.617 6 120688524.593 6  94043049.90148  22966273.10248
  24365197.203 4 128039976.641 4  99771457.94648  24365207.89148
 20  5 16  3 37 30.0000000  0  9G01G04G07G08G09G11G16G27G30          0.000393192
  21727818.438 4 114180458.133 4  88971816.39248  21727830.39848
  24208483.664 2 127216422.800 2                
  21857058.836 6 114859614.618 6  89501021.40549  21857066.13349
  21145631.086 7 111121038.569 7  86587849.59649  21145641.44149
  23833066.930 1 125243602.693 1  97592462.40046  23833077.13346
  20384216.297 6 107119777.292 6  83469975.41648  20384222.57848
  23491053.430 5 123446314.539 5  96191959.86446  23491060.75046
  22966836.227 6 120691535.059 6  94045395.71648  22966846.12948
  24364610.695 4 128036894.776 4  99769056.48848  24364621.24248
 20  5 16  3 37 31.0000000  0  9G01G04G07G08G09G11G16G27G30          0.000393366
  21727296.039 5 114177714.143 5  88969678.22348  21727307.73848
  24209032.234 1 127219306.854 1                
  21856649.945 6 114857466.789 6  89499347.77749  21856657.57849
  21145981.133 7 111122879.739 7  86589284.27749  21145991.76649
  23833483.648 1 125245790.865 1  97594167.49846  23833493.66846
  20384134.031 6 107119346.089 6  83469639.41648  20384140.30148
  23491418.922 5 123448240.052 5  96193460.26946  23491427.38746
  22967409.984 6 120694545.736 6  94047741.69748  22967419.27048
  24364024.219 4 128033813.268 4  99766655.31548  24364035.06648
 20  5 16  3 37 32.0000000  0  9G01G04G07G08G09G11G16G27G30          0.000393538
  21726774.727 5 114174970.872 5  88967540.60848  21726786.03148
  24209580.711 1 127222191.082 1                
  21856241.398 6 114855319.729 6  89497674.74549  21856248.89149
  21146331.625 7 111124721.431 7  86590719.36149  21146342.22349
  23833899.063 1 125247979.566 1  97595872.99746  23833909.92646
  20384051.672 6 107118915.787 6  83469304.11748  20384058.78948
  23491785.688 4 123450165.999 4  96194961.00046  23491793.69946
  22967982.359 6 120697556.742 6  94050087.93448  22967992.35248
  24363437.719 4 128030732.276 4  99764254.54848  24363449.03948
 20  5 16  3 37 33.0000000  0  9G01G04G07G08G09G11G16G27G30          0.000393711
  21726252.977 6 114172228.232 6  88965403.48049  21726264.09449
  24210129.352 1 127225075.643 1                
  21855832.680 6 114853173.355 6  89496002.24449  21855840.24249
  21146682.664 7 111126563.592 7  86592154.81149  21146693.19149
  23834316.391 1 125250168.780 1  97597578.85146  23834326.42246
  20383969.820 6 107118486.230 6  83468969.40548  20383976.88348
  23492152.773 5 123452092.289 5  96196462.00446  23492160.66046
  22968555.422 6 120700568.014 6  94052434.35849  22968565.20349
  24362851.055 4 128027651.680 4  99761854.10148  24362862.34848
 20  5 16  3 37 34.0000000  0  9G01G04G07G08G09G11G16G27G30          0.000393883
  21725731.227 6 114169486.126 6  88963266.75049  21725741.86749
  24210677.773 4 127227960.104 4                
  21855424.609 6 114851027.509 6  89494330.17349  21855432.04349
  21147032.922 6 111128406.029 6  86593590.47049  21147043.54749
  23834733.602 4 125252358.157 4  97599284.80948  23834743.55148
  20383888.133 6 107118057.419 6  83468635.26948  20383895.34448
  23492519.164 5 123454018.839 5  96197963.23046  23492526.91846
  22969128.078 6 120703579.408 6  94054780.88349  22969138.51249
  24362265.930 3 128024571.320 3  99759453.81548  24362276.60948
 20  5 16  3 37 35.0000000  0  9G01G04G07G08G09G11G16G27G30          0.000394056
  21725209.258 6 114166744.562 6  88961130.44849  21725220.41849
  24211226.641 4 127230844.688 4                
  21855016.477 6 114848882.225 6  89492658.53749  21855023.73449
  21147383.523 6 111130248.832 6  86595026.41149  21147393.90649
  23835149.406 5 125254547.896 5  97600991.06148  23835160.47348
  20383807.367 6 107117629.263 6  83468301.63948  20383813.87948
  23492886.008 5 123455945.569 5  96199464.59346  23492893.63746
  22969701.789 5 120706590.904 5  94057127.49349  22969711.43049
  24361680.227 3 128021491.273 3  99757053.76647  24361690.65647
 20  5 16  3 37 36.0000000  0  9G01G04G07G08G09G11G16G27G30          0.000394230
  21724687.859 6 114164003.600 6  88958994.63149  21724698.62949
  24211775.266 4 127233729.223 4                
  21854608.414 6 114846737.539 6  89490987.35349  21854615.22349
  21147734.406 6 111132091.990 6  86596462.64249  21147745.14549
  23835566.477 4 125256737.978 4  97602697.60048  23835577.19148
  20383725.383 6 107117201.866 6  83467968.60448  20383732.35248
  23493253.055 5 123457872.642 5  96200966.20746  23493260.71546
  22970274.578 5 120709602.570 5  94059474.24849  22970284.73849
  24361093.547 3 128018411.539 3  99754653.96347  24361104.30147
 20  5 16  3 37 37.0000000  0  9G01G04G07G08G09G11G16G27G30          0.000394402
  21724165.680 6 114161263.286 6  88956859.32949  21724177.25449
  24212323.977 3 127236614.112 3                
  21854200.320 6 114844593.555 6  89489316.71349  21854207.85549
  21148085.336 6 111133935.597 6  86597899.21649  21148095.69549
  23835983.484 4 125258928.505 4  97604404.50748  23835994.17248
  20383644.234 6 107116775.290 6  83467636.21048  20383651.10248
  23493619.914 5 123459800.061 5  96202468.09046  23493627.17646
  22970847.461 5 120712614.549 5  94061821.24649  22970857.77749
  24360507.414 3 128015332.289 3  99752254.55047  24360518.50447
 20  5 16  3 37 38.0000000  0  9G01G04G07G08G09G11G16G27G30          0.000394575
  21723644.586 6 114158523.511 6  88954724.44449  21723655.78949
  24212873.703 4 127239498.931 4                
  21853792.656 6 114842450.109 6  89487646.49149  21853800.37149
  21148435.945 7 111135779.546 7  86599336.05949  21148446.40649
  23836400.453 4 125261119.317 4  97606111.63948  23836411.50848
  20383563.234 6 107116349.392 6  83467304.33848  20383570.36348
  23493985.945 5 123461727.711 5  96203970.14546  23493994.28146
  22971420.727 5 120715626.639 5  94064168.33149  22971430.53949
  24359921.258 3 128012253.296 3  99749855.33347  24359932.44947
 20  5 16  3 37 39.0000000  0  9G01G04G07G08G09G11G16G27G30          0.000394749
  21723123.539 6 114155784.308 6  88952590.00649  21723134.70349
  24213422.805 4 127242383.890 4  99149959.22956  24213433.35546
  21853384.508 6 114840307.288 6  89485976.75249  21853392.24249
  21148787.063 6 111137623.876 6  86600773.20749  21148797.39849
  23836817.086 4 125263310.501 4  97607819.07148  23836828.05548
  20383482.063 6 107115924.261 6  83466973.06948  20383489.30148
  23494352.758 5 123463655.688 5  96205472.46046  23494361.11346
  22971994.539 5 120718638.881 5  94066515.53649  22972004.12149
  24359335.484 3 128009174.665 3  99747456.40848  24359346.55148
 20  5 16  3 37 40.0000000  0  9G01G04G07G08G09G11G16G27G30          0.000394922
  21722602.266 6 114153045.716 6  88950456.03649  21722613.64849
  24213971.609 4 127245268.994 4  99152207.32446  24213982.14546
  21852976.648 6 114838165.122 6  89484307.52849  21852984.48849
  21149138.180 6 111139468.629 6  86602210.67549  21149148.33249
  23837233.453 4 125265502.103 4  97609526.82148  23837244.96948
  20383401.383 6 107115499.912 6  83466642.41248  20383408.55548
  23494719.875 5 123465583.968 5  96206975.01446  23494728.19146
  22972567.711 5 120721651.346 5  94068862.90949  22972577.14549
  24358750.719 2 128006096.396 2  99745057.76047  24358761.23047
 20  5 16  3 37 41.0000000  0  9G01G04G07G08G09G11G16G27G30          0.000395096
  21722081.141 6 114150307.693 6  88948322.51049  21722092.63749
  24214520.500 3 127248154.116 3  99154455.46446  24214531.52746
  21852569.500 6 114836023.517 6  89482638.74549  21852576.52749
  21149489.250 6 111141313.704 6  86603648.39049  21149499.96149
  23837650.859 4 125267694.005 4  97611234.79048  23837662.50048
  20383320.992 6 107115076.255 6  83466312.29048  20383327.89548
  23495086.781 5 123467512.504 5  96208477.77146  23495095.22346
  22973140.984 6 120724663.989 6  94071210.42549  22973150.94149
  24358164.578 3 128003018.455 3  99742659.35647  24358175.53547
 20  5 16  3 37 42.0000000  0  9G01G04G07G08G09G11G16G27G30          0.000395269
  21721560.133 6 114147570.169 6  88946189.37849  21721571.40649
  24215069.758 4 127251039.320 4  99156703.68446  24215080.30946
  21852162.125 6 114833882.481 6  89480970.40649  21852169.75049
  21149840.266 6 111143159.113 6  86605086.37249  21149850.95749
  23838068.305 4 125269886.255 4  97612943.02648  23838079.51248
  20383240.359 6 107114653.307 6  83465982.72148  20383247.52048
  23495453.570 5 123469441.271 5  96209980.70946  23495462.26246
  22973714.727 5 120727676.738 5  94073558.01749  22973723.96549
  24357578.172 2 127999940.771 2  99740261.14847  24357589.33647
 20  5 16  3 37 43.0000000  0  9G01G04G07G08G09G11G16G27G30          0.000395443
  21721039.414 6 114144833.319 6  88944056.77149  21721050.45349
  24215618.711 4 127253924.663 4  99158952.01846  24215629.11346
  21851754.672 6 114831742.100 6  89479302.57749  21851762.10549
  21150191.453 6 111145004.955 6  86606524.68949  21150201.84449
  23838485.266 4 125272078.857 4  97614651.53848  23838496.37148
  20383159.953 6 107114231.127 6  83465653.74748  20383167.23448
  23495821.055 5 123471370.422 5  96211483.94746  23495828.73846
  22974287.555 6 120730689.733 6  94075905.80549  22974297.19549
  24356993.008 3 127996863.474 3  99737863.24947  24357004.18447
 20  5 16  3 37 44.0000000  0  9G01G04G07G08G09G11G16G27G30          0.000395617
  21720518.852 6 114142097.210 6  88941924.73949  21720529.89549
  24216167.891 4 127256810.286 4  99161200.56146  24216178.33646
  21851347.602 6 114829602.512 6  89477635.36449  21851354.91449
  21150543.031 6 111146851.340 6  86607963.43249  21150553.18449
  23838902.102 4 125274272.020 4  97616360.49448  23838913.74648
  20383080.117 6 107113809.899 6  83465325.51848  20383086.90648
  23496188.141 5 123473299.998 5  96212987.50746  23496196.44546
  22974861.086 5 120733703.068 5  94078253.85549  22974870.84049
  24356407.914 3 127993786.686 3  99735465.75448  24356418.68848
 20  5 16  3 37 45.0000000  0  9G01G04G07G08G09G11G16G27G30          0.000395792
  21719998.328 6 114139361.680 6  88939793.15549  21720008.91849
  24216717.227 4 127259696.002 4  99163449.15846  24216727.43046
  21850940.664 6 114827463.527 6  89475968.62049  21850948.14149
  21150894.719 6 111148698.136 6  86609402.48749  21150904.61749
  23839319.844 4 125276465.536 4  97618069.72448  23839331.31648
  20383000.180 6 107113389.410 6  83464997.86348  20383006.99248
  23496555.156 5 123475229.902 5  96214491.32346  23496563.67646
  22975434.195 5 120736716.621 5  94080602.07949  22975443.85949
  24355821.938 3 127990710.290 3  99733068.57248  24355833.13348
 20  5 16  3 37 46.0000000  0  9G01G04G07G08G09G11G16G27G30          0.000395966
  21719477.813 6 114136626.841 6  88937662.11249  21719489.35949
  24217266.273 4 127262581.855 4  99165697.86546  24217277.25846
  21850533.680 6 114825325.221 6  89474302.40649  21850540.95749
  21151246.070 6 111150545.378 6  86610841.90049  21151256.50449
  23839737.813 4 125278659.425 4  97619779.24248  23839748.65248
  20382920.547 6 107112969.732 6  83464670.84248  20382927.14148
  23496923.352 5 123477160.122 5  96215995.39446  23496930.91046
  22976007.703 6 120739730.397 6  94082950.47449  22976017.78549
  24355236.672 3 127987634.332 3  99730671.73148  24355247.98448
 20  5 16  3 37 47.0000000  0  9G01G04G07G08G09G11G16G27G30          0.000396139
  21718957.555 6 114133892.586 6  88935531.52649  21718968.71149
  24217815.609 4 127265467.887 4  99167946.71646  24217826.47746
  21850126.656 6 114823187.554 6  89472636.69049  21850134.38749
  21151597.547 6 111152393.030 6  86612281.62649  21151608.04749
  23840155.086 4 125280853.786 4  97621489.12648  23840166.42648
  20382840.367 6 107112550.801 6  83464344.40148  20382847.29748
  23497289.539 5 123479090.686 5  96217499.72446  23497298.37546
  22976581.477 6 120742744.398 6  94085299.04949  22976591.03549
  24354651.523 2 127984558.683 2  99728275.13048  24354662.34048
 20  5 16  3 37 48.0000000  0  9G01G04G07G08G09G11G16G27G30          0.000396315
  21718437.258 6 114131158.832 6  88933401.32949  21718448.74649
  24218364.414 4 127268353.939 4  99170195.58046  24218375.57446
  21849720.102 6 114821050.427 6  89470971.40149  21849727.36749
  21151949.258 6 111154241.018 6  86613721.62049  21151959.01649
  23840572.977 4 125283048.420 4  97623199.23448  23840584.16048
  20382761.039 6 107112132.583 6  83464018.51948  20382767.76648
  23497657.320 5 123481021.476 5  96219004.24446  23497665.66846
  22977155.273 5 120745758.530 5  94087647.71849  22977164.63749
  24354065.641 3 127981483.350 3  99725878.77548  24354077.38348
 20  5 16  3 37 49.0000000  0  9G01G04G07G08G09G11G16G27G30          0.000396488
  21717917.398 6 114128425.730 6  88931271.64349  21717928.19549
  24218914.016 4 127271240.135 4  99172444.55046  24218925.07046
  21849313.555 6 114818913.997 6  89469306.65449  21849320.98049
  21152300.672 6 111156089.415 6  86615161.92749  21152311.07049
  23840990.883 4 125285243.440 4  97624909.63348  23841001.60948
  20382681.641 6 107111715.134 6  83463693.23348  20382688.68448
  23498025.289 5 123482952.639 5  96220509.04446  23498033.05546
  22977728.641 5 120748772.856 5  94089996.54649  22977737.98049
  24353481.242 2 127978408.319 2  99723482.66048  24353492.29348
 20  5 16  3 37 50.0000000  0  9G01G04G07G08G09G11G16G27G30          0.000396664
  21717397.125 6 114125693.212 6  88929142.40749  21717408.71549
  24219462.805 4 127274126.388 4  99174693.57046  24219474.46946
  21848907.219 6 114816778.136 6  89467642.34849  21848914.68049
  21152652.727 6 111157938.192 6  86616602.53249  21152662.74249
  23841408.148 4 125287438.838 4  97626620.32548  23841419.59848
  20382602.297 6 107111298.438 6  83463368.54448  20382609.12148
  23498392.828 5 123484884.051 5  96222014.03746  23498400.80946
  22978302.414 5 120751787.379 5  94092345.52349  22978312.04349
  24352895.758 2 127975333.729 2  99721086.87548  24352907.55948
 20  5 16  3 37 51.0000000  0  9G01G04G07G08G09G11G16G27G30          0.000396837
  21716877.367 6 114122961.303 6  88927013.65249  21716888.29349
  24220012.008 4 127277012.790 4  99176942.71347  24220023.56347
  21848501.266 6 114814642.930 6  89465978.55049  21848508.42249
  21153004.828 6 111159787.372 6  86618043.45049  21153014.80949
  23841825.914 4 125289634.555 4  97628331.27648  23841836.76648
  20382522.711 6 107110882.508 6  83463044.44248  20382530.12948
  23498759.953 4 123486815.807 4  96223519.30046  23498768.29746
  22978875.813 5 120754802.131 5  94094694.67849  22978885.53949
  24352310.258 3 127972259.473 3  99718691.34548  24352322.52748
 20  5 16  3 37 52.0000000  0  9G01G04G07G08G09G11G16G27G30          0.000397013
  21716357.578 6 114120230.075 6  88924885.42349  21716369.00449
  24220562.148 4 127279899.369 4  99179191.99746  24220573.00846
  21848095.125 6 114812508.410 6  89464315.28549  21848102.01249
  21153356.305 6 111161637.013 6  86619484.73249  21153367.06649
  23842243.906 4 125291830.824 4  97630042.65648  23842254.78948
  20382444.086 6 107110467.390 6  83462720.97548  20382450.94548
  23499127.828 4 123488747.900 4  96225024.82646  23499135.97746
  22979449.805 5 120757817.108 5  94097044.00649  22979459.31349
  24351725.672 3 127969185.635 3  99716296.14348  24351737.14148
 20  5 16  3 37 53.0000000  0  9G01G04G07G08G09G11G16G27G30          0.000397188
  21715838.086 6 114117499.379 6  88922757.60749  21715849.06649
  24221111.281 4 127282786.045 4  99181441.35946  24221122.36346
  21847688.484 6 114810374.499 6  89462652.49349  21847695.80149
  21153708.680 6 111163487.034 6  86620926.30749  21153718.82049
  23842662.477 5 125294027.324 5  97631754.21448  23842673.40248
  20382365.055 6 107110053.018 6  83462398.08148  20382371.98448
  23499495.336 4 123490680.322 4  96226530.60546  23499504.14546
  22980023.484 5 120760832.257 5  94099393.47549  22980032.66449
  24351140.492 3 127966112.148 3  99713901.21948  24351152.27348
 20  5 16  3 37 54.0000000  0  9G01G04G07G08G09G11G16G27G30          0.000397364
  21715318.234 6 114114769.268 6  88920630.24849  21715329.66849
  24221660.297 4 127285672.769 4  99183690.75146  24221671.38746
  21847282.539 6 114808241.153 6  89460990.14449  21847289.82449
  21154060.664 6 111165337.339 6  86622368.10349  21154071.14149
  23843080.656 5 125296224.171 5  97633466.03948  23843090.53548
  20382286.375 6 107109639.345 6  83462075.73748  20382293.71148
  23499862.844 5 123492612.964 5  96228036.55346  23499870.88346
  22980596.992 5 120763847.576 5  94101743.07049  22980606.72749
  24350556.078 3 127963038.933 3  99711506.51748  24350567.43448
 20  5 16  3 37 55.0000000  0  9G01G04G07G08G09G11G16G27G30          0.000397539
  21714798.570 6 114112039.929 6  88918503.49149  21714810.12949
  24222210.109 4 127288559.776 4  99185940.36946  24222220.60246
  21846876.648 6 114806108.637 6  89459328.44349  21846884.11749
  21154413.258 6 111167188.262 6  86623810.37749  21154423.19149
  23843498.531 4 125298421.599 4  97635178.31848  23843508.85248
  20382207.703 6 107109226.642 6  83461754.15548  20382215.27048
  23500230.969 4 123494546.112 4  96229542.90246  23500239.37946
  22981171.094 5 120766863.246 5  94104092.94549  22981180.45349
  24349971.703 3 127959966.240 3  99709112.21248  24349983.14848
 20  5 16  3 37 56.0000000  0  9G01G04G07G08G09G11G16G27G30          0.000397715
  21714279.961 6 114109311.208 6  88916377.21849  21714291.39549
  24222758.992 3 127291446.902 3  99188190.09446  24222770.14146
  21846471.266 6 114803976.730 6  89457667.22249  21846478.49649
  21154765.250 6 111169039.572 6  86625252.95749  21154775.58249
  23843916.484 4 125300619.421 4  97636890.90748  23843927.07448
  20382129.531 6 107108814.676 6  83461433.14648  20382136.53148
  23500599.203 5 123496479.607 5  96231049.52146  23500607.54746
  22981744.977 5 120769879.154 5  94106443.01049  22981754.67649
  24349386.789 2 127956893.960 2  99706718.24347  24349398.48447
 20  5 16  3 37 57.0000000  0  9G01G04G07G08G09G11G16G27G30          0.000397890
  21713760.625 6 114106583.033 6  88914251.37149  21713771.95349
  24223308.328 4 127294334.086 4  99190439.85546  24223319.65646
  21846065.719 6 114801845.414 6  89456006.45549  21846072.95349
  21155117.695 7 111170891.226 7  86626695.80549  21155127.50449
  23844334.898 4 125302817.535 4  97638603.73148  23844345.59048
  20382051.125 6 107108403.432 6  83461112.69548  20382057.80948
  23500967.492 5 123498413.285 5  96232556.28746  23500975.76246
  22982318.813 5 120772895.190 5  94108793.16649  22982328.12149
  24348802.773 3 127953821.937 3  99704324.46147  24348813.40647
 20  5 16  3 37 58.0000000  0  9G01G04G07G08G09G11G16G27G30          0.000398066
  21713241.461 6 114103855.314 6  88912125.88249  21713253.14149
  24223857.961 4 127297221.298 4  99192689.61846  24223869.30946
  21845660.180 6 114799714.611 6  89454346.09149  21845667.50849
  21155470.039 6 111172743.147 6  86628138.86149  21155480.12949
  23844752.750 4 125305015.919 4  97640316.76348  23844763.61748
  20381972.703 6 107107992.822 6  83460792.73648  20381980.19548
  23501334.594 5 123500347.230 5  96234063.25546  23501343.18846
  22982892.898 5 120775911.313 5  94111143.39449  22982902.36349
  24348217.922 3 127950750.226 3  99701930.91447  24348229.08647
 20  5 16  3 37 59.0000000  0  9G01G04G07G08G09G11G16G27G30          0.000398241
  21712722.219 6 114101128.410 6  88910001.01649  21712734.01649
  24224407.641 4 127300108.762 4  99194939.58146  24224418.52046
  21845254.758 6 114797584.612 6  89452686.35149  21845261.82849
  21155822.547 6 111174595.672 6  86629582.38749  21155832.96149
  23845171.898 4 125307214.858 4  97642030.22048  23845182.56648
  20381894.898 6 107107583.151 6  83460473.51648  20381901.89848
  23501703.078 5 123502281.607 5  96235570.56546  23501711.32846
  22983467.391 5 120778927.802 5  94113493.90449  22983476.25849
  24347633.227 3 127947679.025 3  99699537.77748  24347644.66848
 20  5 16  3 38  0.0000000  0  9G01G04G07G08G09G11G16G27G30          0.000398417
  21712203.773 6 114098402.008 6  88907876.54749  21712215.38349
  24224957.070 4 127302996.291 4  99197189.59446  24224968.07446
  21844849.625 6 114795455.159 6  89451027.03649  21844856.66049
  21156175.508 6 111176448.502 6  86631026.15049  21156185.50049
  23845589.992 4 125309414.057 4  97643743.87848  23845600.75048
  20381817.078 6 107107174.188 6  83460154.84648  20381824.04748
  23502070.867 5 123504216.258 5  96237078.08546  23502079.79346
  22984041.117 5 120781944.409 5  94115844.51249  22984050.32049
  24347049.219 3 127944608.075 3  99697144.83048  24347059.71548
 20  5 16  3 38  1.0000000  0  9G01G04G07G08G09G11G16G27G30          0.000398594
  21711684.375 6 114095676.240 6  88905752.57149  21711696.64549
  24225506.383 4 127305883.903 4  99199439.67246  24225517.88746
  21844444.055 6 114793326.351 6  89449368.22049  21844451.64549
  21156527.320 6 111178301.749 6  86632470.23549  21156538.07849
  23846008.070 4 125311613.678 4  97645457.85948  23846018.87948
  20381739.156 6 107106765.970 6  83459836.75048  20381746.64848
  23502439.359 5 123506151.194 5  96238585.82846  23502447.60246
  22984615.047 5 120784961.238 5  94118195.28549  22984624.91449
  24346464.367 3 127941537.546 3  99694752.19948  24346475.77048
 20  5 16  3 38  2.0000000  0  9G01G04G07G08G09G11G16G27G30          0.000398769
  21711166.328 6 114092951.035 6  88903629.03949  21711177.97749
  24226055.727 4 127308771.609 4  99201689.84846  24226067.15646
  21844039.570 6 114791198.157 6  89447709.88349  21844047.10949
  21156880.203 6 111180155.377 6  86633914.62449  21156890.39549
  23846427.133 4 125313813.650 4  97647172.12248  23846438.23048
  20381662.141 6 107106358.512 6  83459519.25048  20381668.83648
  23502807.438 5 123508086.410 5  96240093.78346  23502816.01646
  22985189.086 6 120787978.233 6  94120546.18849  22985198.81349
  24345880.305 3 127938467.331 3  99692359.82448  24345891.34448
 20  5 16  3 38  3.0000000  0  9G01G04G07G08G09G11G16G27G30          0.000398947
  21710647.563 6 114090226.476 6  88901506.00949  21710659.33249
  24226605.492 4 127311659.513 4  99203940.17846  24226616.90646
  21843634.742 6 114789070.638 6  89446052.07849  21843642.24649
  21157232.648 6 111182009.438 6  86635359.34349  21157243.52749
  23846845.828 4 125316014.006 4  97648886.68548  23846856.59848
  20381584.813 6 107105951.857 6  83459202.37648  20381591.30948
  23503176.242 5 123510022.010 5  96241602.04846  23503184.56346
  22985763.195 6 120790995.487 6  94122897.29649  22985772.83649
  24345296.148 3 127935397.514 3  99689967.75448  24345307.39548
 20  5 16  3 38  4.0000000  0  9G01G04G07G08G09G11G16G27G30          0.000399122
  21710129.250 6 114087502.606 6  88899383.51549  21710140.89549
  24227154.414 3 127314547.593 3  99206190.63246  24227166.51246
  21843230.063 6 114786943.770 6  89444394.77649  21843237.39849
  21157586.352 6 111183863.951 6  86636804.41849  21157596.42249
  23847264.922 4 125318214.830 4  97650601.60848  23847275.97348
  20381507.367 6 107105546.001 6  83458886.12848  20381514.55948
  23503544.234 5 123511957.960 5  96243110.57246  23503552.81346
  22986337.336 5 120794012.959 5  94125248.57449  22986347.21149
  24344711.875 3 127932328.063 3  99687575.97848  24344723.25848
 20  5 16  3 38  5.0000000  0  9G01G04G07G08G09G11G16G27G30          0.000399300
  21709611.297 6 114084779.304 6  88897261.46049  21709622.59049
  24227704.047 2 127317435.727 2  99208441.11346  24227715.81646
  21842825.469 6 114784817.547 6  89442737.98649  21842832.96149
  21157939.148 6 111185718.846 6  86638249.79249  21157949.25449
  23847683.703 4 125320415.986 4  97652316.79848  23847694.13348
  20381430.039 6 107105140.904 6  83458570.46848  20381437.37148
  23503912.945 5 123513894.207 5  96244619.33246  23503921.17246
  22986912.000 6 120797030.636 6  94127600.01049  22986921.16849
  24344128.148 3 127929259.023 3  99685184.52148  24344139.02348
 20  5 16  3 38  6.0000000  0  9G01G04G07G08G09G11G16G27G30          0.000399475
  21709092.734 6 114082056.545 6  88895139.82249  21709104.92649
  24228253.570 2 127320323.969 2  99210691.66946  24228265.52346
  21842420.664 6 114782691.909 6  89441081.64649  21842428.26649
  21158292.336 6 111187574.097 6  86639695.44049  21158302.51649
  23848102.984 4 125322617.482 4  97654032.24448  23848113.46548
  20381353.008 6 107104736.522 6  83458255.36748  20381360.43448
  23504281.750 5 123515830.705 5  96246128.29746  23504289.60246
  22987486.133 6 120800048.469 6  94129951.56149  22987495.69549
  24343544.688 3 127926190.261 3  99682793.27347  24343555.28547
 20  5 16  3 38  7.0000000  0  9G01G04G07G08G09G11G16G27G30          0.000399652
  21708575.016 6 114079334.360 6  88893018.64049  21708586.62949
  24228803.336 3 127323212.256 3  99212942.25446  24228815.16446
  21842016.883 6 114780566.855 6  89439425.76549  21842023.87549
  21158645.242 7 111189429.677 7  86641141.35149  21158655.19949
  23848522.430 4 125324819.283 4  97655747.92548  23848532.64548
  20381276.156 6 107104332.849 6  83457940.81048  20381283.69548
  23504649.914 4 123517767.438 4  96247637.43346  23504658.10246
  22988060.180 5 120803066.424 5  94132303.21349  22988070.16049
  24342961.234 3 127923121.828 3  99680402.29048  24342971.41848
 20  5 16  3 38  8.0000000  0  9G01G04G07G08G09G11G16G27G30          0.000399830
  21708057.039 6 114076612.725 6  88890897.88849  21708068.89849
  24229352.539 3 127326100.578 3  99215192.89946  24229364.83646
  21841612.414 6 114778442.379 6  89437770.33249  21841619.17649
  21158998.305 7 111191285.606 7  86642587.52849  21159008.67249
  23848941.281 4 125327021.438 4  97657463.88948  23848951.33248
  20381199.609 6 107103929.884 6  83457626.81248  20381206.89848
  23505018.664 4 123519704.455 4  96249146.79846  23505026.85546
  22988634.945 5 120806084.563 5  94134655.01449  22988644.52749
  24342376.492 3 127920053.660 3  99678011.52348  24342387.87148
 20  5 16  3 38  9.0000000  0  9G01G04G07G08G09G11G16G27G30          0.000400007
  21707539.297 6 114073891.746 6  88888777.64249  21707551.41849
  24229902.305 2 127328989.075 2  99217443.67746  24229914.42246
  21841208.109 6 114776318.603 6  89436115.43849  21841215.52349
  21159351.500 7 111193142.013 7  86644034.07949  21159361.92649
  23849360.094 4 125329223.981 4  97659180.14448  23849370.30148
  20381123.195 6 107103527.768 6  83457313.47048  20381130.44948
  23505387.164 4 123521641.885 4  96250656.48346  23505395.58246
  22989209.680 5 120809102.904 5  94137006.95749  22989219.09849
  24341792.914 3 127916986.013 3  99675621.15048  24341803.78948
 20  5 16  3 38 10.0000000  0  9G01G04G07G08G09G11G16G27G30          0.000400183
  21707021.758 6 114071171.389 6  88886657.89649  21707033.23449
  24230452.422 3 127331877.679 3  99219694.54446  24230464.23446
  21840804.172 6 114774195.442 6  89434461.02349  21840811.53549
  21159705.102 7 111194998.800 7  86645480.92149  21159714.75449
  23849779.172 5 125331426.930 5  97660896.72648  23849789.84848
  20381047.008 6 107103126.382 6  83457000.70148  20381053.87948
  23505756.055 4 123523579.570 4  96252166.37646  23505764.01246
  22989784.344 5 120812121.530 5  94139359.13749  22989792.85949
  24341208.844 3 127913918.674 3  99673231.02148  24341219.66848
 20  5 16  3 38 11.0000000  0  9G01G04G07G08G09G11G16G27G30          0.000400360
  21706504.070 6 114068451.587 6  88884538.57649  21706516.07849
  24231001.586 2 127334766.477 2  99221945.57246  24231013.83246
  21840399.992 6 114772072.907 6  89432807.09449  21840407.19949
  21160058.766 7 111196855.951 7  86646928.05249  21160068.96949
  23850198.508 5 125333630.220 5  97662613.57248  23850208.90648
  20380970.547 6 107102725.740 6  83456688.52148  20380977.69148
  23506124.344 4 123525517.547 4  96253676.48846  23506132.98046
  22990358.445 5 120815140.290 5  94141711.41949  22990367.09449
  24340625.125 3 127910851.700 3  99670841.17648  24340636.26648
 20  5 16  3 38 12.0000000  0  9G01G04G07G08G09G11G16G27G30          0.000400537
  21705986.891 6 114065732.417 6  88882419.73949  21705998.22749
  24231550.992 2 127337655.252 2  99224196.55146  24231563.30946
  21839996.438 6 114769950.981 6  89431153.64549  21840003.49249
  21160411.922 6 111198713.505 6  86648375.49749  21160422.04349
  23850617.758 5 125335833.865 5  97664330.69548  23850628.52748
  20380894.461 6 107102325.890 6  83456376.94448  20380901.91048
  23506493.086 4 123527455.858 4  96255186.85046  23506502.00446
  22990932.828 5 120818159.223 5  94144063.83449  22990942.23849
  24340041.820 3 127907785.047 3  99668451.57448  24340052.63348
 20  5 16  3 38 13.0000000  0  9G01G04G07G08G09G11G16G27G30          0.000400715
  21705469.328 6 114063013.751 6  88880301.29949  21705481.26249
  24232101.406 2 127340544.123 2  99226447.64346  24232112.85946
  21839592.797 6 114767829.624 6  89429500.64049  21839600.34049
  21160765.414 6 111200571.417 6  86649823.22549  21160775.52349
  23851037.016 5 125338037.854 5  97666048.09448  23851047.79748
  20380818.789 6 107101926.701 6  83456065.88948  20380825.78948
  23506861.906 5 123529394.386 5  96256697.39146  23506870.61346
  22991506.719 6 120821178.326 6  94146416.38349  22991516.73049
  24339458.688 3 127904718.733 3  99666062.23648  24339469.06648
 20  5 16  3 38 14.0000000  0  9G01G04G07G08G09G11G16G27G30          0.000400892
  21704952.352 6 114060295.709 6  88878183.35049  21704963.74649
  24232651.203 2 127343433.019 2  99228698.71446  24232663.03546
  21839189.422 6 114765708.874 6  89427848.10749  21839196.44549
  21161119.422 7 111202429.649 7  86651271.19849  21161129.16049
  23851456.602 5 125340242.132 5  97667765.71948  23851467.22348
  20380742.852 6 107101528.257 6  83455755.42148  20380749.86348
  23507231.266 5 123531333.220 5  96258208.17046  23507239.67646
  22992081.547 5 120824197.566 5  94148769.03549  22992091.35249
  24338875.188 3 127901652.690 3  99663673.11348  24338885.64548
 20  5 16  3 38 15.0000000  0  9G01G04G07G08G09G11G16G27G30          0.000401072
  21704434.930 6 114057578.070 6  88876065.70749  21704446.97749
  24233201.109 2 127346322.028 2  99230949.87246  24233212.20346
  21838785.750 6 114763588.619 6  89426195.96549  21838793.02349
  21161472.844 7 111204288.172 7  86652719.40349  21161483.17249
  23851875.711 5 125342446.738 5  97669483.59448  23851886.89148
  20380667.625 6 107101130.426 6  83455445.42548  20380674.42648
  23507600.180 4 123533272.224 4  96259719.09146  23507608.38346
  22992656.148 5 120827216.880 5  94151121.74549  22992665.87549
  24338291.664 3 127898586.887 3  99661284.18047  24338302.29347
 20  5 16  3 38 16.0000000  0  9G01G04G07G08G09G11G16G27G30          0.000401249
  21703918.250 6 114054861.076 6  88873948.56849  21703929.65249
  24233750.844 2 127349211.016 2  99233201.01946  24233762.18446
  21838382.453 6 114761468.992 6  89424544.31249  21838389.23449
  21161826.438 6 111206147.089 6  86654167.90549  21161836.68449
  23852295.539 5 125344651.586 5  97671201.65148  23852306.82448
  20380591.820 6 107100733.360 6  83455136.02348  20380598.27048
  23507969.883 5 123535211.519 5  96261230.23746  23507977.68046
  22993230.648 5 120830236.362 5  94153474.58849  22993240.60249
  24337707.641 3 127895521.458 3  99658895.54047  24337718.78547
 20  5 16  3 38 17.0000000  0  9G01G04G07G08G09G11G16G27G30          0.000401426
  21703400.836 6 114052144.600 6  88871831.83349  21703412.68449
  24234300.977 3 127352100.072 3  99235452.22946  24234311.93046
  21837978.875 6 114759349.902 6  89422893.07349  21837986.27049
  21162180.320 6 111208006.305 6  86655616.64649  21162190.35549
  23852715.250 4 125346856.833 4  97672920.01148  23852726.34448
  20380515.852 6 107100336.959 6  83454827.12948  20380523.14848
  23508338.609 5 123537151.049 5  96262741.55046  23508346.45746
  22993805.313 5 120833255.990 5  94155827.54649  22993814.42649
  24337124.844 2 127892456.276 2  99656507.08847  24337135.67647
 20  5 16  3 38 18.0000000  0  9G01G04G07G08G09G11G16G27G30          0.000401604
  21702884.352 6 114049428.702 6  88869715.54449  21702895.73849
  24234850.484 4 127354989.229 4  99237703.50646  24234862.10946
  21837575.852 6 114757231.422 6  89421242.30549  21837583.36749
  21162534.219 6 111209865.915 6  86657065.69349  21162544.21949
  23853134.977 4 125349062.367 4  97674638.59748  23853146.00848
  20380440.570 6 107099941.287 6  83454518.81548  20380447.47748
  23508707.703 5 123539090.861 5  96264253.08546  23508715.77346
  22994380.297 5 120836275.831 5  94158180.67149  22994389.31349
  24336541.758 3 127889391.489 3  99654118.95247  24336552.43447
 20  5 16  3 38 19.0000000  0  9G01G04G07G08G09G11G16G27G30          0.000401783
  21702367.344 6 114046713.393 6  88867599.71649  21702379.04749
  24235400.219 4 127357878.479 4  99239954.88446  24235411.75446
  21837172.844 6 114755113.561 6  89419592.02649  21837179.91449
  21162887.945 7 111211725.891 7  86658515.02349  21162898.42649
  23853554.867 5 125351268.229 5  97676357.44548  23853565.49248
  20380365.531 6 107099546.361 6  83454211.08448  20380372.71148
  23509077.000 5 123541030.957 5  96265764.84046  23509084.70746
  22994955.445 5 120839295.787 5  94160533.88549  22994964.91449
  24335957.633 2 127886327.005 2  99651731.03847  24335969.30947
 20  5 16  3 38 20.0000000  0  9G01G04G07G08G09G11G16G27G30          0.000401960
  21701850.883 6 114043998.599 6  88865484.29249  21701862.23449
  24235950.570 4 127360767.719 4  99242206.22046  24235961.71146
  21836769.930 6 114752996.243 6  89417942.16749  21836777.03949
  21163242.039 7 111213586.180 7  86659964.60049  21163252.30149
  23853974.906 4 125353474.455 4  97678076.57448  23853985.35548
  20380290.461 6 107099152.127 6  83453903.88848  20380297.56348
  23509445.570 5 123542971.273 5  96267276.77346  23509453.85546
  22995529.703 5 120842315.848 5  94162887.18749  22995538.73449
  24335375.094 2 127883262.841 2  99649343.37447  24335386.30547
 20  5 16  3 38 21.0000000  0  9G01G04G07G08G09G11G16G27G30          0.000402138
  21701334.352 6 114041284.425 6  88863369.35449  21701346.06349
  24236499.594 4 127363657.124 4  99244457.69846  24236511.62546
  21836367.508 6 114750879.567 6  89416292.81449  21836374.52049
  21163596.414 6 111215446.847 6  86661414.47249  21163606.34449
  23854394.320 5 125355681.024 5  97679795.98048  23854405.36748
  20380215.750 6 107098758.660 6  83453597.29548  20380222.98048
  23509814.547 5 123544911.909 5  96268788.95746  23509823.43846
  22996104.484 5 120845336.149 5  94165240.66449  22996113.85549
  24334792.047 3 127880199.003 3  99646955.97647  24334803.51247
 20  5 16  3 38 22.0000000  0  9G01G04G07G08G09G11G16G27G30          0.000402317
  21700817.734 6 114038570.866 6  88861254.89249  21700829.86349
  24237050.070 4 127366546.635 4  99246709.26246  24237061.41846
  21835964.398 6 114748763.537 6  89414643.95349  21835971.59049
  21163950.648 6 111217307.926 6  86662864.66649  21163960.78149
  23854814.867 5 125357887.930 5  97681515.64448  23854825.50848
  20380140.961 6 107098365.962 6  83453291.29248  20380148.00848
  23510184.227 4 123546852.858 4  96270301.38646  23510192.49646
  22996678.859 5 120848356.631 5  94167594.28649  22996688.68849
  24334208.992 2 127877135.539 2  99644568.85747  24334220.45747
 20  5 16  3 38 23.0000000  0  9G01G04G07G08G09G11G16G27G30          0.000402494
  21700301.664 6 114035857.906 6  88859140.89849  21700313.80949
  24237600.063 4 127369436.215 4  99248960.87346  24237611.57046
  21835561.961 6 114746648.105 6  89412995.56749  21835569.19149
  21164304.563 7 111219169.398 7  86664315.16549  21164314.71149
  23855234.484 5 125360095.259 5  97683235.64348  23855245.55548
  20380066.805 6 107097974.000 6  83452985.86848  20380073.41048
  23510553.891 4 123548794.136 4  96271814.06846  23510562.35946
  22997253.922 5 120851377.317 5  94169948.07249  22997263.77049
  24333626.531 2 127874072.446 2  99642182.04047  24333637.82447
 20  5 16  3 38 24.0000000  0  9G01G04G07G08G09G11G16G27G30          0.000402674
  21699785.289 6 114033145.512 6  88857027.34549  21699797.13749
  24238149.461 4 127372325.938 4  99251212.60546  24238161.12546
  21835159.383 6 114744533.335 6  89411347.69649  21835166.71949
  21164658.891 6 111221031.252 6  86665765.95649  21164669.02749
  23855655.078 5 125362302.938 5  97684955.91748  23855665.64148
  20379992.078 6 107097582.800 6  83452681.03548  20379998.78948
  23510923.477 4 123550735.662 4  96273326.94146  23510931.56646
  22997828.383 5 120854398.164 5  94172301.98049  22997838.33249
  24333043.570 2 127871009.677 2  99639795.47047  24333055.05147
 20  5 16  3 38 25.0000000  0  9G01G04G07G08G09G11G16G27G30          0.000402853
  21699269.813 6 114030433.658 6  88854914.21549  21699281.31349
  24238699.578 4 127375215.688 4  99253464.36146  24238711.05946
  21834757.164 6 114742419.088 6  89409700.22949  21834764.25849
  21165013.391 6 111222893.396 6  86667216.97749  21165023.32449
  23856075.016 5 125364510.908 5  97686676.40348  23856085.83248
  20379917.617 6 107097192.269 6  83452376.72948  20379924.57048
  23511292.727 4 123552677.476 4  96274840.04546  23511301.42246
  22998403.883 5 120857419.161 5  94174656.00549  22998413.22749
  24332460.313 2 127867947.177 2  99637409.11747  24332471.98447
 20  5 16  3 38 26.0000000  0  9G01G04G07G08G09G11G16G27G30          0.000403030
  21698753.883 6 114027722.396 6  88852801.54649  21698765.28149
  24239249.484 4 127378105.515 4  99255716.16746  24239260.91046
  21834354.906 6 114740305.473 6  89408053.25349  21834362.14149
  21165367.633 6 111224755.927 6  86668668.29749  21165377.55149
  23856494.961 5 125366719.206 5  97688397.14648  23856505.88348
  20379843.164 6 107096802.498 6  83452073.01448  20379850.28948
  23511662.469 4 123554619.561 4  96276353.36046  23511670.68446
  22998978.820 5 120860440.340 5  94177010.16849  22998988.31349
  24331878.508 2 127864885.044 2  99635023.03347  24331889.41047
 20  5 16  3 38 27.0000000  0  9G01G04G07G08G09G11G16G27G30          0.000403210
  21698237.977 6 114025011.743 6  88850689.34949  21698249.54349
  24239799.992 4 127380995.425 4  99257968.03246  24239811.05146
  21833952.586 6 114738192.483 6  89406406.77549  21833960.20349
  21165721.914 6 111226618.859 6  86670119.93549  21165732.03149
  23856915.188 5 125368927.851 5  97690118.16748  23856926.21548
  20379769.211 6 107096413.480 6  83451769.87948  20379776.41848
  23512032.047 4 123556561.922 4  96277866.89246  23512040.40246
  22999553.711 5 120863461.667 5  94179364.44749  22999562.93849
  24331295.281 2 127861823.290 2  99632637.25247  24331307.16847
 20  5 16  3 38 28.0000000  0  9G01G04G07G08G09G11G16G27G30          0.000403389
  21697721.891 6 114022301.742 6  88848577.66549  21697733.71549
  24240349.789 4 127383885.547 4  99260220.07146  24240360.86346
  21833551.188 6 114736080.157 6  89404760.80549  21833557.85949
  21166076.727 6 111228482.262 6  86671571.93849  21166087.03949
  23857335.555 4 125371137.021 4  97691839.60248  23857346.95748
  20379695.492 6 107096025.281 6  83451467.39148  20379702.32848
  23512401.469 4 123558504.696 4  96279380.74146  23512409.80146
  23000128.477 5 120866483.290 5  94181718.96049  23000137.98449
  24330712.531 2 127858761.924 2  99630251.77047  24330724.25447
 20  5 16  3 38 29.0000000  0  9G01G04G07G08G09G11G16G27G30          0.000403568
  21697206.367 6 114019592.422 6  88846466.50349  21697218.68049
  24240900.031 4 127386775.797 4  99262472.20946  24240911.19946
  21833148.906 6 114733968.532 6  89403115.38349  21833156.38749
  21166431.492 6 111230346.066 6  86673024.24949  21166441.55949
  23857756.055 4 125373346.511 4  97693561.27648  23857767.18048
  20379621.563 6 107095637.880 6  83451165.51648  20379629.02348
  23512772.266 4 123560447.780 4  96280894.82846  23512779.93446
  23000703.523 5 120869505.157 5  94184073.65849  23000713.23849
  24330129.961 2 127855700.994 2  99627866.63047  24330141.53947
 20  5 16  3 38 30.0000000  0  9G01G04G07G08G09G11G16G27G30          0.000403748
  21696690.914 6 114016883.527 6  88844355.68249  21696702.43049
  24241449.242 4 127389665.999 4  99264724.32146  24241461.28146
  21832747.516 6 114731857.399 6  89401470.34649  21832754.44949
  21166785.977 6 111232210.155 6  86674476.79049  21166796.14849
  23858176.711 4 125375556.269 4  97695283.16448  23858187.88348
  20379548.031 6 107095251.127 6  83450864.14648  20379555.32448
  23513141.516 4 123562391.106 4  96282409.11246  23513149.41846
  23001278.836 5 120872527.056 5  94186428.38849  23001288.08649
  24329547.906 2 127852640.300 2  99625481.67447  24329559.29747
 20  5 16  3 38 31.0000000  0  9G01G04G07G08G09G11G16G27G30          0.000403927
  21696175.813 6 114014175.188 6  88842245.28149  21696187.25849
  24241999.195 4 127392556.290 4  99266976.50446  24242010.77046
  21832345.492 6 114729746.837 6  89399825.74449  21832352.77749
  21167140.867 6 111234074.563 6  86675929.57649  21167151.01649
  23858597.555 4 125377766.332 4  97697005.28548  23858608.56348
  20379474.836 6 107094865.021 6  83450563.29048  20379482.04748
  23513511.180 4 123564334.618 4  96283923.53846  23513519.14146
  23001853.633 6 120875549.076 6  94188783.20149  23001863.11349
  24328966.125 2 127849579.857 2  99623096.92547  24328976.65647
 20  5 16  3 38 32.0000000  0  9G01G04G07G08G09G11G16G27G30          0.000404106
  21695660.555 6 114011467.419 6  88840135.33349  21695672.36349
  24242549.531 4 127395446.623 4  99269228.69946  24242561.04746
  21831944.664 6 114727636.861 6  89398181.60849  21831951.62949
  21167495.984 6 111235939.337 6  86677382.64649  21167506.00449
  23859017.688 4 125379976.720 4  97698727.66448  23859028.92248
  20379401.648 6 107094479.677 6  83450263.01748  20379408.15248
  23513881.328 4 123566278.418 4  96285438.18846  23513889.10246
  23002428.867 5 120878571.280 5  94191138.16249  23002438.42649
  24328383.234 2 127846519.748 2  99620712.42047  24328394.27047
 20  5 16  3 38 33.0000000  0  9G01G04G07G08G09G11G16G27G30          0.000404285
  21695145.008 6 114008760.307 6  88838025.89249  21695156.77049
  24243098.844 4 127398337.124 4  99271481.02146  24243110.87946
  21831542.484 6 114725527.567 6  89396538.00649  21831550.31349
  21167850.461 6 111237804.528 6  86678836.03749  21167861.00049
  23859438.992 5 125382187.521 5  97700450.36348  23859449.40648
  20379327.930 6 107094095.144 6  83449963.38348  20379335.35548
  23514250.898 4 123568222.574 4  96286953.11346  23514259.08646
  23003003.414 5 120881593.708 5  94193493.30449  23003012.97349
  24327801.297 2 127843460.083 2  99618328.26747  24327812.31347
 20  5 16  3 38 34.0000000  0  9G01G04G07G08G09G11G16G27G30          0.000404465
  21694629.859 6 114006053.737 6  88835916.87649  21694641.70749
  24243649.078 4 127401227.625 4  99273733.35146  24243661.21146
  21831141.141 6 114723418.832 6  89394894.83649  21831148.86749
  21168206.273 6 111239670.040 6  86680289.68149  21168215.97749
  23859859.133 5 125384398.602 5  97702173.27548  23859870.48448
  20379255.359 6 107093711.273 6  83449664.26348  20379262.22348
  23514621.305 4 123570166.962 4  96288468.20646  23514629.49646
  23003578.438 5 120884616.291 5  94195848.56149  23003588.61349
  24327219.438 2 127840400.652 2  99615944.28647  24327229.94547
 20  5 16  3 38 35.0000000  0  9G01G04G07G08G09G11G16G27G30          0.000404644
  21694115.328 6 114003347.818 6  88833808.37449  21694127.21949
  24244199.266 3 127404118.382 3  99275985.88846  24244211.07446
  21830740.148 6 114721310.836 6  89393252.24049  21830747.55549
  21168560.844 6 111241536.028 6  86681743.69749  21168570.44549
  23860280.000 5 125386610.138 5  97703896.55248  23860291.31648
  20379182.352 6 107093328.246 6  83449365.80048  20379189.46148
  23514991.516 4 123572111.736 4  96289983.61246  23514999.09846
  23004154.195 5 120887639.108 5  94198204.00549  23004164.08249
  24326636.633 2 127837341.697 2  99613560.69347  24326647.87147
 20  5 16  3 38 36.0000000  0  9G01G04G07G08G09G11G16G27G30          0.000404825
  21693600.500 6 114000642.449 6  88831700.29649  21693612.16849
  24244749.297 3 127407009.142 3  99278238.43846  24244761.31346
  21830339.469 6 114719203.360 6  89391610.04849  21830347.18449
  21168915.695 6 111243402.292 6  86683197.93049  21168926.27049
  23860700.977 5 125388821.960 5  97705620.05648  23860712.50048
  20379109.430 6 107092945.903 6  83449067.87248  20379116.65248
  23515361.523 4 123574056.776 4  96291499.21946  23515369.28546
  23004729.195 5 120890662.058 5  94200559.55449  23004739.28549
  24326054.633 2 127834283.016 2  99611177.29647  24326065.61747
 20  5 16  3 38 37.0000000  0  9G01G04G07G08G09G11G16G27G30          0.000405005
  21693085.875 6 113997937.712 6  88829592.71749  21693097.62949
  24245299.453 3 127409900.006 3  99280491.04246  24245311.14146
  21829938.602 6 114717096.557 6  89389968.38449  21829945.70349
  21169271.289 6 111245269.002 6  86684652.51149  21169281.14849
  23861122.156 5 125391034.218 5  97707343.88848  23861132.92248
  20379036.828 6 107092564.329 6  83448770.54148  20379044.19548
  23515731.461 4 123576002.087 4  96293015.05746  23515739.26246
  23005304.500 5 120893685.259 5  94202915.29749  23005314.54749
  24325471.922 2 127831224.735 2  99608794.21547  24325483.67247
 20  5 16  3 38 38.0000000  0  9G01G04G07G08G09G11G16G27G30          0.000405184
  21692571.242 6 113995233.533 6  88827485.56249  21692583.03549
  24245849.430 4 127412790.941 4  99282743.70446  24245861.40646
  21829537.633 6 114714990.347 6  89388327.17549  21829545.07849
  21169626.672 6 111247136.049 6  86686107.34849  21169636.57449
  23861542.539 5 125393246.773 5  97709067.95448  23861553.94148
  20378964.672 6 107092183.513 6  83448473.79948  20378971.64148
  23516101.805 4 123577947.689 4  96294531.11846  23516109.86346
  23005880.344 6 120896708.593 6  94205271.14249  23005889.72749
  24324890.711 2 127828166.768 2  99606411.38247  24324901.94547
 20  5 16  3 38 39.0000000  0  9G01G04G07G08G09G11G16G27G30          0.000405365
  21692056.914 6 113992529.850 6  88825378.79749  21692068.55149
  24246399.914 4 127415681.940 4  99284996.42046  24246411.80946
  21829137.281 6 114712884.639 6  89386686.36749  21829144.25449
  21169981.406 6 111249003.400 6  86687562.42849  21169991.62149
  23861964.055 5 125395459.557 5  97710792.19948  23861975.08248
  20378892.297 6 107091803.302 6  83448177.53248  20378899.14548
  23516471.492 4 123579893.459 4  96296047.30346  23516480.00046
  23006455.617 5 120899731.991 5  94207627.03649  23006465.32449
  24324308.422 2 127825109.019 2  99604028.72247  24324319.54347
 20  5 16  3 38 40.0000000  0  9G01G04G07G08G09G11G16G27G30          0.000405544
  21691541.977 6 113989826.851 6  88823272.56749  21691553.78149
  24246950.289 4 127418573.078 4  99287249.24546  24246961.63346
  21828736.164 6 114710779.674 6  89385046.13549  21828744.04349
  21170337.492 6 111250871.221 6  86689017.86749  21170347.48849
  23862385.328 5 125397672.820 5  97712516.82448  23862396.22748
  20378820.008 6 107091423.962 6  83447881.93848  20378827.39548
  23516841.891 5 123581839.657 5  96297563.82246  23516850.09046
  23007030.617 5 120902755.671 5  94209983.14449  23007040.82049
  24323726.914 2 127822051.748 2  99601646.43847  24323738.03547
 20  5 16  3 38 41.0000000  0  9G01G04G07G08G09G11G16G27G30          0.000405725
  21691028.164 6 113987124.440 6  88821166.79249  21691039.75849
  24247500.094 4 127421464.280 4  99289502.11846  24247511.92246
  21828335.961 6 114708675.299 6  89383406.36349  21828343.16849
  21170692.828 6 111252739.414 6  86690473.60449  21170702.74249
  23862806.297 5 125399886.435 5  97714241.71448  23862817.44948
  20378747.789 6 107091045.367 6  83447586.93148  20378754.85548
  23517212.445 4 123583786.153 4  96299080.56546  23517220.36746
  23007606.430 5 120905779.544 5  94212339.40749  23007615.94149
  24323145.750 3 127818994.795 3  99599264.40347  24323156.48847
 20  5 16  3 38 42.0000000  0  9G01G04G07G08G09G11G16G27G30          0.000405905
  21690513.797 6 113984422.541 6  88819061.41849  21690525.67649
  24248050.672 4 127424355.491 4  99291755.00846  24248062.18446
  21827935.680 6 114706571.458 6  89381767.00849  21827942.73449
  21171048.352 6 111254607.921 6  86691929.58149  21171058.82049
  23863227.688 5 125402100.302 5  97715966.80648  23863238.91448
  20378676.219 6 107090667.397 6  83447292.40848  20378683.39148
  23517582.805 4 123585732.816 4  96300597.44246  23517590.68446
  23008181.602 5 120908803.460 5  94214695.70749  23008191.27749
  24322564.031 2 127815938.163 2  99596882.61547  24322574.28547
 20  5 16  3 38 43.0000000  0  9G01G04G07G08G09G11G16G27G30          0.000406086
  21689999.719 6 113981721.101 6  88816956.39649  21690011.57049
  24248600.172 4 127427246.704 4  99294007.89046  24248612.78946
  21827535.141 6 114704468.136 6  89380128.05749  21827542.60949
  21171404.078 6 111256476.651 6  86693385.73649  21171413.98049
  23863649.281 5 125404314.438 5  97717692.10448  23863660.41448
  20378604.281 6 107090290.114 6  83446998.42348  20378611.41848
  23517953.789 5 123587679.707 5  96302114.49446  23517961.62946
  23008756.820 5 120911827.505 5  94217052.10549  23008767.01649
  24321981.391 2 127812881.696 2  99594500.95247  24321992.96547
 20  5 16  3 38 44.0000000  0  9G01G04G07G08G09G11G16G27G30          0.000406267
  21689485.461 6 113979020.357 6  88814851.92549  21689497.79349
  24249149.711 4 127430138.065 4  99296260.90046  24249162.51646
  21827134.883 6 114702365.465 6  89378489.61149  21827142.12549
  21171759.914 6 111258345.828 6  86694842.23949  21171769.94949
  23864070.672 5 125406528.952 5  97719417.69448  23864081.75048
  20378532.875 6 107089913.591 6  83446705.03348  20378539.34048
  23518323.844 4 123589626.927 4  96303631.79746  23518331.75846
  23009331.797 5 120914851.738 5  94219408.65849  23009342.25449
  24321400.883 3 127809825.670 3  99592119.63647  24321411.32447
 20  5 16  3 38 45.0000000  0  9G01G04G07G08G09G11G16G27G30          0.000406448
  21688972.219 6 113976320.106 6  88812747.83849  21688983.85949
  24249700.445 4 127433029.461 4  99298513.93446  24249712.90246
  21826735.445 6 114700263.351 6  89376851.60249  21826742.47349
  21172115.500 6 111260215.318 6  86696298.98349  21172125.61349
  23864491.938 5 125408743.773 5  97721143.52348  23864503.24648
  20378461.656 6 107089537.774 6  83446412.18748  20378468.07048
  23518694.797 5 123591574.369 5  96305149.28146  23518702.81346
  23009908.281 5 120917876.153 5  94221765.35049  23009918.02749
  24320819.625 3 127806769.951 3  99589738.55347  24320829.80947
 20  5 16  3 38 46.0000000  0  9G01G04G07G08G09G11G16G27G30          0.000406628
  21688458.484 6 113973620.459 6  88810644.21749  21688470.33249
  24250251.383 4 127435920.938 4  99300767.02646  24250262.89146
  21826335.172 6 114698161.889 6  89375214.09749  21826342.66849
  21172471.258 6 111262085.172 6  86697756.01649  21172481.53949
  23864912.984 4 125410958.985 4  97722869.66148  23864924.48448
  20378389.805 6 107089162.689 6  83446119.90748  20378396.94548
  23519065.547 5 123593522.132 5  96306667.01546  23519073.43046
  23010483.594 5 120920900.712 5  94224122.14649  23010493.56649
  24320238.125 3 127803714.556 3  99587357.72648  24320248.72748
 20  5 16  3 38 47.0000000  0  9G01G04G07G08G09G11G16G27G30          0.000406809
  21687944.883 6 113970921.351 6  88808541.01349  21687956.48849
  24250801.289 4 127438812.454 4  99303020.14746  24250813.30146
  21825935.578 6 114696060.964 6  89373577.01649  21825942.85549
  21172827.344 6 111263955.355 6  86699213.29749  21172837.26249
  23865335.031 5 125413174.439 5  97724595.98148  23865346.13348
  20378318.891 6 107088788.297 6  83445828.17148  20378325.73848
  23519436.375 5 123595470.113 5  96308184.92446  23519444.19546
  23011059.305 5 120923925.367 5  94226479.01849  23011068.91849
  24319656.898 2 127800659.465 2  99584977.14747  24319667.00047
 20  5 16  3 38 48.0000000  0  9G01G04G07G08G09G11G16G27G30          0.000406990
  21687431.180 6 113968222.819 6  88806438.25449  21687442.83649
  24251350.367 4 127441703.989 4  99305273.29146  24251363.28546
  21825535.539 6 114693960.624 6  89371940.37949  21825542.85549
  21173183.023 6 111265825.910 6  86700670.87349  21173193.27349
  23865756.641 5 125415390.203 5  97726322.55148  23865767.68448
  20378247.000 6 107088414.597 6  83445536.97948  20378254.10948
  23519807.109 5 123597418.365 5  96309703.03446  23519814.54746
  23011634.297 5 120926950.197 5  94228836.02249  23011644.29749
  24319075.102 2 127797604.665 2  99582596.78947  24319086.28947
 20  5 16  3 38 49.0000000  0  9G01G04G07G08G09G11G16G27G30          0.000407171
  21686918.039 6 113965524.855 6  88804335.94349  21686929.55949
  24251901.469 4 127444595.681 4  99307526.55746  24251913.69946
  21825136.391 6 114691860.904 6  89370304.23449  21825143.87549
  21173539.125 6 111267696.839 6  86702128.74149  21173549.17249
  23866178.008 5 125417606.388 5  97728049.44148  23866189.48448
  20378176.500 6 107088041.672 6  83445246.38448  20378183.18848
  23520178.313 5 123599366.896 5  96311221.38046  23520185.74246
  23012210.555 5 120929975.212 5  94231193.17149  23012220.30149
  24318493.844 3 127794550.247 3  99580216.73147  24318504.80147
 20  5 16  3 38 50.0000000  0  9G01G04G07G08G09G11G16G27G30          0.000407352
  21686405.023 6 113962827.457 6  88802234.07849  21686416.05149
  24252451.836 4 127447487.400 4  99309779.84246  24252464.34046
  21824736.125 6 114689761.770 6  89368668.54249  21824743.69149
  21173895.047 6 111269568.124 6  86703586.88549  21173905.41449
  23866600.195 5 125419822.814 5  97729776.53248  23866611.32448
  20378105.664 6 107087669.454 6  83444956.34648  20378112.16848
  23520548.398 4 123601315.682 4  96312739.91546  23520556.43046
  23012785.820 5 120933000.372 5  94233550.43849  23012795.53949
  24317912.508 2 127791496.188 2  99577836.95047  24317923.12547
 20  5 16  3 38 51.0000000  0  9G01G04G07G08G09G11G16G27G30          0.000407534
  21685891.289 6 113960130.716 6  88800132.72049  21685902.96549
  24253001.344 4 127450379.311 4  99312033.26746  24253013.93446
  21824337.164 6 114687663.321 6  89367033.38749  21824344.66849
  21174251.602 6 111271439.796 6  86705045.32649  21174261.91049
  23867022.227 4 125422039.669 4  97731503.94448  23867033.33648
  20378034.922 6 107087298.021 6  83444666.92148  20378042.14148
  23520920.156 4 123603264.846 4  96314258.75546  23520926.85946
  23013361.367 5 120936025.735 5  94235907.86549  23013371.48449
  24317330.914 2 127788442.406 2  99575457.38447  24317342.27047
 20  5 16  3 38 52.0000000  0  9G01G04G07G08G09G11G16G27G30          0.000407715
  21685378.344 6 113957434.660 6  88798031.90049  21685389.81649
  24253551.875 4 127453271.365 4  99314286.80746  24253564.53146
  21823938.211 6 114685565.592 6  89365398.79449  21823945.69949
  21174607.789 6 111273311.983 6  86706504.17849  21174617.91449
  23867444.016 5 125424256.985 5  97733231.72548  23867455.28548
  20377964.297 6 107086927.457 6  83444378.17248  20377971.49248
  23521290.828 4 123605214.411 4  96315777.89746  23521298.25846
  23013936.992 5 120939051.411 5  94238265.53349  23013947.34849
  24316750.773 3 127785389.158 3  99573078.23048  24316761.38348
 20  5 16  3 38 53.0000000  0  9G01G04G07G08G09G11G16G27G30          0.000407896
  21684865.453 6 113954738.972 6  88795931.36449  21684876.89549
  24254103.383 4 127456163.327 4  99316540.27346  24254114.55946
  21823538.930 6 114683468.251 6  89363764.50649  21823546.69949
  21174963.820 6 111275184.335 6  86707963.14949  21174973.96149
  23867865.867 4 125426474.485 4  97734959.65048  23867877.48848
  20377894.078 6 107086557.430 6  83444089.84148  20377901.28148
  23521661.836 5 123607164.058 5  96317297.09946  23521669.13346
  23014512.805 5 120942077.083 5  94240623.20049  23014523.19949
  24316169.508 3 127782336.035 3  99570699.17448  24316180.43848
 20  5 16  3 38 54.0000000  0  9G01G04G07G08G09G11G16G27G30          0.000408079
  21684352.609 6 113952043.913 6  88793831.32349  21684364.20749
  24254652.953 3 127459055.354 3  99318793.79746  24254665.16046
  21823139.961 6 114681371.578 6  89362130.73249  21823147.76649
  21175320.273 6 111277057.074 6  86709422.42649  21175330.71149
  23868288.406 4 125428692.306 4  97736687.81848  23868298.85248
  20377823.805 6 107086188.148 6  83443802.08448  20377830.76248
  23522033.234 5 123609113.979 5  96318816.51046  23522040.55546
  23015088.938 5 120945102.906 5  94242980.97949  23015099.16449
  24315588.820 3 127779283.261 3  99568320.38648  24315599.52748
 20  5 16  3 38 55.0000000  0  9G01G04G07G08G09G11G16G27G30          0.000408260
  21683840.031 6 113949349.408 6  88791731.70449  21683851.59049
  24255203.508 4 127461947.489 4  99321047.40746  24255215.51646
  21822741.125 6 114679275.465 6  89360497.39649  21822748.48049
  21175676.570 6 111278930.198 6  86710882.00749  21175686.87549
  23868710.031 4 125430910.423 4  97738416.22548  23868721.20348
  20377753.680 6 107085819.590 6  83443514.90048  20377760.16048
  23522404.539 5 123611064.215 5  96320336.17346  23522411.66446
  23015664.234 5 120948128.899 5  94245338.89849  23015674.71549
  24315007.563 3 127776230.830 3  99565941.87648  24315018.43848
 20  5 16  3 38 56.0000000  0  9G01G04G07G08G09G11G16G27G30          0.000408442
  21683327.555 6 113946655.564 6  88789632.61049  21683338.65249
  24255753.820 4 127464839.771 4  99323301.12646  24255765.79346
  21822342.656 6 114677180.053 6  89358864.60749  21822350.23049
  21176033.445 6 111280803.733 6  86712341.90149  21176043.33649
  23869132.117 5 125433129.025 5  97740145.00048  23869143.53148
  20377683.680 6 107085451.835 6  83443228.33548  20377690.43448
  23522774.977 5 123613014.786 5  96321856.10946  23522782.78546
  23016240.578 5 120951155.140 5  94247696.99949  23016250.96149
  24314427.648 2 127773178.792 2  99563563.66147  24314438.13747
 20  5 16  3 38 57.0000000  0  9G01G04G07G08G09G11G16G27G30          0.000408625
  21682814.633 6 113943962.228 6  88787533.90649  21682826.22749
  24256304.594 4 127467732.040 4  99325554.82846  24256316.10246
  21821944.281 6 114675085.168 6  89357232.23349  21821951.65649
  21176389.969 6 111282677.545 6  86713802.01249  21176400.38349
  23869554.133 5 125435347.836 5  97741873.93648  23869565.56348
  20377613.781 6 107085084.736 6  83442942.28448  20377620.59448
  23523146.211 5 123614965.536 5  96323376.16446  23523153.77346
  23016816.125 5 120954181.447 5  94250055.16249  23016826.68049
  24313845.758 2 127770127.000 2  99561185.64547  24313857.47747
 20  5 16  3 38 58.0000000  0  9G01G04G07G08G09G11G16G27G30          0.000408806
  21682302.234 6 113941269.554 6  88785435.72249  21682313.85549
  24256854.602 3 127470624.517 3  99327808.72946  24256866.55146
  21821545.219 6 114672990.993 6  89355600.40449  21821552.68049
  21176746.438 6 111284551.833 6  86715262.50249  21176756.66449
  23869977.258 5 125437567.112 5  97743603.24048  23869987.89548
  20377544.297 6 107084718.458 6  83442656.87448  20377551.02348
  23523517.539 5 123616916.704 5  96324896.54746  23523525.39546
  23017392.969 5 120957208.029 5  94252413.53949  23017402.50849
  24313264.719 2 127767075.697 2  99558808.00547  24313277.06347
